$GPRMC,010807.00,A,5630.3178,N,08456.5320,E,00.000,000.0,190214,,,A*69
$GPGGA,010807.00,5630.3178,N,08456.5320,E,1,06,1.8,76.5,M,,M,,*41
$GPGSA,A,3,05,02,29,21,16,,,,,,,,3.1,1.8,2.5*36
$GPGSA,A,3,85,,,,,,,,,,,,3.1,1.8,2.5*33

$GPRMC,010808.00,A,5630.3184,N,08456.5325,E,00.000,000.0,190214,,,A*60
$GPGGA,010808.00,5630.3184,N,08456.5325,E,1,06,1.8,77.6,M,,M,,*4A
$GPGSA,A,3,05,02,29,21,16,,,,,,,,3.1,1.8,2.5*36
$GPGSA,A,3,85,,,,,,,,,,,,3.1,1.8,2.5*33

$GPRMC,010809.00,A,5630.3186,N,08456.5328,E,00.000,000.0,190214,,,A*6E
$GPGGA,010809.00,5630.3186,N,08456.5328,E,1,06,1.8,78.1,M,,M,,*4C
$GPGSA,A,3,05,02,29,21,16,,,,,,,,3.1,1.8,2.5*36
$GPGSA,A,3,85,,,,,,,,,,,,3.1,1.8,2.5*33

$GPRMC,010810.00,A,5630.3189,N,08456.5332,E,00.000,000.0,190214,,,A*62
$GPGGA,010810.00,5630.3189,N,08456.5332,E,1,06,1.8,78.5,M,,M,,*44
$GPGSA,A,3,05,02,29,21,16,,,,,,,,3.1,1.8,2.5*36
$GPGSA,A,3,85,,,,,,,,,,,,3.1,1.8,2.5*33
$GPGSV,6,1,12,02,27,103,32,
05,64,083,31,07,08,043,34,09,01,078,*7F
$GPGSV,6,2,12,10,08,056,30,15,14,165,,16,12,338,35,18,05,228,*7A
$GPGSV,6,3,12,21,35,276,38,25,05,219,,26,29,131,34,29,65,216,46*7E
$GPGSV,6,4,11,68,16,039,29,69,67,063,11,70,47,201,42,71,00,212,*7E
$GPGSV,6,5,11
,76,09,307,,77,18,358,27,78,05,046,,83,03,138,*7E
$GPGSV,6,6,11,84,53,143,,85,72,302,34,86,21,315,34*46

$GPRMC,010812.00,A,5630.3172,N,08456.5337,E,00.000,000.0,190214,,,A*61
$GPGGA,010812.00,5630.3172,N,08456.5337,E,1,09,1.1,72.1,M,,M,,*4F
$GPGSA,A,3,05,02,29,21,16,,,,,,,,2.1,1.1,1.7*3F
$GPGSA,A,3,68,86,85,70,,,,,,,,,2.1,1.1,1.7*3D

$GPRMC,010813.00,A,5630.3167,N,08456.5340,E,00.000,000.0,190214,,,A*64
$GPGGA,010813.00,5630.3167,N,08456.5340,E,1,09,1.1,70.2,M,,M,,*4B
$GPGSA,A,3,05,02,29,21,16,,,,,,,,2.1,1.1,1.7*3F
$GPGSA,A,3,68,86,85,70,,,,,,,,,2.1,1.1,1.7*3D

$GPRMC,010814.00,A,5630.3163,N,08456.5342,E,00.000,000.0,190214,,,A*65
$GPGGA,010814.00,5630.3163,N,08456.5342,E,1,09,1.1,68.7,M,,M,,*46
$GPGSA,A,3,05,02,29,21,16,,,,,,,,2.1,1.1,1.7*3F
$GPGSA,A,3,68,86,85,70,,,,,,,,,2.1,1.1,1.7*3D

$GPRMC,010815.00,A,5630.3160,N,08456.5343,E,00.000,000.0,190214,,,A*66
$GPGGA,010815.00,5630.3160,N,08456.5343,E,1,09,1.1,67.4,M,,M,,*49
$GPGSA,A,3,05,02,29,21,16,,,,,,,,2.1,1.1,1.7*3F
$GPGSA,A,3,68,86,85,70,,,,,,,,,2.1,1.1,1.7*3D
$GPGSV,6,1,12,02,27,1
03,33,05,64,083,32,07,08,043,36,09,01,078,*7F
$GPGSV,6,2,12,10,08,056,31,15,14,165,,16,12,338,35,18,05,228,*7B
$GPGSV,6,3,12,21,35,276,38,25,05,219,,26,29,131,34,29,65,216,46*7E
$GPGSV,6,4,11,68,16,039,27,69,67,063,12,70,48,201,42,71,00,212,*7C
$GPGSV,
6,5,11,76,09,307,,77,18,358,30,78,06,046,,83,03,138,*7B
$GPGSV,6,6,11,84,53,143,19,85,72,301,34,86,21,315,34*4D

$GPRMC,010817.00,A,5630.3154,N,08456.5343,E,00.000,000.0,190214,,,A*63
$GPGGA,010817.00,5630.3154,N,08456.5343,E,1,09,1.1,65.4,M,,M,,*4E
$GPGSA,A,3,05,02,29,21,16,,,,,,,,2.1,1.1,1.7*3F
$GPGSA,A,3,68,86,85,70,,,,,,,,,2.1,1.1,1.7*3D

$GPRMC,010818.00,A,5630.3151,N,08456.5342,E,00.000,000.0,190214,,,A*68
$GPGGA,010818.00,5630.3151,N,08456.5342,E,1,09,1.1,64.5,M,,M,,*45
$GPGSA,A,3,05,02,29,21,16,,,,,,,,2.1,1.1,1.7*3F
$GPGSA,A,3,68,86,85,70,,,,,,,,,2.1,1.1,1.7*3D

$GPRMC,010819.00,A,5630.3148,N,08456.5342,E,00.000,000.0,190214,,,A*61
$GPGGA,010819.00,5630.3148,N,08456.5342,E,1,09,1.1,63.7,M,,M,,*49
$GPGSA,A,3,05,02,29,21,16,,,,,,,,2.1,1.1,1.7*3F
$GPGSA,A,3,68,86,85,70,,,,,,,,,2.1,1.1,1.7*3D

$GPRMC,010820.00,A,5630.3146,N,08456.5341,E,00.000,000.0,190214,,,A*66
$GPGGA,010820.00,5630.3146,N,08456.5341,E,1,09,1.1,63.0,M,,M,,*49
$GPGSA,A,3,05,02,29,21,16,,,,,,,,2.1,1.1,1.7*3F
$GPGSA,A,3,68,86,85,70,,,,,,,,,2.1,1.1,1.7*3D
$GPGSV,6,1,12,02,27,1
03,31,05,64,083,34,07,08,043,37,09,01,077,*75
$GPGSV,6,2,12,10,08,056,29,15,14,165,,16,12,338,36,18,05,228,*71
$GPGSV,6,3,12,21,35,276,38,25,05,219,,26,30,131,34,29,65,216,46*76
$GPGSV,6,4,11,68,16,039,28,69,67,063,12,70,48,201,42,71,00,212,*73
$GPGSV,
6,5,11,76,09,307,,77,18,358,33,78,06,046,,83,03,138,*78
$GPGSV,6,6,11,84,53,143,,85,72,301,34,86,21,315,34*45

$GPRMC,010822.00,A,5630.3142,N,08456.5339,E,00.000,000.0,190214,,,A*6F
$GPGGA,010822.00,5630.3142,N,08456.5339,E,1,09,1.1,61.6,M,,M,,*44
$GPGSA,A,3,05,02,29,21,16,,,,,,,,2.1,1.1,1.7*3F
$GPGSA,A,3,68,86,85,70,,,,,,,,,2.1,1.1,1.7*3D

$GPRMC,010823.00,A,5630.3140,N,08456.5337,E,00.000,000.0,190214,,,A*62
$GPGGA,010823.00,5630.3140,N,08456.5337,E,1,10,1.1,61.0,M,,M,,*47
$GPGSA,A,3,05,02,29,21,16,,,,,,,,1.9,1.1,1.5*36
$GPGSA,A,3,68,69,86,85,70,,,,,,,,1.9,1.1,1.5*3B

$GPRMC,010824.00,A,5630.3138,N,08456.5336,E,00.000,000.0,190214,,,A*6B
$GPGGA,010824.00,5630.3138,N,08456.5336,E,1,10,1.1,60.5,M,,M,,*4A
$GPGSA,A,3,05,02,29,21,16,,,,,,,,1.9,1.1,1.5*36
$GPGSA,A,3,68,69,86,85,70,,,,,,,,1.9,1.1,1.5*3B

$GPRMC,010825.00,A,5630.3137,N,08456.5335,E,00.000,000.0,190214,,,A*66
$GPGGA,010825.00,5630.3137,N,08456.5335,E,1,10,1.1,60.0,M,,M,,*42
$GPGSA,A,3,05,02,29,21,16,,,,,,,,1.9,1.1,1.5*36
$GPGSA,A,3,68,69,86,85,70,,,,,,,,1.9,1.1,1.5*3B
$GPGSV,6,1,12,02,27
,103,32,05,64,083,34,07,08,043,38,09,01,077,*79
$GPGSV,6,2,12,10,08,056,31,15,14,165,,16,12,338,36,18,05,228,*78
$GPGSV,6,3,12,21,35,276,39,25,05,219,,26,30,131,33,29,65,216,46*70
$GPGSV,6,4,11,68,16,039,29,69,67,063,26,70,48,201,41,71,00,212,*76
$GPGS
V,6,5,11,76,09,307,,77,18,358,32,78,06,046,,83,03,138,*79
$GPGSV,6,6,11,84,53,143,,85,72,301,34,86,21,315,35*44

$GPRMC,010827.00,A,5630.3134,N,08456.5332,E,00.000,000.0,190214,,,A*60
$GPGGA,010827.00,5630.3134,N,08456.5332,E,1,10,1.1,59.1,M,,M,,*4F
$GPGSA,A,3,05,02,29,21,16,,,,,,,,1.9,1.1,1.5*36
$GPGSA,A,3,68,69,86,85,70,,,,,,,,1.9,1.1,1.5*3B

$GPRMC,010828.00,A,5630.3132,N,08456.5331,E,00.000,000.0,190214,,,A*6A
$GPGGA,010828.00,5630.3132,N,08456.5331,E,1,11,0.9,58.3,M,,M,,*4E
$GPGSA,A,3,05,02,29,21,16,26,,,,,,,1.7,0.9,1.4*34
$GPGSA,A,3,68,69,86,85,70,,,,,,,,1.7,0.9,1.4*3D

$GPRMC,010829.00,A,5630.3130,N,08456.5330,E,00.000,000.0,190214,,,A*68
$GPGGA,010829.00,5630.3130,N,08456.5330,E,1,11,0.9,57.6,M,,M,,*46
$GPGSA,A,3,05,02,29,21,16,26,,,,,,,1.7,0.9,1.4*34
$GPGSA,A,3,68,69,86,85,70,,,,,,,,1.7,0.9,1.4*3D

$GPRMC,010830.00,A,5630.3128,N,08456.5329,E,00.000,000.0,190214,,,A*61
$GPGGA,010830.00,5630.3128,N,08456.5329,E,1,11,0.9,57.0,M,,M,,*49
$GPGSA,A,3,05,02,29,21,16,26,,,,,,,1.7,0.9,1.4*34
$GPGSA,A,3,68,69,86,85,70,,,,,,,,1.7,0.9,1.4*3D
$GPGSV,6,1,12,02,
27,103,32,05,64,083,32,07,08,042,34,09,01,077,*72
$GPGSV,6,2,12,10,08,056,30,15,14,165,,16,12,338,35,18,05,228,*7A
$GPGSV,6,3,12,21,35,276,38,25,05,219,,26,30,131,35,29,65,216,46*77
$GPGSV,6,4,11,68,16,039,29,69,67,063,25,70,48,201,41,71,00,212,*75
$GP
GSV,6,5,11,76,09,307,,77,18,358,32,78,06,046,,83,03,138,*79
$GPGSV,6,6,11,84,53,143,19,85,72,301,34,86,21,315,36*4F

$GPRMC,010832.00,A,5630.3125,N,08456.5327,E,00.000,000.0,190214,,,A*60
$GPGGA,010832.00,5630.3125,N,08456.5327,E,1,11,0.9,55.9,M,,M,,*43
$GPGSA,A,3,05,02,29,21,16,26,,,,,,,1.7,0.9,1.4*34
$GPGSA,A,3,68,69,86,85,70,,,,,,,,1.7,0.9,1.4*3D

$GPRMC,010833.00,A,5630.3124,N,08456.5326,E,00.000,000.0,190214,,,A*61
$GPGGA,010833.00,5630.3124,N,08456.5326,E,1,11,0.9,55.4,M,,M,,*4F
$GPGSA,A,3,05,02,29,21,16,26,,,,,,,1.7,0.9,1.4*34
$GPGSA,A,3,68,69,86,85,70,,,,,,,,1.7,0.9,1.4*3D

$GPRMC,010834.00,A,5630.3122,N,08456.5323,E,00.000,000.0,190214,,,A*65
$GPGGA,010834.00,5630.3122,N,08456.5323,E,1,13,0.9,55.2,M,,M,,*4F
$GPGSA,A,3,05,07,02,29,21,10,16,26,,,,,1.6,0.9,1.3*34
$GPGSA,A,3,68,69,86,85,70,,,,,,,,1.6,0.9,1.3*3B

$GPRMC,010835.00,A,5630.3121,N,08456.5321,E,00.000,000.0,190214,,,A*65
$GPGGA,010835.00,5630.3121,N,08456.5321,E,1,13,0.9,54.9,M,,M,,*45
$GPGSA,A,3,05,07,02,29,21,10,16,26,,,,,1.6,0.9,1.3*34
$GPGSA,A,3,68,69,86,85,70,,,,,,,,1.6,0.9,1.3*3B
$GPGSV,6,1,12
,02,27,103,32,05,64,083,27,07,08,042,30,09,01,077,*72
$GPGSV,6,2,12,10,08,056,31,15,14,165,,16,12,338,32,18,05,228,*7C
$GPGSV,6,3,12,21,35,276,39,25,05,219,,26,30,131,34,29,65,216,46*77
$GPGSV,6,4,11,68,16,039,29,69,67,063,27,70,48,201,41,71,00,212,*77

$GPGSV,6,5,11,76,09,307,,77,18,358,33,78,06,046,,83,03,138,*78
$GPGSV,6,6,11,84,53,143,29,85,72,301,33,86,21,315,35*48

$GPRMC,010837.00,A,5630.3119,N,08456.5318,E,00.000,000.0,190214,,,A*66
$GPGGA,010837.00,5630.3119,N,08456.5318,E,1,13,0.9,54.7,M,,M,,*48
$GPGSA,A,3,05,07,02,29,21,10,16,26,,,,,1.6,0.9,1.3*34
$GPGSA,A,3,68,69,86,85,70,,,,,,,,1.6,0.9,1.3*3B

$GPRMC,010838.00,A,5630.3118,N,08456.5317,E,00.000,000.0,190214,,,A*67
$GPGGA,010838.00,5630.3118,N,08456.5317,E,1,13,0.9,54.6,M,,M,,*48
$GPGSA,A,3,05,07,02,29,21,10,16,26,,,,,1.6,0.9,1.3*34
$GPGSA,A,3,68,69,86,85,70,,,,,,,,1.6,0.9,1.3*3B

$GPRMC,010839.00,A,5630.3118,N,08456.5317,E,00.000,000.0,190214,,,A*66
$GPGGA,010839.00,5630.3118,N,08456.5317,E,1,13,0.9,54.5,M,,M,,*4A
$GPGSA,A,3,05,07,02,29,21,10,16,26,,,,,1.6,0.9,1.3*34
$GPGSA,A,3,68,69,86,85,70,,,,,,,,1.6,0.9,1.3*3B

$GPRMC,010840.00,A,5630.3118,N,08456.5316,E,00.000,000.0,190214,,,A*69
$GPGGA,010840.00,5630.3118,N,08456.5316,E,1,13,0.9,54.5,M,,M,,*45
$GPGSA,A,3,05,07,02,29,21,10,16,26,,,,,1.6,0.9,1.3*34
$GPGSA,A,3,68,69,86,85,70,,,,,,,,1.6,0.9,1.3*3B
$GPGSV,6,1,12
,02,27,103,29,05,63,083,20,07,08,042,20,09,01,077,*79
$GPGSV,6,2,12,10,08,056,32,15,14,165,27,16,12,338,32,18,05,228,*7A
$GPGSV,6,3,12,21,35,276,40,25,05,219,,26,30,131,33,29,65,216,46*7E
$GPGSV,6,4,11,68,16,039,29,69,67,063,26,70,48,201,41,71,00,212,*7
6
$GPGSV,6,5,11,76,09,307,,77,18,358,32,78,06,046,,83,03,138,*79
$GPGSV,6,6,11,84,53,143,28,85,72,301,32,86,21,315,37*4A

$GPRMC,010842.00,A,5630.3117,N,08456.5315,E,00.000,000.0,190214,,,A*67
$GPGGA,010842.00,5630.3117,N,08456.5315,E,1,14,0.9,54.6,M,,M,,*4F
$GPGSA,A,3,05,07,02,29,21,10,16,26,,,,,1.6,0.9,1.3*34
$GPGSA,A,3,68,69,86,85,70,77,,,,,,,1.6,0.9,1.3*3B

$GPRMC,010843.00,A,5630.3117,N,08456.5315,E,00.000,000.0,190214,,,A*66
$GPGGA,010843.00,5630.3117,N,08456.5315,E,1,14,0.9,54.7,M,,M,,*4F
$GPGSA,A,3,05,07,02,29,21,10,16,26,,,,,1.6,0.9,1.3*34
$GPGSA,A,3,68,69,86,85,70,77,,,,,,,1.6,0.9,1.3*3B

$GPRMC,010844.00,A,5630.3116,N,08456.5315,E,00.000,000.0,190214,,,A*60
$GPGGA,010844.00,5630.3116,N,08456.5315,E,1,14,0.9,54.7,M,,M,,*49
$GPGSA,A,3,05,07,02,29,21,10,16,26,,,,,1.6,0.9,1.3*34
$GPGSA,A,3,68,69,86,85,70,77,,,,,,,1.6,0.9,1.3*3B

$GPRMC,010845.00,A,5630.3116,N,08456.5314,E,00.000,000.0,190214,,,A*60
$GPGGA,010845.00,5630.3116,N,08456.5314,E,1,14,0.9,54.8,M,,M,,*46
$GPGSA,A,3,05,07,02,29,21,10,16,26,,,,,1.6,0.9,1.3*34
$GPGSA,A,3,68,69,86,85,70,77,,,,,,,1.6,0.9,1.3*3B
$GPGSV,6,1,
12,02,27,103,28,05,63,083,14,07,08,042,31,09,01,077,*7F
$GPGSV,6,2,12,10,08,056,32,15,14,165,25,16,12,338,35,18,05,228,*7F
$GPGSV,6,3,12,21,35,276,39,25,05,219,,26,30,131,33,29,65,216,46*70
$GPGSV,6,4,11,68,15,039,29,69,67,063,25,70,48,201,41,71,00,212,
*76
$GPGSV,6,5,11,76,09,307,,77,18,358,31,78,06,046,,83,03,138,*7A
$GPGSV,6,6,11,84,52,143,30,85,72,301,32,86,21,315,37*42

$GPRMC,010847.00,A,5630.3115,N,08456.5313,E,00.000,000.0,190214,,,A*66
$GPGGA,010847.00,5630.3115,N,08456.5313,E,1,13,1.0,55.0,M,,M,,*46
$GPGSA,A,3,07,02,29,21,10,16,26,,,,,,1.9,1.0,1.7*32
$GPGSA,A,3,68,69,86,85,70,77,,,,,,,1.9,1.0,1.7*38

$GPRMC,010848.00,A,5630.3115,N,08456.5313,E,00.000,000.0,190214,,,A*69
$GPGGA,010848.00,5630.3115,N,08456.5313,E,1,13,1.0,55.1,M,,M,,*48
$GPGSA,A,3,07,02,29,21,10,16,26,,,,,,1.9,1.0,1.7*32
$GPGSA,A,3,68,69,86,85,70,77,,,,,,,1.9,1.0,1.7*38

$GPRMC,010849.00,A,5630.3114,N,08456.5312,E,00.000,000.0,190214,,,A*68
$GPGGA,010849.00,5630.3114,N,08456.5312,E,1,13,1.0,55.2,M,,M,,*4A
$GPGSA,A,3,07,02,29,21,10,16,26,,,,,,1.9,1.0,1.7*32
$GPGSA,A,3,68,69,86,85,70,77,,,,,,,1.9,1.0,1.7*38

$GPRMC,010850.00,A,5630.3114,N,08456.5311,E,00.000,000.0,190214,,,A*63
$GPGGA,010850.00,5630.3114,N,08456.5311,E,1,13,1.0,55.4,M,,M,,*47
$GPGSA,A,3,07,02,29,21,10,16,26,,,,,,1.9,1.0,1.7*32
$GPGSA,A,3,68,69,86,85,70,77,,,,,,,1.9,1.0,1.7*38
$GPGSV,6,1,12
,02,27,103,29,05,63,083,16,07,08,042,36,09,01,077,*7B
$GPGSV,6,2,12,10,08,056,32,15,14,165,27,16,12,338,36,18,05,228,*7E
$GPGSV,6,3,12,21,35,276,40,25,05,219,,26,30,131,34,29,65,216,46*79
$GPGSV,6,4,11,68,15,039,28,69,67,063,20,70,48,201,41,71,00,212,*7
2
$GPGSV,6,5,11,76,09,307,,77,18,358,31,78,06,046,,83,03,138,*7A
$GPGSV,6,6,11,84,52,143,29,85,72,301,32,86,21,315,38*45

$GPRMC,010852.00,A,5630.3112,N,08456.5310,E,00.000,000.0,190214,,,A*66
$GPGGA,010852.00,5630.3112,N,08456.5310,E,1,14,0.9,55.5,M,,M,,*4C
$GPGSA,A,3,05,07,02,29,21,10,16,26,,,,,1.6,0.9,1.3*34
$GPGSA,A,3,68,69,86,85,70,77,,,,,,,1.6,0.9,1.3*3B

$GPRMC,010853.00,A,5630.3112,N,08456.5310,E,00.000,000.0,190214,,,A*67
$GPGGA,010853.00,5630.3112,N,08456.5310,E,1,14,0.9,55.5,M,,M,,*4D
$GPGSA,A,3,05,07,02,29,21,10,16,26,,,,,1.6,0.9,1.3*34
$GPGSA,A,3,68,69,86,85,70,77,,,,,,,1.6,0.9,1.3*3B

$GPRMC,010854.00,A,5630.3111,N,08456.5309,E,00.000,000.0,190214,,,A*6B
$GPGGA,010854.00,5630.3111,N,08456.5309,E,1,14,0.9,55.6,M,,M,,*42
$GPGSA,A,3,05,07,02,29,21,10,16,26,,,,,1.6,0.9,1.3*34
$GPGSA,A,3,68,69,86,85,70,77,,,,,,,1.6,0.9,1.3*3B

$GPRMC,010855.00,A,5630.3111,N,08456.5309,E,00.000,000.0,190214,,,A*6A
$GPGGA,010855.00,5630.3111,N,08456.5309,E,1,14,0.9,55.6,M,,M,,*43
$GPGSA,A,3,05,07,02,29,21,10,16,26,,,,,1.6,0.9,1.3*34
$GPGSA,A,3,68,69,86,85,70,77,,,,,,,1.6,0.9,1.3*3B
$GPGSV,6,1,
12,02,27,103,29,05,63,083,20,07,08,042,36,09,01,077,*7E
$GPGSV,6,2,12,10,08,056,31,15,14,165,25,16,12,338,38,18,05,228,*71
$GPGSV,6,3,12,21,35,276,41,25,05,219,,26,30,131,33,29,65,215,47*7D
$GPGSV,6,4,11,68,15,039,28,69,67,062,21,70,48,201,41,71,00,212,
*72
$GPGSV,6,5,11,76,09,307,,77,18,358,32,78,06,046,,83,03,138,*79
$GPGSV,6,6,11,84,52,144,28,85,72,301,32,86,22,315,37*4F

$GPRMC,010857.00,A,5630.3110,N,08456.5308,E,00.000,000.0,190214,,,A*68
$GPGGA,010857.00,5630.3110,N,08456.5308,E,1,14,0.9,55.6,M,,M,,*41
$GPGSA,A,3,05,07,02,29,21,10,16,26,,,,,1.6,0.9,1.3*34
$GPGSA,A,3,68,69,86,85,70,77,,,,,,,1.6,0.9,1.3*3B

$GPRMC,010858.00,A,5630.3110,N,08456.5308,E,00.000,000.0,190214,,,A*67
$GPGGA,010858.00,5630.3110,N,08456.5308,E,1,14,0.9,55.6,M,,M,,*4E
$GPGSA,A,3,05,07,02,29,21,10,16,26,,,,,1.6,0.9,1.3*34
$GPGSA,A,3,68,69,86,85,70,77,,,,,,,1.6,0.9,1.3*3B

$GPRMC,010859.00,A,5630.3110,N,08456.5308,E,00.000,000.0,190214,,,A*66
$GPGGA,010859.00,5630.3110,N,08456.5308,E,1,14,0.9,55.6,M,,M,,*4F
$GPGSA,A,3,05,07,02,29,21,10,16,26,,,,,1.6,0.9,1.3*34
$GPGSA,A,3,68,69,86,85,70,77,,,,,,,1.6,0.9,1.3*3B

$GPRMC,010900.00,A,5630.3109,N,08456.5308,E,00.000,000.0,190214,,,A*63
$GPGGA,010900.00,5630.3109,N,08456.5308,E,1,14,0.9,55.7,M,,M,,*4B
$GPGSA,A,3,05,07,02,29,21,10,16,26,,,,,1.6,0.9,1.3*34
$GPGSA,A,3,68,69,86,85,70,77,,,,,,,1.6,0.9,1.3*3B
$GPGSV,6,1,
12,02,26,103,28,05,63,083,26,07,08,042,35,09,01,077,*7B
$GPGSV,6,2,12,10,08,056,29,15,14,165,26,16,12,338,36,18,05,228,*75
$GPGSV,6,3,12,21,35,276,41,25,05,219,,26,30,131,32,29,65,215,46*7D
$GPGSV,6,4,11,68,15,039,27,69,67,062,25,70,48,201,41,71,00,212,
*79
$GPGSV,6,5,11,76,09,307,,77,18,358,32,78,06,046,,83,03,138,*79
$GPGSV,6,6,11,84,52,144,27,85,72,301,32,86,22,315,37*40

$GPRMC,010902.00,A,5630.3109,N,08456.5307,E,00.000,000.0,190214,,,A*6E
$GPGGA,010902.00,5630.3109,N,08456.5307,E,1,13,0.9,56.0,M,,M,,*45
$GPGSA,A,3,05,07,02,29,21,10,16,26,,,,,1.8,0.9,1.5*3C
$GPGSA,A,3,68,86,85,70,77,,,,,,,,1.8,0.9,1.5*3C

$GPRMC,010903.00,A,5630.3109,N,08456.5307,E,00.000,000.0,190214,,,A*6F
$GPGGA,010903.00,5630.3109,N,08456.5307,E,1,13,0.9,56.2,M,,M,,*46
$GPGSA,A,3,05,07,02,29,21,10,16,26,,,,,1.8,0.9,1.5*3C
$GPGSA,A,3,68,86,85,70,77,,,,,,,,1.8,0.9,1.5*3C

$GPRMC,010904.00,A,5630.3109,N,08456.5307,E,00.000,000.0,190214,,,A*68
$GPGGA,010904.00,5630.3109,N,08456.5307,E,1,13,0.9,56.4,M,,M,,*47
$GPGSA,A,3,05,07,02,29,21,10,16,26,,,,,1.8,0.9,1.5*3C
$GPGSA,A,3,68,86,85,70,77,,,,,,,,1.8,0.9,1.5*3C

$GPRMC,010905.00,A,5630.3109,N,08456.5308,E,00.000,000.0,190214,,,A*66
$GPGGA,010905.00,5630.3109,N,08456.5308,E,1,13,0.9,56.5,M,,M,,*48
$GPGSA,A,3,05,07,02,29,21,10,16,26,,,,,1.8,0.9,1.5*3C
$GPGSA,A,3,68,86,85,70,77,,,,,,,,1.8,0.9,1.5*3C
$GPGSV,6,1,12
,02,26,103,30,05,63,083,26,07,08,042,36,09,01,077,*71
$GPGSV,6,2,12,10,08,056,29,15,14,165,20,16,12,338,36,18,05,228,*73
$GPGSV,6,3,12,21,35,276,41,25,05,219,,26,30,131,32,29,65,215,46*7D
$GPGSV,6,4,11,68,15,039,28,69,66,062,25,70,48,201,41,71,00,212,*7
7
$GPGSV,6,5,11,76,09,306,,77,18,358,34,78,06,046,17,83,02,138,*79
$GPGSV,6,6,11,84,52,144,29,85,73,301,32,86,22,315,38*40

$GPRMC,010907.00,A,5630.3109,N,08456.5311,E,00.000,000.0,190214,,,A*6C
$GPGGA,010907.00,5630.3109,N,08456.5311,E,1,13,0.9,56.7,M,,M,,*40
$GPGSA,A,3,05,07,02,29,21,10,16,26,,,,,1.8,0.9,1.5*3C
$GPGSA,A,3,68,86,85,70,77,,,,,,,,1.8,0.9,1.5*3C

$GPRMC,010908.00,A,5630.3109,N,08456.5313,E,00.000,000.0,190214,,,A*61
$GPGGA,010908.00,5630.3109,N,08456.5313,E,1,13,0.9,56.8,M,,M,,*42
$GPGSA,A,3,05,07,02,29,21,10,16,26,,,,,1.8,0.9,1.5*3C
$GPGSA,A,3,68,86,85,70,77,,,,,,,,1.8,0.9,1.5*3C

$GPRMC,010909.00,A,5630.3110,N,08456.5315,E,00.000,000.0,190214,,,A*6E
$GPGGA,010909.00,5630.3110,N,08456.5315,E,1,13,0.9,56.7,M,,M,,*42
$GPGSA,A,3,05,07,02,29,21,10,16,26,,,,,1.8,0.9,1.5*3C
$GPGSA,A,3,68,86,85,70,77,,,,,,,,1.8,0.9,1.5*3C

$GPRMC,010910.00,A,5630.3110,N,08456.5317,E,00.000,000.0,190214,,,A*64
$GPGGA,010910.00,5630.3110,N,08456.5317,E,1,13,0.9,56.6,M,,M,,*49
$GPGSA,A,3,05,07,02,29,21,10,16,26,,,,,1.8,0.9,1.5*3C
$GPGSA,A,3,68,86,85,70,77,,,,,,,,1.8,0.9,1.5*3C
$GPGSV,6,1,12
,02,26,103,31,05,63,083,31,07,08,042,30,09,01,077,*70
$GPGSV,6,2,12,10,07,056,29,15,14,165,15,16,12,338,35,18,05,228,*79
$GPGSV,6,3,12,21,35,276,41,25,05,219,,26,30,131,34,29,65,215,46*7B
$GPGSV,6,4,11,68,15,039,28,69,66,062,27,70,48,201,41,71,00,212,*7
5
$GPGSV,6,5,11,76,09,306,,77,18,358,32,78,06,046,,83,02,138,*79
$GPGSV,6,6,11,84,52,144,26,85,73,301,34,86,22,315,39*48

$GPRMC,010912.00,A,5630.3111,N,08456.5322,E,00.000,000.0,190214,,,A*61
$GPGGA,010912.00,5630.3111,N,08456.5322,E,1,14,0.9,56.1,M,,M,,*4C
$GPGSA,A,3,05,07,02,29,21,10,16,26,,,,,1.8,0.9,1.5*3C
$GPGSA,A,3,68,86,85,70,77,84,,,,,,,1.8,0.9,1.5*30

$GPRMC,010913.00,A,5630.3111,N,08456.5325,E,00.000,000.0,190214,,,A*67
$GPGGA,010913.00,5630.3111,N,08456.5325,E,1,14,0.9,56.0,M,,M,,*4B
$GPGSA,A,3,05,07,02,29,21,10,16,26,,,,,1.8,0.9,1.5*3C
$GPGSA,A,3,68,86,85,70,77,84,,,,,,,1.8,0.9,1.5*30

$GPRMC,010914.00,A,5630.3111,N,08456.5327,E,00.000,000.0,190214,,,A*62
$GPGGA,010914.00,5630.3111,N,08456.5327,E,1,14,0.9,55.7,M,,M,,*4A
$GPGSA,A,3,05,07,02,29,21,10,16,26,,,,,1.8,0.9,1.5*3C
$GPGSA,A,3,68,86,85,70,77,84,,,,,,,1.8,0.9,1.5*30

$GPRMC,010915.00,A,5630.3112,N,08456.5330,E,00.000,000.0,190214,,,A*66
$GPGGA,010915.00,5630.3112,N,08456.5330,E,1,14,0.9,55.3,M,,M,,*4A
$GPGSA,A,3,05,07,02,29,21,10,16,26,,,,,1.8,0.9,1.5*3C
$GPGSA,A,3,68,86,85,70,77,84,,,,,,,1.8,0.9,1.5*30
$GPGSV,6,1,
12,02,26,103,25,05,63,083,25,07,08,042,29,09,01,077,*78
$GPGSV,6,2,12,10,07,056,29,15,14,165,13,16,12,338,34,18,05,228,*7E
$GPGSV,6,3,12,21,35,276,41,25,05,219,,26,30,131,35,29,65,215,46*7A
$GPGSV,6,4,11,68,15,039,28,69,66,062,27,70,48,201,41,71,00,212,
*75
$GPGSV,6,5,11,76,09,306,,77,18,358,32,78,06,046,,83,02,138,*79
$GPGSV,6,6,11,84,52,144,26,85,73,301,32,86,22,315,39*4E

$GPRMC,010917.00,A,5630.3112,N,08456.5334,E,00.000,000.0,190214,,,A*60
$GPGGA,010917.00,5630.3112,N,08456.5334,E,1,15,0.8,54.8,M,,M,,*46
$GPGSA,A,3,05,07,02,29,21,10,16,26,,,,,1.6,0.8,1.3*35
$GPGSA,A,3,68,69,86,85,70,77,84,,,,,,1.6,0.8,1.3*36

$GPRMC,010918.00,A,5630.3114,N,08456.5331,E,01.486,293.6,190214,,,A*69
$GPGGA,010918.00,5630.3114,N,08456.5331,E,1,15,0.8,54.6,M,,M,,*44
$GPGSA,A,3,05,07,02,29,21,10,16,26,,,,,1.6,0.8,1.3*35
$GPGSA,A,3,68,69,86,85,70,77,84,,,,,,1.6,0.8,1.3*36

$GPRMC,010919.00,A,5630.3115,N,08456.5324,E,00.000,000.0,190214,,,A*68
$GPGGA,010919.00,5630.3115,N,08456.5324,E,1,15,0.8,54.5,M,,M,,*43
$GPGSA,A,3,05,07,02,29,21,10,16,26,,,,,1.6,0.8,1.3*35
$GPGSA,A,3,68,69,86,85,70,77,84,,,,,,1.6,0.8,1.3*36

$GPRMC,010920.00,A,5630.3115,N,08456.5319,E,01.773,269.2,190214,,,A*61
$GPGGA,010920.00,5630.3115,N,08456.5319,E,1,15,0.8,54.2,M,,M,,*40
$GPGSA,A,3,05,07,02,29,21,10,16,26,,,,,1.6,0.8,1.3*35
$GPGSA,A,3,68,69,86,85,70,77,84,,,,,,1.6,0.8,1.3*36
$GPGSV,6,
1,12,02,26,103,47,05,63,082,41,07,08,042,35,09,01,077,*72
$GPGSV,6,2,12,10,07,056,30,15,14,165,33,16,12,338,32,18,05,228,*72
$GPGSV,6,3,12,21,35,276,37,25,05,219,,26,30,131,43,29,65,215,45*79
$GPGSV,6,4,11,68,15,039,25,69,66,062,28,70,48,201,43,71,00,21
2,*75
$GPGSV,6,5,11,76,09,306,,77,18,358,20,78,06,046,,83,02,138,*7A
$GPGSV,6,6,11,84,52,144,34,85,73,301,37,86,22,315,30*41

$GPRMC,010922.00,A,5630.3113,N,08456.5289,E,03.535,267.7,190214,,,A*64
$GPGGA,010922.00,5630.3113,N,08456.5289,E,1,15,0.8,53.5,M,,M,,*4C
$GPGSA,A,3,05,07,02,29,21,10,16,26,,,,,1.6,0.8,1.3*35
$GPGSA,A,3,68,69,86,85,70,77,84,,,,,,1.6,0.8,1.3*36

$GPRMC,010923.00,A,5630.3112,N,08456.5269,E,03.665,269.3,190214,,,A*66
$GPGGA,010923.00,5630.3112,N,08456.5269,E,1,15,0.8,53.2,M,,M,,*45
$GPGSA,A,3,05,07,02,29,21,10,16,26,,,,,1.6,0.8,1.3*35
$GPGSA,A,3,68,69,86,85,70,77,84,,,,,,1.6,0.8,1.3*36

$GPRMC,010924.00,A,5630.3111,N,08456.5247,E,04.058,271.7,190214,,,A*6C
$GPGGA,010924.00,5630.3111,N,08456.5247,E,1,14,0.9,53.0,M,,M,,*4F
$GPGSA,A,3,05,07,02,29,21,10,16,26,,,,,1.6,0.9,1.3*34
$GPGSA,A,3,68,69,86,85,70,84,,,,,,,1.6,0.9,1.3*37

$GPRMC,010925.00,A,5630.3110,N,08456.5225,E,04.212,271.8,190214,,,A*6B
$GPGGA,010925.00,5630.3110,N,08456.5225,E,1,14,0.9,52.8,M,,M,,*42
$GPGSA,A,3,05,07,02,29,21,10,16,26,,,,,1.6,0.9,1.3*34
$GPGSA,A,3,68,69,86,85,70,84,,,,,,,1.6,0.9,1.3*37
$GPGSV,6,1,
12,02,26,103,43,05,63,082,35,07,08,042,27,09,01,077,*76
$GPGSV,6,2,12,10,07,056,28,15,14,165,32,16,12,338,30,18,05,228,*78
$GPGSV,6,3,12,21,35,276,34,25,05,219,,26,30,131,43,29,65,215,43*7C
$GPGSV,6,4,11,68,15,039,24,69,66,062,37,70,48,201,39,71,00,212,
*77
$GPGSV,6,5,11,76,09,306,,77,18,357,13,78,06,046,,83,02,138,*75
$GPGSV,6,6,11,84,52,144,34,85,73,301,37,86,22,315,24*44

$GPRMC,010927.00,A,5630.3108,N,08456.5184,E,03.772,265.8,190214,,,A*69
$GPGGA,010927.00,5630.3108,N,08456.5184,E,1,14,0.9,52.5,M,,M,,*4C
$GPGSA,A,3,05,07,02,29,21,10,16,26,,,,,1.6,0.9,1.3*34
$GPGSA,A,3,68,69,86,85,70,84,,,,,,,1.6,0.9,1.3*37

$GPRMC,010928.00,A,5630.3107,N,08456.5165,E,03.674,260.1,190214,,,A*6D
$GPGGA,010928.00,5630.3107,N,08456.5165,E,1,14,0.9,52.2,M,,M,,*44
$GPGSA,A,3,05,07,02,29,21,10,16,26,,,,,1.6,0.9,1.3*34
$GPGSA,A,3,68,69,86,85,70,84,,,,,,,1.6,0.9,1.3*37

$GPRMC,010929.00,A,5630.3104,N,08456.5147,E,03.448,254.0,190214,,,A*64
$GPGGA,010929.00,5630.3104,N,08456.5147,E,1,15,0.8,51.8,M,,M,,*4F
$GPGSA,A,3,05,07,02,29,21,10,16,26,,,,,1.6,0.8,1.3*35
$GPGSA,A,3,68,69,86,85,70,77,84,,,,,,1.6,0.8,1.3*36

$GPRMC,010930.00,A,5630.3098,N,08456.5132,E,03.695,227.0,190214,,,A*6C
$GPGGA,010930.00,5630.3098,N,08456.5132,E,1,15,0.8,51.5,M,,M,,*4C
$GPGSA,A,3,05,07,02,29,21,10,16,26,,,,,1.6,0.8,1.3*35
$GPGSA,A,3,68,69,86,85,70,77,84,,,,,,1.6,0.8,1.3*36
$GPGSV,6,
1,12,02,26,103,32,05,63,082,45,07,08,042,39,09,01,077,*78
$GPGSV,6,2,12,10,07,056,35,15,14,165,27,16,12,338,26,18,05,228,*77
$GPGSV,6,3,12,21,35,276,36,25,05,219,,26,30,131,30,29,65,215,40*79
$GPGSV,6,4,11,68,15,039,37,69,66,062,31,70,48,201,37,71,00,21
2,*7D
$GPGSV,6,5,11,76,09,306,,77,18,357,17,78,06,046,,83,02,138,*71
$GPGSV,6,6,11,84,52,144,36,85,73,300,37,86,22,315,22*41

$GPRMC,010932.00,A,5630.3075,N,08456.5114,E,04.763,195.7,190214,,,A*6B
$GPGGA,010932.00,5630.3075,N,08456.5114,E,1,15,0.8,51.3,M,,M,,*4F
$GPGSA,A,3,05,07,02,29,21,10,16,26,,,,,1.6,0.8,1.3*35
$GPGSA,A,3,68,69,86,85,70,77,84,,,,,,1.6,0.8,1.3*36

$GPRMC,010933.00,A,5630.3061,N,08456.5109,E,04.932,191.5,190214,,,A*6F
$GPGGA,010933.00,5630.3061,N,08456.5109,E,1,15,0.8,51.3,M,,M,,*47
$GPGSA,A,3,05,07,02,29,21,10,16,26,,,,,1.6,0.8,1.3*35
$GPGSA,A,3,68,69,86,85,70,77,84,,,,,,1.6,0.8,1.3*36

$GPRMC,010934.00,A,5630.3046,N,08456.5106,E,05.015,187.4,190214,,,A*69
$GPGGA,010934.00,5630.3046,N,08456.5106,E,1,15,0.8,51.3,M,,M,,*4A
$GPGSA,A,3,05,07,02,29,21,10,16,26,,,,,1.6,0.8,1.3*35
$GPGSA,A,3,68,69,86,85,70,77,84,,,,,,1.6,0.8,1.3*36

$GPRMC,010935.00,A,5630.3031,N,08456.5105,E,05.266,182.1,190214,,,A*6D
$GPGGA,010935.00,5630.3031,N,08456.5105,E,1,15,0.8,51.3,M,,M,,*48
$GPGSA,A,3,05,07,02,29,21,10,16,26,,,,,1.6,0.8,1.3*35
$GPGSA,A,3,68,69,86,85,70,77,84,,,,,,1.6,0.8,1.3*36
$GPGSV,6,
1,12,02,26,103,44,05,63,082,45,07,08,042,32,09,01,077,*72
$GPGSV,6,2,12,10,07,056,37,15,15,165,35,16,12,338,29,18,05,228,*78
$GPGSV,6,3,12,21,35,276,29,25,05,219,,26,30,131,38,29,65,215,44*7B
$GPGSV,6,4,11,68,15,039,29,69,66,062,42,70,48,201,35,71,00,21
2,*74
$GPGSV,6,5,11,76,09,306,,77,18,357,27,78,06,046,,83,02,138,*72
$GPGSV,6,6,11,84,52,144,34,85,73,300,30,86,22,315,33*44

$GPRMC,010937.00,A,5630.2997,N,08456.5107,E,05.414,180.5,190214,,,A*6C
$GPGGA,010937.00,5630.2997,N,08456.5107,E,1,15,0.8,51.3,M,,M,,*4C
$GPGSA,A,3,05,07,02,29,21,10,16,26,,,,,1.6,0.8,1.3*35
$GPGSA,A,3,68,69,86,85,70,77,84,,,,,,1.6,0.8,1.3*36

$GPRMC,010938.00,A,5630.2981,N,08456.5108,E,05.253,180.4,190214,,,A*6F
$GPGGA,010938.00,5630.2981,N,08456.5108,E,1,15,0.8,51.4,M,,M,,*4C
$GPGSA,A,3,05,07,02,29,21,10,16,26,,,,,1.6,0.8,1.3*35
$GPGSA,A,3,68,69,86,85,70,77,84,,,,,,1.6,0.8,1.3*36

$GPRMC,010939.00,A,5630.2965,N,08456.5109,E,05.294,179.6,190214,,,A*6A
$GPGGA,010939.00,5630.2965,N,08456.5109,E,1,15,0.8,51.6,M,,M,,*44
$GPGSA,A,3,05,07,02,29,21,10,16,26,,,,,1.6,0.8,1.3*35
$GPGSA,A,3,68,69,86,85,70,77,84,,,,,,1.6,0.8,1.3*36

$GPRMC,010940.00,A,5630.2949,N,08456.5110,E,05.215,179.6,190214,,,A*6B
$GPGGA,010940.00,5630.2949,N,08456.5110,E,1,15,0.8,51.8,M,,M,,*42
$GPGSA,A,3,05,07,02,29,21,10,16,26,,,,,1.6,0.8,1.3*35
$GPGSA,A,3,68,69,86,85,70,77,84,,,,,,1.6,0.8,1.3*36
$GPGSV,6,
1,12,02,26,103,38,05,63,082,45,07,08,042,30,09,01,077,*7B
$GPGSV,6,2,12,10,07,056,29,15,15,165,29,16,12,338,28,18,05,228,*7B
$GPGSV,6,3,12,21,35,276,37,25,05,219,,26,30,131,30,29,65,215,43*7B
$GPGSV,6,4,11,68,15,039,31,69,66,062,42,70,48,201,38,71,00,21
2,*70
$GPGSV,6,5,11,76,09,306,,77,18,357,29,78,06,045,,83,02,138,*7F
$GPGSV,6,6,11,84,52,144,34,85,73,300,31,86,22,315,35*43

$GPRMC,010942.00,A,5630.2919,N,08456.5112,E,05.204,179.2,190214,,,A*6A
$GPGGA,010942.00,5630.2919,N,08456.5112,E,1,15,0.8,52.1,M,,M,,*4D
$GPGSA,A,3,05,07,02,29,21,10,16,26,,,,,1.6,0.8,1.3*35
$GPGSA,A,3,68,69,86,85,70,77,84,,,,,,1.6,0.8,1.3*36

$GPRMC,010943.00,A,5630.2904,N,08456.5112,E,04.996,181.1,190214,,,A*62
$GPGGA,010943.00,5630.2904,N,08456.5112,E,1,15,0.8,52.3,M,,M,,*42
$GPGSA,A,3,05,07,02,29,21,10,16,26,,,,,1.6,0.8,1.3*35
$GPGSA,A,3,68,69,86,85,70,77,84,,,,,,1.6,0.8,1.3*36

$GPRMC,010944.00,A,5630.2888,N,08456.5112,E,05.624,180.2,190214,,,A*65
$GPGGA,010944.00,5630.2888,N,08456.5112,E,1,15,0.8,52.4,M,,M,,*47
$GPGSA,A,3,05,07,02,29,21,10,16,26,,,,,1.6,0.8,1.3*35
$GPGSA,A,3,68,69,86,85,70,77,84,,,,,,1.6,0.8,1.3*36

$GPRMC,010945.00,A,5630.2871,N,08456.5112,E,06.077,181.2,190214,,,A*60
$GPGGA,010945.00,5630.2871,N,08456.5112,E,1,15,0.8,52.6,M,,M,,*42
$GPGSA,A,3,05,07,02,29,21,10,16,26,,,,,1.6,0.8,1.3*35
$GPGSA,A,3,68,69,86,85,70,77,84,,,,,,1.6,0.8,1.3*36
$GPGSV,6,
1,12,02,26,103,18,05,63,082,42,07,08,042,42,09,01,077,*7B
$GPGSV,6,2,12,10,07,056,37,15,15,165,24,16,12,338,33,18,05,229,*72
$GPGSV,6,3,12,21,35,276,28,25,05,219,,26,30,131,18,29,65,215,41*7D
$GPGSV,6,4,11,68,15,039,37,69,66,062,41,70,48,201,38,71,00,21
2,*75
$GPGSV,6,5,11,76,09,306,,77,18,357,24,78,06,045,26,83,02,138,*76
$GPGSV,6,6,11,84,52,144,32,85,73,300,34,86,22,315,34*41

$GPRMC,010947.00,A,5630.2833,N,08456.5112,E,07.084,181.0,190214,,,A*6B
$GPGGA,010947.00,5630.2833,N,08456.5112,E,1,15,0.8,52.7,M,,M,,*47
$GPGSA,A,3,05,07,02,29,21,10,16,26,,,,,1.6,0.8,1.3*35
$GPGSA,A,3,68,69,86,85,70,77,84,,,,,,1.6,0.8,1.3*36

$GPRMC,010948.00,A,5630.2813,N,08456.5112,E,07.002,181.1,190214,,,A*69
$GPGGA,010948.00,5630.2813,N,08456.5112,E,1,15,0.8,52.8,M,,M,,*45
$GPGSA,A,3,05,07,02,29,21,10,16,26,,,,,1.6,0.8,1.3*35
$GPGSA,A,3,68,69,86,85,70,77,84,,,,,,1.6,0.8,1.3*36

$GPRMC,010949.00,A,5630.2793,N,08456.5112,E,06.999,180.8,190214,,,A*6D
$GPGGA,010949.00,5630.2793,N,08456.5112,E,1,15,0.8,52.9,M,,M,,*42
$GPGSA,A,3,05,07,02,29,21,10,16,26,,,,,1.6,0.8,1.3*35
$GPGSA,A,3,68,69,86,85,70,77,84,,,,,,1.6,0.8,1.3*36

$GPRMC,010950.00,A,5630.2773,N,08456.5111,E,07.097,181.6,190214,,,A*61
$GPGGA,010950.00,5630.2773,N,08456.5111,E,1,15,0.8,53.0,M,,M,,*4F
$GPGSA,A,3,05,07,02,29,21,10,16,26,,,,,1.6,0.8,1.3*35
$GPGSA,A,3,68,69,86,85,70,77,84,,,,,,1.6,0.8,1.3*36
$GPGSV,6,
1,12,02,26,103,17,05,63,082,37,07,08,042,20,09,01,077,*72
$GPGSV,6,2,12,10,07,056,18,15,15,165,27,16,12,338,37,18,05,229,*78
$GPGSV,6,3,12,21,35,276,37,25,05,219,,26,30,131,17,29,65,215,43*7E
$GPGSV,6,4,11,68,15,039,20,69,66,062,38,70,48,201,38,71,01,21
2,*7C
$GPGSV,6,5,11,76,09,306,,77,18,357,26,78,06,045,,83,02,138,*70
$GPGSV,6,6,11,84,52,144,19,85,73,300,32,86,22,315,36*4C

$GPRMC,010952.00,A,5630.2731,N,08456.5109,E,07.430,181.6,190214,,,A*65
$GPGGA,010952.00,5630.2731,N,08456.5109,E,1,15,0.8,53.1,M,,M,,*43
$GPGSA,A,3,05,07,02,29,21,10,16,26,,,,,1.6,0.8,1.3*35
$GPGSA,A,3,68,69,86,85,70,77,84,,,,,,1.6,0.8,1.3*36

$GPRMC,010953.00,A,5630.2710,N,08456.5109,E,07.557,180.6,190214,,,A*66
$GPGGA,010953.00,5630.2710,N,08456.5109,E,1,14,0.9,53.1,M,,M,,*41
$GPGSA,A,3,05,07,02,29,21,10,16,26,,,,,1.6,0.9,1.3*34
$GPGSA,A,3,69,86,85,70,77,84,,,,,,,1.6,0.9,1.3*39

$GPRMC,010954.00,A,5630.2689,N,08456.5108,E,07.472,181.8,190214,,,A*68
$GPGGA,010954.00,5630.2689,N,08456.5108,E,1,13,0.9,53.4,M,,M,,*44
$GPGSA,A,3,05,07,02,29,21,16,26,,,,,,1.7,0.9,1.4*33
$GPGSA,A,3,69,86,85,70,77,84,,,,,,,1.7,0.9,1.4*3F

$GPRMC,010955.00,A,5630.2667,N,08456.5109,E,07.507,180.2,190214,,,A*60
$GPGGA,010955.00,5630.2667,N,08456.5109,E,1,13,0.9,53.4,M,,M,,*44
$GPGSA,A,3,05,07,02,29,21,16,26,,,,,,1.7,0.9,1.4*33
$GPGSA,A,3,69,86,85,70,77,84,,,,,,,1.7,0.9,1.4*3F
$GPGSV,6,1,12
,02,26,103,32,05,63,082,42,07,08,042,19,09,01,077,*7D
$GPGSV,6,2,12,10,07,056,15,15,15,165,30,16,12,338,28,18,05,229,*7D
$GPGSV,6,3,12,21,35,276,34,25,05,219,,26,30,131,34,29,64,214,36*7E
$GPGSV,6,4,11,68,15,039,14,69,66,062,33,70,48,201,39,71,01,212,*7
1
$GPGSV,6,5,11,76,09,306,,77,18,357,33,78,06,045,,83,02,138,*74
$GPGSV,6,6,11,84,52,144,35,85,73,300,35,86,22,315,39*4A

$GPRMC,010957.00,A,5630.2624,N,08456.5102,E,07.783,179.8,190214,,,A*6C
$GPGGA,010957.00,5630.2624,N,08456.5102,E,1,14,0.9,55.0,M,,M,,*4F
$GPGSA,A,3,05,07,02,29,21,10,16,26,,,,,1.6,0.9,1.3*34
$GPGSA,A,3,69,86,85,70,77,84,,,,,,,1.6,0.9,1.3*39

$GPRMC,010958.00,A,5630.2602,N,08456.5101,E,07.781,180.5,190214,,,A*6D
$GPGGA,010958.00,5630.2602,N,08456.5101,E,1,14,0.9,55.5,M,,M,,*42
$GPGSA,A,3,05,07,02,29,21,10,16,26,,,,,1.6,0.9,1.3*34
$GPGSA,A,3,69,86,85,70,77,84,,,,,,,1.6,0.9,1.3*39

$GPRMC,010959.00,A,5630.2580,N,08456.5104,E,07.933,176.3,190214,,,A*68
$GPGGA,010959.00,5630.2580,N,08456.5104,E,1,14,0.9,55.3,M,,M,,*49
$GPGSA,A,3,05,07,02,29,21,10,16,26,,,,,1.6,0.9,1.3*34
$GPGSA,A,3,69,86,85,70,77,84,,,,,,,1.6,0.9,1.3*39

$GPRMC,011000.00,A,5630.2557,N,08456.5105,E,07.761,177.3,190214,,,A*6F
$GPGGA,011000.00,5630.2557,N,08456.5105,E,1,14,0.9,55.5,M,,M,,*40
$GPGSA,A,3,05,07,02,29,21,10,16,26,,,,,1.6,0.9,1.3*34
$GPGSA,A,3,69,86,85,70,77,84,,,,,,,1.6,0.9,1.3*39
$GPGSV,6,1,
12,02,26,103,40,05,63,082,45,07,08,042,27,09,01,077,*72
$GPGSV,6,2,12,10,07,056,18,15,15,165,38,16,12,338,28,18,05,229,*78
$GPGSV,6,3,12,21,35,276,28,25,05,219,,26,30,131,41,29,64,214,41*71
$GPGSV,6,4,11,68,15,039,17,69,66,062,42,70,49,201,30,71,01,212,
*7C
$GPGSV,6,5,11,76,09,306,,77,18,357,37,78,06,045,,83,02,138,*70
$GPGSV,6,6,11,84,52,144,34,85,73,300,32,86,22,315,17*40

$GPRMC,011002.00,A,5630.2519,N,08456.5112,E,06.074,174.5,190214,,,A*66
$GPGGA,011002.00,5630.2519,N,08456.5112,E,1,15,0.9,56.0,M,,M,,*49
$GPGSA,A,3,05,07,02,29,21,10,16,26,,,,,1.6,0.9,1.3*34
$GPGSA,A,3,68,69,86,85,70,77,84,,,,,,1.6,0.9,1.3*37

$GPRMC,011003.00,A,5630.2504,N,08456.5123,E,05.793,163.3,190214,,,A*64
$GPGGA,011003.00,5630.2504,N,08456.5123,E,1,15,0.9,56.3,M,,M,,*45
$GPGSA,A,3,05,07,02,29,21,10,16,26,,,,,1.6,0.9,1.3*34
$GPGSA,A,3,68,69,86,85,70,77,84,,,,,,1.6,0.9,1.3*37

$GPRMC,011004.00,A,5630.2490,N,08456.5136,E,05.366,152.7,190214,,,A*63
$GPGGA,011004.00,5630.2490,N,08456.5136,E,1,15,0.9,56.6,M,,M,,*4F
$GPGSA,A,3,05,07,02,29,21,10,16,26,,,,,1.6,0.9,1.3*34
$GPGSA,A,3,68,69,86,85,70,77,84,,,,,,1.6,0.9,1.3*37

$GPRMC,011005.00,A,5630.2480,N,08456.5154,E,05.228,140.6,190214,,,A*6E
$GPGGA,011005.00,5630.2480,N,08456.5154,E,1,15,0.9,56.7,M,,M,,*4A
$GPGSA,A,3,05,07,02,29,21,10,16,26,,,,,1.6,0.9,1.3*34
$GPGSA,A,3,68,69,86,85,70,77,84,,,,,,1.6,0.9,1.3*37
$GPGSV,6,
1,12,02,26,103,37,05,63,082,39,07,08,042,19,09,01,077,*74
$GPGSV,6,2,12,10,07,056,17,15,15,165,30,16,12,338,38,18,05,229,27*7B
$GPGSV,6,3,12,21,36,276,36,25,05,219,,26,30,131,38,29,64,214,32*77
$GPGSV,6,4,11,68,15,039,18,69,66,062,36,70,49,201,36,71,01,
212,*76
$GPGSV,6,5,11,76,09,306,,77,18,357,36,78,06,045,,83,02,138,*71
$GPGSV,6,6,11,84,52,144,27,85,73,300,34,86,22,315,28*48

$GPRMC,011006.99,A,5630.2467,N,08456.5211,E,06.165,112.2,190214,,,A*6C
$GPGGA,011006.99,5630.2467,N,08456.5211,E,1,15,0.9,56.9,M,,M,,*4C
$GPGSA,A,3,05,07,02,29,21,10,16,26,,,,,1.6,0.9,1.3*34
$GPGSA,A,3,68,69,86,85,70,77,84,,,,,,1.6,0.9,1.3*37

$GPRMC,011008.00,A,5630.2463,N,08456.5252,E,07.401,104.2,190214,,,A*60
$GPGGA,011008.00,5630.2463,N,08456.5252,E,1,15,0.9,57.0,M,,M,,*49
$GPGSA,A,3,05,07,02,29,21,10,16,26,,,,,1.6,0.9,1.3*34
$GPGSA,A,3,68,69,86,85,70,77,84,,,,,,1.6,0.9,1.3*37

$GPRMC,011009.00,A,5630.2461,N,08456.5297,E,08.275,099.9,190214,,,A*6E
$GPGGA,011009.00,5630.2461,N,08456.5297,E,1,15,0.9,57.3,M,,M,,*40
$GPGSA,A,3,05,07,02,29,21,10,16,26,,,,,1.6,0.9,1.3*34
$GPGSA,A,3,68,69,86,85,70,77,84,,,,,,1.6,0.9,1.3*37

$GPRMC,011010.00,A,5630.2459,N,08456.5350,E,09.390,096.5,190214,,,A*6F
$GPGGA,011010.00,5630.2459,N,08456.5350,E,1,14,0.9,57.4,M,,M,,*4F
$GPGSA,A,3,05,07,02,29,21,16,26,,,,,,1.6,0.9,1.4*32
$GPGSA,A,3,68,69,86,85,70,77,84,,,,,,1.6,0.9,1.4*30
$GPGSV,6,1,
12,02,26,103,31,05,63,082,41,07,08,042,17,09,01,077,*73
$GPGSV,6,2,12,10,07,056,15,15,15,165,35,16,12,338,19,18,05,229,24*7C
$GPGSV,6,3,12,21,36,276,43,25,05,219,,26,30,131,32,29,64,214,38*75
$GPGSV,6,4,11,68,15,039,19,69,66,061,41,70,49,201,33,71,01,21
2,*71
$GPGSV,6,5,11,76,09,306,,77,18,357,18,78,06,045,,83,02,139,*7C
$GPGSV,6,6,11,84,52,144,28,85,73,300,34,86,22,315,39*47

$GPRMC,011012.00,A,5630.2462,N,08456.5479,E,11.854,091.2,190214,,,A*63
$GPGGA,011012.00,5630.2462,N,08456.5479,E,1,14,0.9,57.6,M,,M,,*4B
$GPGSA,A,3,05,07,02,29,21,16,26,,,,,,1.6,0.9,1.4*32
$GPGSA,A,3,68,69,86,85,70,77,84,,,,,,1.6,0.9,1.4*30

$GPRMC,011013.00,A,5630.2464,N,08456.5547,E,12.580,088.5,190214,,,A*60
$GPGGA,011013.00,5630.2464,N,08456.5547,E,1,14,0.9,57.7,M,,M,,*41
$GPGSA,A,3,05,07,02,29,21,16,26,,,,,,1.6,0.9,1.4*32
$GPGSA,A,3,68,69,86,85,70,77,84,,,,,,1.6,0.9,1.4*30

$GPRMC,011014.00,A,5630.2470,N,08456.5625,E,13.689,085.0,190214,,,A*66
$GPGGA,011014.00,5630.2470,N,08456.5625,E,1,13,0.9,57.5,M,,M,,*41
$GPGSA,A,3,05,02,29,21,16,26,,,,,,,1.7,0.9,1.4*34
$GPGSA,A,3,68,69,86,85,70,77,84,,,,,,1.7,0.9,1.4*31

$GPRMC,011015.00,A,5630.2475,N,08456.5706,E,14.128,088.2,190214,,,A*66
$GPGGA,011015.00,5630.2475,N,08456.5706,E,1,12,0.9,57.4,M,,M,,*45
$GPGSA,A,3,05,02,29,21,16,26,,,,,,,1.7,0.9,1.4*34
$GPGSA,A,3,69,86,85,70,77,84,,,,,,,1.7,0.9,1.4*3F
$GPGSV,6,1,12,0
2,26,103,34,05,63,082,40,07,08,042,15,09,01,077,*75
$GPGSV,6,2,12,10,07,056,14,15,15,165,26,16,12,337,29,18,06,229,24*70
$GPGSV,6,3,12,21,36,276,42,25,05,219,,26,30,131,33,29,64,214,39*74
$GPGSV,6,4,11,68,15,039,14,69,66,061,42,70,49,201,35,71,01,212,*7
9
$GPGSV,6,5,11,76,09,306,,77,18,357,22,78,06,045,,83,02,139,*75
$GPGSV,6,6,11,84,52,144,28,85,73,300,34,86,22,315,40*49

$GPRMC,011017.00,A,5630.2484,N,08456.5872,E,14.853,088.3,190214,,,A*62
$GPGGA,011017.00,5630.2484,N,08456.5872,E,1,12,0.9,57.4,M,,M,,*45
$GPGSA,A,3,05,02,29,21,16,26,,,,,,,1.7,0.9,1.4*34
$GPGSA,A,3,69,86,85,70,77,84,,,,,,,1.7,0.9,1.4*3F

$GPRMC,011018.00,A,5630.2487,N,08456.5951,E,14.814,088.5,190214,,,A*6B
$GPGGA,011018.00,5630.2487,N,08456.5951,E,1,12,0.9,57.6,M,,M,,*4B
$GPGSA,A,3,05,02,29,21,16,26,,,,,,,1.7,0.9,1.4*34
$GPGSA,A,3,69,86,85,70,77,84,,,,,,,1.7,0.9,1.4*3F

$GPRMC,011019.00,A,5630.2488,N,08456.6027,E,14.637,088.6,190214,,,A*62
$GPGGA,011019.00,5630.2488,N,08456.6027,E,1,12,0.9,57.8,M,,M,,*40
$GPGSA,A,3,05,02,29,21,16,26,,,,,,,1.7,0.9,1.4*34
$GPGSA,A,3,69,86,85,70,77,84,,,,,,,1.7,0.9,1.4*3F

$GPRMC,011020.00,A,5630.2489,N,08456.6101,E,14.470,088.7,190214,,,A*6C
$GPGGA,011020.00,5630.2489,N,08456.6101,E,1,12,0.9,58.0,M,,M,,*49
$GPGSA,A,3,05,02,29,21,16,26,,,,,,,1.7,0.9,1.4*34
$GPGSA,A,3,69,86,85,70,77,84,,,,,,,1.7,0.9,1.4*3F
$GPGSV,6,1,12,0
2,26,103,39,05,63,082,42,07,08,042,14,09,01,077,*7B
$GPGSV,6,2,12,10,07,056,15,15,15,165,33,16,12,337,25,18,06,229,20*7D
$GPGSV,6,3,12,21,36,276,41,25,04,219,,26,30,131,33,29,64,214,40*78
$GPGSV,6,4,11,68,15,039,14,69,66,061,40,70,49,201,36,71,01,212,*7
8
$GPGSV,6,5,11,76,09,306,,77,18,357,18,78,06,045,,83,02,139,*7C
$GPGSV,6,6,11,84,52,144,28,85,73,300,33,86,22,315,18*43

$GPRMC,011022.00,A,5630.2492,N,08456.6241,E,13.064,089.1,190214,,,A*62
$GPGGA,011022.00,5630.2492,N,08456.6241,E,1,11,1.0,59.0,M,,M,,*4C
$GPGSA,A,3,05,02,29,21,16,26,,,,,,,1.8,1.0,1.5*32
$GPGSA,A,3,69,86,85,70,84,,,,,,,,1.8,1.0,1.5*39

$GPRMC,011023.00,A,5630.2494,N,08456.6304,E,12.361,087.4,190214,,,A*69
$GPGGA,011023.00,5630.2494,N,08456.6304,E,1,11,1.0,59.8,M,,M,,*43
$GPGSA,A,3,05,02,29,21,16,26,,,,,,,1.8,1.0,1.5*32
$GPGSA,A,3,69,86,85,70,84,,,,,,,,1.8,1.0,1.5*39

$GPRMC,011024.00,A,5630.2494,N,08456.6361,E,11.119,089.2,190214,,,A*6B
$GPGGA,011024.00,5630.2494,N,08456.6361,E,1,11,1.0,60.1,M,,M,,*44
$GPGSA,A,3,05,02,29,21,16,26,,,,,,,1.8,1.0,1.5*32
$GPGSA,A,3,69,86,85,70,84,,,,,,,,1.8,1.0,1.5*39

$GPRMC,011025.00,A,5630.2495,N,08456.6407,E,09.215,088.3,190214,,,A*6A
$GPGGA,011025.00,5630.2495,N,08456.6407,E,1,12,0.9,60.6,M,,M,,*4F
$GPGSA,A,3,05,02,29,21,16,26,,,,,,,1.7,0.9,1.4*34
$GPGSA,A,3,69,86,85,70,77,84,,,,,,,1.7,0.9,1.4*3F
$GPGSV,6,1,12,0
2,26,103,42,05,63,082,42,07,08,042,13,09,01,077,*70
$GPGSV,6,2,12,10,07,056,14,15,15,165,27,16,12,337,29,18,06,229,21*74
$GPGSV,6,3,12,21,36,276,39,25,04,219,,26,30,131,39,29,64,214,34*7E
$GPGSV,6,4,11,68,15,039,12,69,66,061,40,70,49,201,37,71,01,212,*7
F
$GPGSV,6,5,11,76,09,306,,77,18,357,37,78,06,045,,83,02,139,*71
$GPGSV,6,6,11,84,52,144,19,85,73,300,35,86,22,315,34*49

$GPRMC,011027.00,A,5630.2492,N,08456.6475,E,06.195,086.2,190214,,,A*61
$GPGGA,011027.00,5630.2492,N,08456.6475,E,1,12,0.9,61.8,M,,M,,*40
$GPGSA,A,3,05,02,29,21,16,26,,,,,,,1.7,0.9,1.4*34
$GPGSA,A,3,69,86,85,70,77,84,,,,,,,1.7,0.9,1.4*3F

$GPRMC,011028.00,A,5630.2486,N,08456.6504,E,05.642,100.6,190214,,,A*69
$GPGGA,011028.00,5630.2486,N,08456.6504,E,1,12,0.9,61.6,M,,M,,*43
$GPGSA,A,3,05,02,29,21,16,26,,,,,,,1.7,0.9,1.4*34
$GPGSA,A,3,69,86,85,70,77,84,,,,,,,1.7,0.9,1.4*3F

$GPRMC,011029.00,A,5630.2477,N,08456.6526,E,04.972,123.0,190214,,,A*6C
$GPGGA,011029.00,5630.2477,N,08456.6526,E,1,12,0.9,61.3,M,,M,,*49
$GPGSA,A,3,05,02,29,21,16,26,,,,,,,1.7,0.9,1.4*34
$GPGSA,A,3,69,86,85,70,77,84,,,,,,,1.7,0.9,1.4*3F

$GPRMC,011030.00,A,5630.2463,N,08456.6545,E,05.296,145.2,190214,,,A*66
$GPGGA,011030.00,5630.2463,N,08456.6545,E,1,12,0.9,61.0,M,,M,,*42
$GPGSA,A,3,05,02,29,21,16,26,,,,,,,1.7,0.9,1.4*34
$GPGSA,A,3,69,86,85,70,77,84,,,,,,,1.7,0.9,1.4*3F
$GPGSV,6,1,12,0
2,26,103,41,05,63,082,43,07,08,042,15,09,01,077,*74
$GPGSV,6,2,12,10,07,056,16,15,15,165,38,16,12,337,29,18,06,229,14*7E
$GPGSV,6,3,12,21,36,276,31,25,04,219,,26,30,130,38,29,64,214,43*76
$GPGSV,6,4,11,68,15,039,14,69,66,061,41,70,49,201,32,71,01,212,*7
D
$GPGSV,6,5,11,76,09,306,,77,18,357,32,78,06,045,,83,02,139,*74
$GPGSV,6,6,11,84,52,144,31,85,73,300,27,86,22,315,27*42

$GPRMC,011032.00,A,5630.2426,N,08456.6564,E,06.491,168.9,190214,,,A*60
$GPGGA,011032.00,5630.2426,N,08456.6564,E,1,12,0.9,60.6,M,,M,,*45
$GPGSA,A,3,05,02,29,21,16,26,,,,,,,1.7,0.9,1.4*34
$GPGSA,A,3,69,86,85,70,77,84,,,,,,,1.7,0.9,1.4*3F

$GPRMC,011033.00,A,5630.2403,N,08456.6570,E,07.644,173.0,190214,,,A*6B
$GPGGA,011033.00,5630.2403,N,08456.6570,E,1,12,0.9,60.4,M,,M,,*44
$GPGSA,A,3,05,02,29,21,16,26,,,,,,,1.7,0.9,1.4*34
$GPGSA,A,3,69,86,85,70,77,84,,,,,,,1.7,0.9,1.4*3F

$GPRMC,011034.00,A,5630.2378,N,08456.6574,E,08.588,174.5,190214,,,A*6D
$GPGGA,011034.00,5630.2378,N,08456.6574,E,1,12,0.9,60.2,M,,M,,*4A
$GPGSA,A,3,05,02,29,21,16,26,,,,,,,1.7,0.9,1.4*34
$GPGSA,A,3,69,86,85,70,77,84,,,,,,,1.7,0.9,1.4*3F

$GPRMC,011035.00,A,5630.2348,N,08456.6575,E,09.754,178.9,190214,,,A*6C
$GPGGA,011035.00,5630.2348,N,08456.6575,E,1,12,0.9,60.0,M,,M,,*4B
$GPGSA,A,3,05,02,29,21,16,26,,,,,,,1.7,0.9,1.4*34
$GPGSA,A,3,69,86,85,70,77,84,,,,,,,1.7,0.9,1.4*3F
$GPGSV,6,1,12,0
2,26,103,43,05,63,082,41,07,08,042,15,09,01,077,*74
$GPGSV,6,2,12,10,07,056,15,15,15,165,38,16,12,337,20,18,06,229,16*76
$GPGSV,6,3,12,21,36,276,32,25,04,219,,26,30,130,38,29,64,214,38*79
$GPGSV,6,4,11,68,15,039,14,69,66,061,37,70,49,201,37,71,01,212,*7
9
$GPGSV,6,5,11,76,09,306,,77,18,357,29,78,06,045,,83,02,139,*7E
$GPGSV,6,6,11,84,51,144,30,85,73,299,30,86,22,315,16*45

$GPRMC,011037.00,A,5630.2282,N,08456.6576,E,11.509,178.1,190214,,,A*61
$GPGGA,011037.00,5630.2282,N,08456.6576,E,1,13,0.9,60.0,M,,M,,*4C
$GPGSA,A,3,05,02,29,21,10,16,26,,,,,,1.6,0.9,1.4*34
$GPGSA,A,3,69,86,85,70,77,84,,,,,,,1.6,0.9,1.4*3E

$GPRMC,011038.00,A,5630.2244,N,08456.6576,E,12.216,178.9,190214,,,A*66
$GPGGA,011038.00,5630.2244,N,08456.6576,E,1,13,0.9,59.7,M,,M,,*44
$GPGSA,A,3,05,02,29,21,10,16,26,,,,,,1.6,0.9,1.4*34
$GPGSA,A,3,69,86,85,70,77,84,,,,,,,1.6,0.9,1.4*3E

$GPRMC,011039.00,A,5630.2206,N,08456.6575,E,12.588,179.4,190214,,,A*6E
$GPGGA,011039.00,5630.2206,N,08456.6575,E,1,14,0.9,59.4,M,,M,,*44
$GPGSA,A,3,05,02,29,21,10,16,26,,,,,,1.6,0.9,1.3*33
$GPGSA,A,3,68,69,86,85,70,77,84,,,,,,1.6,0.9,1.3*37

$GPRMC,011040.00,A,5630.2166,N,08456.6574,E,12.848,180.2,190214,,,A*65
$GPGGA,011040.00,5630.2166,N,08456.6574,E,1,14,0.9,59.0,M,,M,,*4A
$GPGSA,A,3,05,02,29,21,10,16,26,,,,,,1.6,0.9,1.3*33
$GPGSA,A,3,68,69,86,85,70,77,84,,,,,,1.6,0.9,1.3*37
$GPGSV,6,1,
12,02,26,103,32,05,63,082,43,07,08,042,11,09,01,077,*74
$GPGSV,6,2,12,10,07,056,17,15,15,165,35,16,12,337,35,18,06,229,16*7D
$GPGSV,6,3,12,21,36,276,35,25,04,219,,26,30,130,36,29,64,214,40*7F
$GPGSV,6,4,11,68,15,039,18,69,66,061,40,70,49,201,39,71,01,21
2,*7B
$GPGSV,6,5,11,76,08,306,,77,18,357,30,78,06,045,,83,02,139,*77
$GPGSV,6,6,11,84,51,144,32,85,73,299,28,86,22,315,35*4F

$GPRMC,011042.00,A,5630.2087,N,08456.6569,E,13.082,181.8,190214,,,A*61
$GPGGA,011042.00,5630.2087,N,08456.6569,E,1,14,0.9,58.2,M,,M,,*49
$GPGSA,A,3,05,02,29,21,10,16,26,,,,,,1.6,0.9,1.3*33
$GPGSA,A,3,68,69,86,85,70,77,84,,,,,,1.6,0.9,1.3*37

$GPRMC,011043.00,A,5630.2051,N,08456.6566,E,12.768,182.4,190214,,,A*69
$GPGGA,011043.00,5630.2051,N,08456.6566,E,1,14,0.9,58.2,M,,M,,*4C
$GPGSA,A,3,05,02,29,21,10,16,26,,,,,,1.6,0.9,1.3*33
$GPGSA,A,3,68,69,86,85,70,77,84,,,,,,1.6,0.9,1.3*37

$GPRMC,011044.00,A,5630.2016,N,08456.6563,E,12.160,183.0,190214,,,A*63
$GPGGA,011044.00,5630.2016,N,08456.6563,E,1,13,0.9,58.1,M,,M,,*49
$GPGSA,A,3,05,02,29,21,16,26,,,,,,,1.7,0.9,1.4*34
$GPGSA,A,3,68,69,86,85,70,77,84,,,,,,1.7,0.9,1.4*31

$GPRMC,011045.00,A,5630.1984,N,08456.6561,E,10.904,181.9,190214,,,A*62
$GPGGA,011045.00,5630.1984,N,08456.6561,E,1,13,0.9,58.0,M,,M,,*4A
$GPGSA,A,3,05,02,29,21,16,26,,,,,,,1.7,0.9,1.4*34
$GPGSA,A,3,68,69,86,85,70,77,84,,,,,,1.7,0.9,1.4*31
$GPGSV,6,1,12
,02,26,103,29,05,63,082,45,07,08,042,,09,01,077,*78
$GPGSV,6,2,12,10,07,056,14,15,15,165,37,16,12,337,34,18,06,229,18*73
$GPGSV,6,3,12,21,36,276,32,25,04,219,21,26,30,130,39,29,64,214,43*77
$GPGSV,6,4,11,68,15,039,35,69,66,061,41,70,49,201,34,71,01,212,
*78
$GPGSV,6,5,11,76,08,306,,77,18,357,36,78,06,045,,83,02,139,*71
$GPGSV,6,6,11,84,51,144,33,85,73,299,35,86,22,315,33*44

$GPRMC,011047.00,A,5630.1940,N,08456.6567,E,06.530,171.0,190214,,,A*64
$GPGGA,011047.00,5630.1940,N,08456.6567,E,1,13,0.9,57.4,M,,M,,*4D
$GPGSA,A,3,05,02,29,21,16,26,,,,,,,1.7,0.9,1.4*34
$GPGSA,A,3,68,69,86,85,70,77,84,,,,,,1.7,0.9,1.4*31

$GPRMC,011048.00,A,5630.1926,N,08456.6575,E,04.838,160.9,190214,,,A*66
$GPGGA,011048.00,5630.1926,N,08456.6575,E,1,13,0.9,57.0,M,,M,,*45
$GPGSA,A,3,05,02,29,21,16,26,,,,,,,1.7,0.9,1.4*34
$GPGSA,A,3,68,69,86,85,70,77,84,,,,,,1.7,0.9,1.4*31

$GPRMC,011049.00,A,5630.1917,N,08456.6587,E,04.215,139.1,190214,,,A*69
$GPGGA,011049.00,5630.1917,N,08456.6587,E,1,13,0.9,56.7,M,,M,,*4D
$GPGSA,A,3,05,02,29,21,16,26,,,,,,,1.7,0.9,1.4*34
$GPGSA,A,3,68,69,86,85,70,77,84,,,,,,1.7,0.9,1.4*31

$GPRMC,011050.00,A,5630.1911,N,08456.6603,E,04.205,119.8,190214,,,A*62
$GPGGA,011050.00,5630.1911,N,08456.6603,E,1,14,0.9,56.6,M,,M,,*4A
$GPGSA,A,3,05,02,29,21,10,16,26,,,,,,1.6,0.9,1.3*33
$GPGSA,A,3,68,69,86,85,70,77,84,,,,,,1.6,0.9,1.3*37
$GPGSV,6,1,
12,02,26,103,33,05,63,082,44,07,08,042,,09,01,077,*72
$GPGSV,6,2,12,10,07,056,19,15,15,165,33,16,12,337,42,18,06,229,37*76
$GPGSV,6,3,12,21,36,276,36,25,04,219,,26,31,130,35,29,64,214,37*7E
$GPGSV,6,4,11,68,14,039,17,69,66,061,40,70,49,201,37,71,01,212,
*7B
$GPGSV,6,5,11,76,08,306,,77,18,357,32,78,06,045,17,83,02,139,*73
$GPGSV,6,6,11,84,51,144,24,85,73,299,33,86,22,315,37*40

$GPRMC,011052.00,A,5630.1904,N,08456.6652,E,05.250,101.7,190214,,,A*67
$GPGGA,011052.00,5630.1904,N,08456.6652,E,1,14,0.9,55.9,M,,M,,*44
$GPGSA,A,3,05,02,29,21,10,16,26,,,,,,1.6,0.9,1.3*33
$GPGSA,A,3,68,69,86,85,70,77,84,,,,,,1.6,0.9,1.3*37

$GPRMC,011053.00,A,5630.1903,N,08456.6680,E,05.511,099.6,190214,,,A*6D
$GPGGA,011053.00,5630.1903,N,08456.6680,E,1,14,0.9,55.6,M,,M,,*42
$GPGSA,A,3,05,02,29,21,10,16,26,,,,,,1.6,0.9,1.3*33
$GPGSA,A,3,68,69,86,85,70,77,84,,,,,,1.6,0.9,1.3*37

$GPRMC,011054.00,A,5630.1902,N,08456.6707,E,05.150,097.9,190214,,,A*65
$GPGGA,011054.00,5630.1902,N,08456.6707,E,1,13,0.9,55.3,M,,M,,*48
$GPGSA,A,3,05,02,29,21,10,16,26,,,,,,1.6,0.9,1.3*33
$GPGSA,A,3,68,69,86,85,70,84,,,,,,,1.6,0.9,1.3*37

$GPRMC,011055.00,A,5630.1901,N,08456.6732,E,04.784,095.3,190214,,,A*67
$GPGGA,011055.00,5630.1901,N,08456.6732,E,1,14,0.9,55.2,M,,M,,*4A
$GPGSA,A,3,05,02,29,21,10,16,26,07,,,,,1.6,0.9,1.3*34
$GPGSA,A,3,68,69,86,85,70,84,,,,,,,1.6,0.9,1.3*37
$GPGSV,6,1,
12,02,26,103,30,05,63,082,41,07,08,042,31,09,01,077,*76
$GPGSV,6,2,12,10,07,056,17,15,15,165,31,16,12,337,18,18,06,229,23*70
$GPGSV,6,3,12,21,36,276,41,25,04,219,,26,31,130,37,29,64,214,32*79
$GPGSV,6,4,11,68,14,039,17,69,66,061,42,70,49,201,32,71,01,21
2,*7C
$GPGSV,6,5,11,76,08,306,,77,18,357,14,78,06,045,,83,02,139,*71
$GPGSV,6,6,11,84,51,144,27,85,73,299,33,86,22,315,25*40

$GPRMC,011057.00,A,5630.1903,N,08456.6773,E,03.779,087.3,190214,,,A*64
$GPGGA,011057.00,5630.1903,N,08456.6773,E,1,14,0.9,54.8,M,,M,,*44
$GPGSA,A,3,05,02,29,21,10,16,26,07,,,,,1.6,0.9,1.3*34
$GPGSA,A,3,68,69,86,85,70,84,,,,,,,1.6,0.9,1.3*37

$GPRMC,011058.00,A,5630.1904,N,08456.6788,E,02.774,084.8,190214,,,A*6C
$GPGGA,011058.00,5630.1904,N,08456.6788,E,1,14,0.9,54.9,M,,M,,*49
$GPGSA,A,3,05,02,29,21,10,16,26,07,,,,,1.6,0.9,1.3*34
$GPGSA,A,3,68,69,86,85,70,84,,,,,,,1.6,0.9,1.3*37

$GPRMC,011059.00,A,5630.1907,N,08456.6799,E,02.432,076.8,190214,,,A*62
$GPGGA,011059.00,5630.1907,N,08456.6799,E,1,15,0.9,54.8,M,,M,,*4B
$GPGSA,A,3,05,02,29,21,10,16,26,07,,,,,1.6,0.9,1.3*34
$GPGSA,A,3,68,69,86,85,70,77,84,,,,,,1.6,0.9,1.3*37

$GPRMC,011100.00,A,5630.1911,N,08456.6810,E,02.694,067.0,190214,,,A*60
$GPGGA,011100.00,5630.1911,N,08456.6810,E,1,15,0.9,54.7,M,,M,,*40
$GPGSA,A,3,05,02,29,21,10,16,26,07,,,,,1.6,0.9,1.3*34
$GPGSA,A,3,68,69,86,85,70,77,84,,,,,,1.6,0.9,1.3*37
$GPGSV,6,
1,12,02,26,103,35,05,63,081,44,07,08,042,35,09,01,077,*71
$GPGSV,6,2,12,10,07,056,18,15,15,165,34,16,12,337,21,18,06,229,27*74
$GPGSV,6,3,12,21,36,276,31,25,04,219,,26,31,130,37,29,64,214,32*7E
$GPGSV,6,4,11,68,14,039,31,69,66,061,37,70,49,201,36,71,01,
212,*7E
$GPGSV,6,5,11,76,08,306,,77,18,357,27,78,06,045,,83,02,139,*71
$GPGSV,6,6,11,84,51,144,27,85,73,299,34,86,22,315,20*42

$GPRMC,011102.00,A,5630.1926,N,08456.6827,E,03.187,029.5,190214,,,A*69
$GPGGA,011102.00,5630.1926,N,08456.6827,E,1,15,0.9,54.7,M,,M,,*42
$GPGSA,A,3,05,02,29,21,10,16,26,07,,,,,1.6,0.9,1.3*34
$GPGSA,A,3,68,69,86,85,70,77,84,,,,,,1.6,0.9,1.3*37

$GPRMC,011103.00,A,5630.1934,N,08456.6832,E,02.624,024.3,190214,,,A*6B
$GPGGA,011103.00,5630.1934,N,08456.6832,E,1,15,0.9,54.9,M,,M,,*4A
$GPGSA,A,3,05,02,29,21,10,16,26,07,,,,,1.6,0.9,1.3*34
$GPGSA,A,3,68,69,86,85,70,77,84,,,,,,1.6,0.9,1.3*37

$GPRMC,011104.00,A,5630.1942,N,08456.6836,E,00.000,000.0,190214,,,A*6E
$GPGGA,011104.00,5630.1942,N,08456.6836,E,1,15,0.9,54.9,M,,M,,*48
$GPGSA,A,3,05,02,29,21,10,16,26,07,,,,,1.6,0.9,1.3*34
$GPGSA,A,3,68,69,86,85,70,77,84,,,,,,1.6,0.9,1.3*37

$GPRMC,011105.00,A,5630.1942,N,08456.6835,E,00.000,000.0,190214,,,A*6C
$GPGGA,011105.00,5630.1942,N,08456.6835,E,1,15,0.9,54.8,M,,M,,*4B
$GPGSA,A,3,05,02,29,21,10,16,26,07,,,,,1.6,0.9,1.3*34
$GPGSA,A,3,68,69,86,85,70,77,84,,,,,,1.6,0.9,1.3*37
$GPGSV,6,
1,12,02,26,103,35,05,63,081,36,07,08,042,31,09,01,077,*70
$GPGSV,6,2,12,10,07,056,17,15,15,165,28,16,12,337,18,18,06,229,28*73
$GPGSV,6,3,12,21,36,276,18,25,04,219,,26,31,130,32,29,64,214,38*7A
$GPGSV,6,4,11,68,14,039,27,69,66,061,25,70,49,201,38,71,01,
212,*74
$GPGSV,6,5,11,76,08,306,20,77,18,357,28,78,06,045,,83,02,139,*7C
$GPGSV,6,6,11,84,51,144,20,85,74,299,33,86,23,315,21*45

$GPRMC,011107.00,A,5630.1944,N,08456.6832,E,00.000,000.0,190214,,,A*6F
$GPGGA,011107.00,5630.1944,N,08456.6832,E,1,14,0.9,54.6,M,,M,,*47
$GPGSA,A,3,05,02,29,21,16,26,07,,,,,,1.6,0.9,1.4*32
$GPGSA,A,3,68,69,86,85,70,77,84,,,,,,1.6,0.9,1.4*30

$GPRMC,011108.00,A,5630.1944,N,08456.6831,E,00.000,000.0,190214,,,A*63
$GPGGA,011108.00,5630.1944,N,08456.6831,E,1,14,0.9,54.6,M,,M,,*4B
$GPGSA,A,3,05,02,29,21,16,26,07,,,,,,1.6,0.9,1.4*32
$GPGSA,A,3,68,69,86,85,70,77,84,,,,,,1.6,0.9,1.4*30

$GPRMC,011109.00,A,5630.1944,N,08456.6831,E,00.000,000.0,190214,,,A*62
$GPGGA,011109.00,5630.1944,N,08456.6831,E,1,14,0.9,54.6,M,,M,,*4A
$GPGSA,A,3,05,02,29,21,16,26,07,,,,,,1.6,0.9,1.4*32
$GPGSA,A,3,68,69,86,85,70,77,84,,,,,,1.6,0.9,1.4*30

$GPRMC,011110.00,A,5630.1944,N,08456.6832,E,00.000,000.0,190214,,,A*69
$GPGGA,011110.00,5630.1944,N,08456.6832,E,1,14,0.9,54.8,M,,M,,*4F
$GPGSA,A,3,05,02,29,21,16,26,07,,,,,,1.6,0.9,1.4*32
$GPGSA,A,3,68,69,86,85,70,77,84,,,,,,1.6,0.9,1.4*30
$GPGSV,6,1,
12,02,26,103,37,05,63,081,37,07,08,042,33,09,01,077,*71
$GPGSV,6,2,12,10,07,056,14,15,15,165,31,16,12,337,18,18,06,229,30*71
$GPGSV,6,3,12,21,36,276,25,25,04,219,,26,31,130,32,29,64,214,39*75
$GPGSV,6,4,11,68,14,039,31,69,66,061,27,70,49,201,41,71,01,21
2,*7F
$GPGSV,6,5,11,76,08,306,,77,18,357,33,78,06,045,,83,02,139,*74
$GPGSV,6,6,11,84,51,144,21,85,74,299,35,86,23,315,27*44

$GPRMC,011112.00,A,5630.1945,N,08456.6832,E,00.000,000.0,190214,,,A*6A
$GPGGA,011112.00,5630.1945,N,08456.6832,E,1,14,0.9,55.0,M,,M,,*45
$GPGSA,A,3,05,02,29,21,16,26,07,,,,,,1.6,0.9,1.4*32
$GPGSA,A,3,68,69,86,85,70,77,84,,,,,,1.6,0.9,1.4*30

$GPRMC,011113.00,A,5630.1945,N,08456.6831,E,00.000,000.0,190214,,,A*68
$GPGGA,011113.00,5630.1945,N,08456.6831,E,1,14,0.9,55.0,M,,M,,*47
$GPGSA,A,3,05,02,29,21,16,26,07,,,,,,1.6,0.9,1.4*32
$GPGSA,A,3,68,69,86,85,70,77,84,,,,,,1.6,0.9,1.4*30

$GPRMC,011114.00,A,5630.1946,N,08456.6829,E,00.000,000.0,190214,,,A*65
$GPGGA,011114.00,5630.1946,N,08456.6829,E,1,14,0.9,55.0,M,,M,,*4A
$GPGSA,A,3,05,02,29,21,16,26,07,,,,,,1.6,0.9,1.4*32
$GPGSA,A,3,68,69,86,85,70,77,84,,,,,,1.6,0.9,1.4*30

$GPRMC,011115.00,A,5630.1946,N,08456.6827,E,00.000,000.0,190214,,,A*6A
$GPGGA,011115.00,5630.1946,N,08456.6827,E,1,14,0.9,55.0,M,,M,,*45
$GPGSA,A,3,05,02,29,21,16,26,07,,,,,,1.6,0.9,1.4*32
$GPGSA,A,3,68,69,86,85,70,77,84,,,,,,1.6,0.9,1.4*30
$GPGSV,6,1,
12,02,26,103,38,05,63,081,37,07,08,042,34,09,01,077,*79
$GPGSV,6,2,12,10,07,056,13,15,15,165,32,16,12,337,20,18,06,229,29*76
$GPGSV,6,3,12,21,36,276,27,25,04,219,,26,31,130,32,29,64,213,39*70
$GPGSV,6,4,11,68,14,039,29,69,65,061,28,70,49,201,41,71,01,21
2,*7A
$GPGSV,6,5,11,76,08,306,,77,18,357,33,78,07,045,17,83,02,139,*73
$GPGSV,6,6,11,84,51,144,21,85,74,299,36,86,23,315,25*45

$GPRMC,011117.00,A,5630.1948,N,08456.6824,E,00.000,000.0,190214,,,A*65
$GPGGA,011117.00,5630.1948,N,08456.6824,E,1,14,0.9,55.3,M,,M,,*49
$GPGSA,A,3,05,02,29,21,16,26,07,,,,,,1.6,0.9,1.4*32
$GPGSA,A,3,68,69,86,85,70,77,84,,,,,,1.6,0.9,1.4*30

$GPRMC,011118.00,A,5630.1949,N,08456.6822,E,00.000,000.0,190214,,,A*6D
$GPGGA,011118.00,5630.1949,N,08456.6822,E,1,14,0.9,55.4,M,,M,,*46
$GPGSA,A,3,05,02,29,21,16,26,07,,,,,,1.6,0.9,1.4*32
$GPGSA,A,3,68,69,86,85,70,77,84,,,,,,1.6,0.9,1.4*30

$GPRMC,011119.00,A,5630.1949,N,08456.6821,E,00.000,000.0,190214,,,A*6F
$GPGGA,011119.00,5630.1949,N,08456.6821,E,1,14,0.9,55.5,M,,M,,*45
$GPGSA,A,3,05,02,29,21,16,26,07,,,,,,1.6,0.9,1.4*32
$GPGSA,A,3,68,69,86,85,70,77,84,,,,,,1.6,0.9,1.4*30

$GPRMC,011120.00,A,5630.1950,N,08456.6819,E,00.000,000.0,190214,,,A*66
$GPGGA,011120.00,5630.1950,N,08456.6819,E,1,14,0.9,55.5,M,,M,,*4C
$GPGSA,A,3,05,02,29,21,16,26,07,,,,,,1.6,0.9,1.4*32
$GPGSA,A,3,68,69,86,85,70,77,84,,,,,,1.6,0.9,1.4*30
$GPGSV,6,1,
12,02,25,104,38,05,62,081,37,07,09,041,31,09,02,077,*78
$GPGSV,6,2,12,10,07,056,16,15,15,165,33,16,12,337,18,18,06,229,29*79
$GPGSV,6,3,12,21,36,276,28,25,04,219,,26,31,130,31,29,64,213,39*7C
$GPGSV,6,4,11,68,14,039,30,69,65,061,32,70,49,201,39,71,01,21
2,*76
$GPGSV,6,5,11,76,08,306,,77,18,357,34,78,07,045,15,83,02,139,*76
$GPGSV,6,6,11,84,51,144,20,85,74,299,34,86,23,315,21*42

$GPRMC,011122.00,A,5630.1950,N,08456.6818,E,00.000,000.0,190214,,,A*65
$GPGGA,011122.00,5630.1950,N,08456.6818,E,1,14,0.9,55.6,M,,M,,*4C
$GPGSA,A,3,05,02,29,21,16,26,07,,,,,,1.6,0.9,1.4*32
$GPGSA,A,3,68,69,86,85,70,77,84,,,,,,1.6,0.9,1.4*30

$GPRMC,011123.00,A,5630.1950,N,08456.6818,E,00.000,000.0,190214,,,A*64
$GPGGA,011123.00,5630.1950,N,08456.6818,E,1,14,0.9,55.6,M,,M,,*4D
$GPGSA,A,3,05,02,29,21,16,26,07,,,,,,1.6,0.9,1.4*32
$GPGSA,A,3,68,69,86,85,70,77,84,,,,,,1.6,0.9,1.4*30

$GPRMC,011124.00,A,5630.1951,N,08456.6817,E,00.000,000.0,190214,,,A*6D
$GPGGA,011124.00,5630.1951,N,08456.6817,E,1,14,0.9,55.6,M,,M,,*44
$GPGSA,A,3,05,02,29,21,16,26,07,,,,,,1.6,0.9,1.4*32
$GPGSA,A,3,68,69,86,85,70,77,84,,,,,,1.6,0.9,1.4*30

$GPRMC,011125.00,A,5630.1951,N,08456.6817,E,00.000,000.0,190214,,,A*6C
$GPGGA,011125.00,5630.1951,N,08456.6817,E,1,15,0.9,55.6,M,,M,,*44
$GPGSA,A,3,05,02,29,21,10,16,26,07,,,,,1.6,0.9,1.3*34
$GPGSA,A,3,68,69,86,85,70,77,84,,,,,,1.6,0.9,1.3*37
$GPGSV,6,
1,12,02,25,104,37,05,62,081,39,07,09,041,32,09,02,077,*7A
$GPGSV,6,2,12,10,07,056,18,15,15,165,31,16,12,337,16,18,06,229,28*7A
$GPGSV,6,3,12,21,36,276,28,25,04,219,,26,31,130,32,29,64,213,41*70
$GPGSV,6,4,11,68,14,039,27,69,65,060,32,70,49,201,39,71,01,
212,*71
$GPGSV,6,5,11,76,08,306,,77,18,356,29,78,07,045,15,83,01,139,*78
$GPGSV,6,6,11,84,51,144,24,85,74,299,37,86,23,315,19*4E

$GPRMC,011127.00,A,5630.1952,N,08456.6817,E,00.000,000.0,190214,,,A*6D
$GPGGA,011127.00,5630.1952,N,08456.6817,E,1,15,0.9,55.9,M,,M,,*4A
$GPGSA,A,3,05,02,29,21,10,16,26,07,,,,,1.6,0.9,1.3*34
$GPGSA,A,3,68,69,86,85,70,77,84,,,,,,1.6,0.9,1.3*37

$GPRMC,011128.00,A,5630.1952,N,08456.6818,E,00.000,000.0,190214,,,A*6D
$GPGGA,011128.00,5630.1952,N,08456.6818,E,1,15,0.9,56.1,M,,M,,*41
$GPGSA,A,3,05,02,29,21,10,16,26,07,,,,,1.6,0.9,1.3*34
$GPGSA,A,3,68,69,86,85,70,77,84,,,,,,1.6,0.9,1.3*37

$GPRMC,011129.00,A,5630.1952,N,08456.6818,E,00.000,000.0,190214,,,A*6C
$GPGGA,011129.00,5630.1952,N,08456.6818,E,1,15,0.9,56.2,M,,M,,*43
$GPGSA,A,3,05,02,29,21,10,16,26,07,,,,,1.6,0.9,1.3*34
$GPGSA,A,3,68,69,86,85,70,77,84,,,,,,1.6,0.9,1.3*37

$GPRMC,011130.00,A,5630.1953,N,08456.6819,E,00.000,000.0,190214,,,A*64
$GPGGA,011130.00,5630.1953,N,08456.6819,E,1,14,0.9,56.5,M,,M,,*4D
$GPGSA,A,3,05,02,29,21,10,16,26,07,,,,,1.7,0.9,1.4*32
$GPGSA,A,3,68,69,85,70,77,84,,,,,,,1.7,0.9,1.4*3F
$GPGSV,6,1,
12,02,25,104,39,05,62,081,39,07,09,041,34,09,02,077,*72
$GPGSV,6,2,12,10,07,056,16,15,15,165,34,16,12,337,17,18,06,229,30*79
$GPGSV,6,3,12,21,36,276,28,25,04,219,,26,31,130,31,29,64,213,39*7C
$GPGSV,6,4,11,68,14,039,29,69,65,060,31,70,49,201,40,71,01,21
2,*72
$GPGSV,6,5,11,76,08,306,,77,18,356,30,78,07,045,14,83,01,139,*71
$GPGSV,6,6,11,84,51,144,26,85,74,299,37,86,23,315,15*40

$GPRMC,011132.00,A,5630.1954,N,08456.6817,E,00.000,000.0,190214,,,A*6F
$GPGGA,011132.00,5630.1954,N,08456.6817,E,1,13,0.9,56.5,M,,M,,*41
$GPGSA,A,3,05,02,29,21,16,26,07,,,,,,1.7,0.9,1.4*33
$GPGSA,A,3,68,69,85,70,77,84,,,,,,,1.7,0.9,1.4*3F

$GPRMC,011133.00,A,5630.1955,N,08456.6815,E,00.000,000.0,190214,,,A*6D
$GPGGA,011133.00,5630.1955,N,08456.6815,E,1,13,0.9,56.5,M,,M,,*43
$GPGSA,A,3,05,02,29,21,16,26,07,,,,,,1.7,0.9,1.4*33
$GPGSA,A,3,68,69,85,70,77,84,,,,,,,1.7,0.9,1.4*3F

$GPRMC,011134.00,A,5630.1955,N,08456.6814,E,00.000,000.0,190214,,,A*6B
$GPGGA,011134.00,5630.1955,N,08456.6814,E,1,14,0.9,56.6,M,,M,,*41
$GPGSA,A,3,05,02,29,21,10,16,26,07,,,,,1.7,0.9,1.4*32
$GPGSA,A,3,68,69,85,70,77,84,,,,,,,1.7,0.9,1.4*3F

$GPRMC,011135.00,A,5630.1956,N,08456.6814,E,00.000,000.0,190214,,,A*69
$GPGGA,011135.00,5630.1956,N,08456.6814,E,1,14,0.9,56.6,M,,M,,*43
$GPGSA,A,3,05,02,29,21,10,16,26,07,,,,,1.7,0.9,1.4*32
$GPGSA,A,3,68,69,85,70,77,84,,,,,,,1.7,0.9,1.4*3F
$GPGSV,6,1,
12,02,25,104,40,05,62,081,39,07,09,041,33,09,02,077,*7B
$GPGSV,6,2,12,10,07,056,19,15,15,165,32,16,12,337,20,18,06,229,30*74
$GPGSV,6,3,12,21,36,276,27,25,04,219,,26,31,130,33,29,64,213,40*7F
$GPGSV,6,4,11,68,14,039,30,69,65,060,32,70,49,201,39,71,01,21
2,*77
$GPGSV,6,5,11,76,08,306,,77,18,356,30,78,07,045,12,83,01,139,*77
$GPGSV,6,6,11,84,51,144,21,85,74,299,37,86,23,315,14*46

$GPRMC,011137.00,A,5630.1956,N,08456.6812,E,00.000,000.0,190214,,,A*6D
$GPGGA,011137.00,5630.1956,N,08456.6812,E,1,14,0.9,56.4,M,,M,,*45
$GPGSA,A,3,05,02,29,21,10,16,26,07,,,,,1.7,0.9,1.4*32
$GPGSA,A,3,68,69,85,70,77,84,,,,,,,1.7,0.9,1.4*3F

$GPRMC,011138.00,A,5630.1957,N,08456.6811,E,00.000,000.0,190214,,,A*60
$GPGGA,011138.00,5630.1957,N,08456.6811,E,1,14,0.9,56.3,M,,M,,*4F
$GPGSA,A,3,05,02,29,21,10,16,26,07,,,,,1.7,0.9,1.4*32
$GPGSA,A,3,68,69,85,70,77,84,,,,,,,1.7,0.9,1.4*3F

$GPRMC,011139.00,A,5630.1957,N,08456.6810,E,00.000,000.0,190214,,,A*60
$GPGGA,011139.00,5630.1957,N,08456.6810,E,1,14,0.9,56.1,M,,M,,*4D
$GPGSA,A,3,05,02,29,21,10,16,26,07,,,,,1.7,0.9,1.4*32
$GPGSA,A,3,68,69,85,70,77,84,,,,,,,1.7,0.9,1.4*3F

$GPRMC,011140.00,A,5630.1957,N,08456.6809,E,00.000,000.0,190214,,,A*66
$GPGGA,011140.00,5630.1957,N,08456.6809,E,1,14,0.9,56.0,M,,M,,*4A
$GPGSA,A,3,05,02,29,21,10,16,26,07,,,,,1.7,0.9,1.4*32
$GPGSA,A,3,68,69,85,70,77,84,,,,,,,1.7,0.9,1.4*3F
$GPGSV,6,1,
12,02,25,104,39,05,62,081,38,07,09,041,33,09,02,076,*75
$GPGSV,6,2,12,10,06,056,19,15,15,165,33,16,12,337,22,18,06,229,31*77
$GPGSV,6,3,12,21,36,276,28,25,04,219,,26,31,130,32,29,64,213,39*7F
$GPGSV,6,4,11,68,14,039,30,69,65,060,34,70,49,201,40,71,01,21
2,*7F
$GPGSV,6,5,11,76,08,306,,77,18,356,29,78,07,045,06,83,01,139,*7A
$GPGSV,6,6,11,84,51,144,21,85,74,298,37,86,23,315,12*41

$GPRMC,011142.00,A,5630.1957,N,08456.6808,E,00.000,000.0,190214,,,A*65
$GPGGA,011142.00,5630.1957,N,08456.6808,E,1,14,0.9,55.9,M,,M,,*43
$GPGSA,A,3,05,02,29,21,10,16,26,07,,,,,1.7,0.9,1.4*32
$GPGSA,A,3,68,69,85,70,77,84,,,,,,,1.7,0.9,1.4*3F

$GPRMC,011143.00,A,5630.1957,N,08456.6807,E,00.000,000.0,190214,,,A*6B
$GPGGA,011143.00,5630.1957,N,08456.6807,E,1,14,0.9,55.8,M,,M,,*4C
$GPGSA,A,3,05,02,29,21,10,16,26,07,,,,,1.7,0.9,1.4*32
$GPGSA,A,3,68,69,85,70,77,84,,,,,,,1.7,0.9,1.4*3F

$GPRMC,011144.00,A,5630.1957,N,08456.6807,E,00.000,000.0,190214,,,A*6C
$GPGGA,011144.00,5630.1957,N,08456.6807,E,1,14,0.9,55.8,M,,M,,*4B
$GPGSA,A,3,05,02,29,21,10,16,26,07,,,,,1.7,0.9,1.4*32
$GPGSA,A,3,68,69,85,70,77,84,,,,,,,1.7,0.9,1.4*3F

$GPRMC,011145.00,A,5630.1957,N,08456.6807,E,00.000,000.0,190214,,,A*6D
$GPGGA,011145.00,5630.1957,N,08456.6807,E,1,14,0.9,55.8,M,,M,,*4A
