003,,04,13,325,27,13,13,290,21,14,04,113,*75
$GPGSV,3,2,11,16,22,176,29,20,48,242,38,23,47,287,45,25,16,038,21*73
$GPGSV,3,3,11,29,15,067,35,31,61,074,30,32,36,190,29,,,,*43
$GLGSV,3,1,12,74,84,040,38,82,03,321,,66,07,329,,66,07,329,23*6C
$GLGSV,3,2,12
,82,18,012,33,73,29,049,30,75,38,230,34,65,54,307,43*68
$GLGSV,3,3,12,83,09,069,34,81,04,325,,71,09,158,19,72,58,183,27*69
$GPGLL,5627.34874,N,08457.06895,E,053652.000,A*35
$GPRMC,053654.000,A,5627.34874,N,08457.06895,E,0.8,347.8,300414,,,A*6B
$GPGGA,0
53654.000,5627.34874,N,08457.06895,E,1,16,0.6,0114.5,M,-33.9,M,,*4F
$GPVTG,347.8,T,,M,0.8,N,1.5,K,A*09
$GNGSA,A,3,25,20,16,04,31,13,29,23,32,,,,1.2,0.6,1.0*25
$GNGSA,A,3,71,82,65,72,73,75,74,,,,,,1.2,0.6,1.0*27
$GPGSV,3,1,11,02,02,003,,04,13,325,26,13,
13,290,20,14,04,113,*75
$GPGSV,3,2,11,16,22,176,27,20,48,242,36,23,47,287,45,25,16,038,22*70
$GPGSV,3,3,11,29,15,067,35,31,61,074,32,32,36,190,29,,,,*41
$GLGSV,3,1,12,74,84,040,38,82,03,321,,66,07,329,,66,07,329,23*6C
$GLGSV,3,2,12,82,18,012,35,73,29,0
49,30,75,38,230,32,65,54,307,43*68
$GLGSV,3,3,12,83,09,069,35,81,04,325,,71,09,158,19,72,58,183,23*6C
$GPGLL,5627.34874,N,08457.06895,E,053654.000,A*33
$GPRMC,053655.000,A,5627.34874,N,08457.06895,E,2.2,349.8,300414,,,A*6C
$GPGGA,053655.000,5627.34874,
N,08457.06895,E,1,16,0.6,0114.5,M,-33.9,M,,*4E
$GPVTG,349.8,T,,M,2.2,N,4.0,K,A*0F
$GNGSA,A,3,25,20,16,04,31,13,29,23,32,,,,1.2,0.6,1.0*25
$GNGSA,A,3,71,82,65,72,73,75,74,,,,,,1.2,0.6,1.0*27
$GPGSV,3,1,11,02,02,003,,04,13,325,30,13,13,290,20,14,04,113,*
72
$GPGSV,3,2,11,16,22,176,28,20,48,242,36,23,47,287,45,25,16,038,22*7F
$GPGSV,3,3,11,29,15,067,35,31,61,074,32,32,36,190,29,,,,*41
$GLGSV,3,1,12,74,84,040,37,82,03,321,,66,07,329,,66,07,329,23*63
$GLGSV,3,2,12,82,18,012,34,73,29,049,30,75,38,230,33,65
,54,307,43*68
$GLGSV,3,3,12,83,09,069,34,81,04,325,,71,09,158,19,72,58,183,26*68
$GPGLL,5627.34874,N,08457.06895,E,053655.000,A*32
$GPRMC,053657.000,A,5627.35160,N,08457.06846,E,5.4,349.9,300414,,,A*6D
$GPGGA,053657.000,5627.35160,N,08457.06846,E,1,16,
0.6,0114.9,M,-33.9,M,,*43
$GPVTG,349.9,T,,M,5.4,N,10.0,K,A*3A
$GNGSA,A,3,25,20,16,04,31,13,29,23,32,,,,1.2,0.6,1.0*25
$GNGSA,A,3,71,82,65,72,73,75,74,,,,,,1.2,0.6,1.0*27
$GPGSV,3,1,11,02,02,003,,04,13,325,32,13,13,290,20,14,04,113,*70
$GPGSV,3,2,11,16
,22,176,29,20,48,242,35,23,47,287,44,25,16,038,23*7D
$GPGSV,3,3,11,29,15,067,34,31,61,074,31,32,36,190,27,,,,*4D
$GLGSV,3,1,12,74,84,040,37,82,03,321,,66,07,329,,66,07,329,22*62
$GLGSV,3,2,12,82,18,012,31,73,29,049,33,75,38,230,32,65,54,307,43*6F
$GLGS
V,3,3,12,83,09,069,32,81,04,325,,71,09,158,19,72,58,183,27*6F
$GPGLL,5627.35160,N,08457.06846,E,053657.000,A*33
$GPRMC,053658.000,A,5627.35390,N,08457.06834,E,8.1,357.9,300414,,,A*6D
$GPGGA,053658.000,5627.35390,N,08457.06834,E,1,16,0.6,0115.5,M,-33.9,M
,,*49
$GPVTG,357.9,T,,M,8.1,N,15.0,K,A*38
$GNGSA,A,3,25,20,16,04,31,13,29,23,32,,,,1.2,0.6,1.0*25
$GNGSA,A,3,71,82,65,72,73,75,74,,,,,,1.2,0.6,1.0*27
$GPGSV,3,1,11,02,02,003,,04,13,325,32,13,13,290,20,14,04,113,*70
$GPGSV,3,2,11,16,22,176,28,20,48,242
,34,23,47,287,44,25,16,038,23*7D
$GPGSV,3,3,11,29,15,067,28,31,61,074,34,32,36,190,27,,,,*45
$GLGSV,3,1,12,74,84,040,37,82,03,321,,66,07,329,,66,07,329,23*63
$GLGSV,3,2,12,82,18,012,30,73,29,049,33,75,38,230,32,65,54,307,44*69
$GLGSV,3,3,12,83,09,069,2
6,81,04,325,,71,09,158,19,72,58,183,27*6A
$GPGLL,5627.35390,N,08457.06834,E,053658.000,A*34
$GPRMC,053700.000,A,5627.35989,N,08457.06825,E,10.9,359.0,300414,,,A*55
$GPGGA,053700.000,5627.35989,N,08457.06825,E,1,16,0.6,0116.1,M,-33.9,M,,*40
$GPVTG,359.0
,T,,M,10.9,N,20.1,K,A*09
$GNGSA,A,3,25,20,16,04,31,13,29,23,32,,,,1.2,0.6,1.0*25
$GNGSA,A,3,71,82,65,72,73,75,74,,,,,,1.2,0.6,1.0*27
$GPGSV,3,1,11,02,02,003,,04,13,325,28,13,13,290,20,14,04,113,*7B
$GPGSV,3,2,11,16,22,176,25,20,48,242,27,23,47,287,44,2
5,16,038,23*72
$GPGSV,3,3,11,29,15,067,22,31,61,074,34,32,36,190,27,,,,*4F
$GLGSV,3,1,12,74,84,040,37,82,03,321,,66,07,329,,66,07,329,23*63
$GLGSV,3,2,12,82,18,012,30,73,29,049,35,75,38,230,31,65,54,307,44*6C
$GLGSV,3,3,12,83,09,069,24,81,04,325,,71,09
,158,19,72,58,183,30*6E
$GPGLL,5627.35989,N,08457.06825,E,053700.000,A*3A
$GPRMC,053701.000,A,5627.36340,N,08457.06807,E,11.5,358.6,300414,,,A*52
$GPGGA,053701.000,5627.36340,N,08457.06807,E,1,16,0.6,0116.1,M,-33.9,M,,*4D
$GPVTG,358.6,T,,M,11.5,N,21.4,
K,A*07
$GNGSA,A,3,25,20,16,04,31,13,29,23,32,,,,1.2,0.6,1.0*25
$GNGSA,A,3,71,82,65,72,73,75,74,,,,,,1.2,0.6,1.0*27
$GPGSV,3,1,11,02,02,003,,04,13,325,27,13,13,290,21,14,04,113,*75
$GPGSV,3,2,11,16,22,176,25,20,48,242,27,23,47,287,44,25,16,038,23*72
$G
PGSV,3,3,11,29,15,067,22,31,61,074,33,32,36,190,28,,,,*47
$GLGSV,3,1,12,74,84,040,37,82,03,321,,66,07,329,,66,07,329,23*63
$GLGSV,3,2,12,82,18,012,30,73,29,049,34,75,38,230,32,65,54,307,43*69
$GLGSV,3,3,12,83,09,069,,81,04,325,,71,09,158,19,72,58,183,30
*68
$GPGLL,5627.36340,N,08457.06807,E,053701.000,A*37
$GPRMC,053703.000,A,5627.37124,N,08457.06816,E,13.8,358.1,300414,,,A*59
$GPGGA,053703.000,5627.37124,N,08457.06816,E,1,16,0.6,0116.3,M,-33.9,M,,*4C
$GPVTG,358.1,T,,M,13.8,N,25.6,K,A*09
$GNGSA,A,3,2
5,20,16,04,31,13,29,23,32,,,,1.2,0.6,1.0*25
$GNGSA,A,3,71,82,65,72,73,75,74,,,,,,1.2,0.6,1.0*27
$GPGSV,3,1,11,02,02,003,,04,13,325,26,13,13,290,21,14,04,113,*74
$GPGSV,3,2,11,16,22,176,24,20,48,242,28,23,47,287,44,25,16,038,22*7D
$GPGSV,3,3,11,29,15,06
7,21,31,61,074,35,32,36,190,28,,,,*42
$GLGSV,3,1,12,74,84,040,37,82,03,321,,66,07,329,,66,07,329,23*63
$GLGSV,3,2,12,82,18,012,29,73,29,049,33,75,38,230,33,65,54,307,43*67
$GLGSV,3,3,12,83,09,069,22,81,04,325,,71,09,158,19,72,58,183,31*69
$GPGLL,5627.3
7124,N,08457.06816,E,053703.000,A*34
$GPRMC,053704.000,A,5627.37520,N,08457.06829,E,14.4,358.8,300414,,,A*50
$GPGGA,053704.000,5627.37520,N,08457.06829,E,1,16,0.6,0116.5,M,-33.9,M,,*41
$GPVTG,358.8,T,,M,14.4,N,26.7,K,A*09
$GNGSA,A,3,25,20,16,04,31,13,2
9,23,32,,,,1.2,0.6,1.0*25
$GNGSA,A,3,71,82,65,72,73,75,74,,,,,,1.2,0.6,1.0*27
$GPGSV,3,1,11,02,02,003,,04,13,325,25,13,13,290,21,14,04,113,*77
$GPGSV,3,2,11,16,22,176,24,20,48,242,29,23,47,287,44,25,16,038,33*7C
$GPGSV,3,3,11,29,15,067,22,31,61,074,35,
32,36,190,28,,,,*41
$GLGSV,3,1,12,74,84,040,37,82,03,321,,66,07,329,,66,07,329,23*63
$GLGSV,3,2,12,82,18,012,29,73,29,049,33,75,38,230,33,65,54,307,43*67
$GLGSV,3,3,12,83,09,069,22,81,04,325,,71,09,158,19,72,58,183,31*69
$GPGLL,5627.37520,N,08457.06829
,E,053704.000,A*3F
$GPRMC,053706.000,A,5627.38320,N,08457.06809,E,14.4,358.3,300414,,,A*52
$GPGGA,053706.000,5627.38320,N,08457.06809,E,1,16,0.6,0116.9,M,-33.9,M,,*44
$GPVTG,358.3,T,,M,14.4,N,26.7,K,A*02
$GNGSA,A,3,25,20,16,04,31,13,29,23,32,,,,1.2,0.6
,1.0*25
$GNGSA,A,3,71,82,65,72,73,75,74,,,,,,1.2,0.6,1.0*27
$GPGSV,3,1,11,02,02,003,,04,13,325,25,13,13,290,22,14,03,113,*73
$GPGSV,3,2,11,16,22,176,22,20,48,242,29,23,47,287,44,25,16,038,29*71
$GPGSV,3,3,11,29,15,067,23,31,61,074,36,32,36,190,28,,,,*4
3
$GLGSV,3,1,12,74,84,040,36,82,03,321,,66,07,329,,66,07,329,24*65
$GLGSV,3,2,12,82,18,012,29,73,29,049,33,75,38,230,33,65,54,307,42*66
$GLGSV,3,3,12,83,09,069,22,81,04,325,,71,09,158,19,72,58,183,31*69
$GPGLL,5627.38320,N,08457.06809,E,053706.000,A*36

$GPRMC,053708.000,A,5627.39151,N,08457.06716,E,14.4,359.2,300414,,,A*58
$GPGGA,053708.000,5627.39151,N,08457.06716,E,1,15,0.7,0117.4,M,-33.9,M,,*40
$GPVTG,359.2,T,,M,14.4,N,26.6,K,A*03
$GNGSA,A,3,25,20,16,04,31,13,29,23,32,,,,1.3,0.7,1.1*24
$GNGSA,A,
3,82,65,72,73,75,74,,,,,,,1.3,0.7,1.1*20
$GPGSV,3,1,11,02,02,003,,04,13,325,26,13,13,290,21,14,03,113,*73
$GPGSV,3,2,11,16,22,176,20,20,48,242,28,23,47,287,43,25,16,038,30*7D
$GPGSV,3,3,11,29,15,067,34,31,61,074,35,32,36,190,28,,,,*46
$GLGSV,3,1,12,74,
84,040,37,82,03,321,,66,07,329,,66,07,329,25*65
$GLGSV,3,2,12,82,18,012,31,73,29,049,31,75,38,230,33,65,54,307,42*6D
$GLGSV,3,3,12,83,09,069,33,81,04,325,,71,09,158,,72,58,183,31*61
$GPGLL,5627.39151,N,08457.06716,E,053708.000,A*3C
$GPRMC,053709.000,A,
5627.39591,N,08457.06720,E,14.3,359.2,300414,,,A*53
$GPGGA,053709.000,5627.39591,N,08457.06720,E,1,15,0.7,0117.5,M,-33.9,M,,*4D
$GPVTG,359.2,T,,M,14.3,N,26.5,K,A*07
$GNGSA,A,3,25,20,16,04,31,13,29,23,32,,,,1.3,0.7,1.1*24
$GNGSA,A,3,82,65,72,73,75,74,,,
,,,,1.3,0.7,1.1*20
$GPGSV,3,1,11,02,02,003,,04,13,325,29,13,13,290,30,14,03,113,*7C
$GPGSV,3,2,11,16,23,176,20,20,48,242,27,23,47,287,43,25,16,038,32*71
$GPGSV,3,3,11,29,15,067,34,31,61,074,35,32,36,190,29,,,,*47
$GLGSV,3,1,12,74,84,040,37,82,03,321,,6
6,07,329,,66,07,329,25*65
$GLGSV,3,2,12,82,18,012,31,73,29,049,32,75,38,230,32,65,54,307,42*6F
$GLGSV,3,3,12,83,09,069,31,81,04,325,,71,09,158,,72,57,183,31*6C
$GPGLL,5627.39591,N,08457.06720,E,053709.000,A*30
$GPRMC,053711.000,A,5627.40296,N,08457.067
47,E,12.4,358.7,300414,,,A*50
$GPGGA,053711.000,5627.40296,N,08457.06747,E,1,15,0.7,0117.1,M,-33.9,M,,*4F
$GPVTG,358.7,T,,M,12.4,N,22.9,K,A*0A
$GNGSA,A,3,25,20,16,04,31,13,29,23,32,,,,1.3,0.7,1.1*24
$GNGSA,A,3,82,65,72,73,75,74,,,,,,,1.3,0.7,1.1*20
$G
PGSV,3,1,11,02,02,003,,04,13,325,30,13,13,290,32,14,03,113,*76
$GPGSV,3,2,11,16,23,176,18,20,48,242,28,23,47,287,42,25,16,038,29*7E
$GPGSV,3,3,11,29,15,067,27,31,61,074,36,32,36,190,29,,,,*46
$GLGSV,3,1,12,74,84,040,37,82,03,321,,66,07,329,,66,07,329,25
*65
$GLGSV,3,2,12,82,18,012,29,73,29,049,33,75,38,230,33,65,54,307,42*66
$GLGSV,3,3,12,83,09,069,,81,04,325,,71,09,158,,72,57,183,30*6F
$GPGLL,5627.40296,N,08457.06747,E,053711.000,A*36
$GPRMC,053712.000,A,5627.40629,N,08457.06776,E,11.8,359.7,300414,,
,A*5F
$GPGGA,053712.000,5627.40629,N,08457.06776,E,1,15,0.7,0117.4,M,-33.9,M,,*4B
$GPVTG,359.7,T,,M,11.8,N,21.9,K,A*07
$GNGSA,A,3,25,20,16,04,31,13,29,23,32,,,,1.3,0.7,1.1*24
$GNGSA,A,3,82,65,72,73,75,74,,,,,,,1.3,0.7,1.1*20
$GPGSV,3,1,11,02,02,003,,0
4,13,325,30,13,13,290,29,14,03,113,*7C
$GPGSV,3,2,11,16,23,176,19,20,48,242,29,23,47,287,43,25,16,038,30*77
$GPGSV,3,3,11,29,15,067,26,31,61,074,37,32,36,190,29,,,,*46
$GLGSV,3,1,12,74,84,040,37,82,03,321,,66,07,329,,66,07,329,24*64
$GLGSV,3,2,12,82,18
,012,29,73,29,049,35,75,38,230,33,65,54,307,42*60
$GLGSV,3,3,12,83,09,069,,81,04,325,,71,09,158,,72,57,183,31*6E
$GPGLL,5627.40629,N,08457.06776,E,053712.000,A*37
$GPRMC,053714.000,A,5627.41220,N,08457.06843,E,10.7,0.1,300414,,,A*5B
$GPGGA,053714.000,5
627.41220,N,08457.06843,E,1,15,0.7,0118.1,M,-33.9,M,,*42
$GPVTG,0.1,T,,M,10.7,N,19.8,K,A*0A
$GNGSA,A,3,25,20,16,04,31,13,29,23,32,,,,1.3,0.7,1.1*24
$GNGSA,A,3,82,65,72,73,75,74,,,,,,,1.3,0.7,1.1*20
$GPGSV,3,1,11,02,02,003,,04,13,325,29,13,13,290,32,14,
03,113,*7E
$GPGSV,3,2,11,16,23,176,18,20,48,242,28,23,47,287,41,25,16,038,29*7D
$GPGSV,3,3,11,29,15,067,24,31,61,074,37,32,36,190,28,,,,*45
$GLGSV,3,1,12,74,84,040,36,82,03,321,,66,07,329,,66,07,329,23*62
$GLGSV,3,2,12,82,18,012,32,73,29,049,34,75,38,2
30,32,65,54,307,41*69
$GLGSV,3,3,12,83,09,069,,81,04,325,,71,09,158,,72,57,183,30*6F
$GPGLL,5627.41220,N,08457.06843,E,053714.000,A*34
$GPRMC,053716.000,A,5627.41763,N,08457.06902,E,9.5,359.8,300414,,,A*63
$GPGGA,053716.000,5627.41763,N,08457.06902,E,1
,15,0.7,0118.3,M,-33.9,M,,*44
$GPVTG,359.8,T,,M,9.5,N,17.6,K,A*36
$GNGSA,A,3,25,20,16,04,31,13,29,23,32,,,,1.3,0.7,1.1*24
$GNGSA,A,3,82,65,72,73,75,74,,,,,,,1.3,0.7,1.1*20
$GPGSV,3,1,11,02,02,003,,04,13,325,27,13,13,290,33,14,03,113,*71
$GPGSV,3,2,11,
16,23,176,18,20,48,242,27,23,47,287,41,25,16,038,25*7E
$GPGSV,3,3,11,29,15,067,23,31,61,074,36,32,36,190,28,,,,*43
$GLGSV,3,1,12,74,84,040,36,82,03,321,,66,07,329,,66,07,329,22*63
$GLGSV,3,2,12,82,18,012,32,73,29,049,33,75,38,230,32,65,54,307,41*6E
$GL
GSV,3,3,12,83,09,069,,81,04,325,,71,09,158,,72,57,183,30*6F
$GPGLL,5627.41763,N,08457.06902,E,053716.000,A*30
$GPRMC,053717.000,A,5627.41962,N,08457.06937,E,8.1,358.6,300414,,,A*61
$GPGGA,053717.000,5627.41962,N,08457.06937,E,1,15,0.7,0118.6,M,-33.9,M,,
*49
$GPVTG,358.6,T,,M,8.1,N,14.9,K,A*30
$GNGSA,A,3,25,20,16,04,31,13,29,23,32,,,,1.3,0.7,1.1*24
$GNGSA,A,3,82,65,72,73,75,74,,,,,,,1.3,0.7,1.1*20
$GPGSV,3,1,11,02,02,003,,04,13,325,25,13,13,290,33,14,03,113,*73
$GPGSV,3,2,11,16,23,176,18,20,48,242,28,
23,47,287,41,25,16,038,25*71
$GPGSV,3,3,11,29,15,067,23,31,61,074,36,32,36,190,28,,,,*43
$GLGSV,3,1,12,74,84,040,36,82,03,321,,66,07,329,,66,07,329,22*63
$GLGSV,3,2,12,82,18,012,31,73,29,049,32,75,38,230,32,65,54,307,41*6C
$GLGSV,3,3,12,83,09,069,,81,0
4,325,,71,09,158,,72,57,183,31*6E
$GPGLL,5627.41962,N,08457.06937,E,053717.000,A*38
$GPRMC,053718.000,A,5627.42149,N,08457.06935,E,7.1,356.9,300414,,,A*60
$GPGGA,053718.000,5627.42149,N,08457.06935,E,1,15,0.7,0118.7,M,-33.9,M,,*47
$GPVTG,356.9,T,,M,7.1
,N,13.2,K,A*32
$GNGSA,A,3,25,20,16,04,31,13,29,23,32,,,,1.3,0.7,1.1*24
$GNGSA,A,3,82,65,72,73,75,74,,,,,,,1.3,0.7,1.1*20
$GPGSV,3,1,11,02,02,003,,04,13,325,25,13,13,290,34,14,03,113,*74
$GPGSV,3,2,11,16,23,176,18,20,48,241,28,23,47,287,41,25,16,038,25*
72
$GPGSV,3,3,11,29,15,067,23,31,61,074,37,32,36,190,29,,,,*43
$GLGSV,3,1,12,74,84,040,36,82,03,321,,66,07,329,,66,07,329,22*63
$GLGSV,3,2,12,82,18,012,32,73,29,049,33,75,38,230,32,65,54,307,41*6E
$GLGSV,3,3,12,83,09,069,20,81,04,325,,71,09,158,,72,57,
183,31*6C
$GPGLL,5627.42149,N,08457.06935,E,053718.000,A*37
$GPRMC,053720.000,A,5627.42425,N,08457.06953,E,3.1,356.3,300414,,,A*6A
$GPGGA,053720.000,5627.42425,N,08457.06953,E,1,15,0.7,0119.1,M,-33.9,M,,*44
$GPVTG,356.3,T,,M,3.1,N,5.7,K,A*0E
$GNGSA,A,
3,25,20,16,04,31,13,29,23,32,,,,1.3,0.7,1.1*24
$GNGSA,A,3,82,65,72,73,75,74,,,,,,,1.3,0.7,1.1*20
$GPGSV,3,1,11,02,02,003,,04,13,325,24,13,13,290,34,14,03,113,*75
$GPGSV,3,2,11,16,23,176,20,20,48,241,28,23,47,287,42,25,16,038,24*7B
$GPGSV,3,3,11,29,15,0
67,23,31,61,074,37,32,36,190,30,,,,*4B
$GLGSV,3,1,12,74,84,040,37,82,03,321,,66,07,329,,66,07,329,23*63
$GLGSV,3,2,12,82,18,011,32,73,29,049,34,75,38,230,31,65,54,307,42*6A
$GLGSV,3,3,12,83,09,069,20,81,04,325,,71,09,158,,72,57,183,31*6C
$GPGLL,5627.42
425,N,08457.06953,E,053720.000,A*33
$GPRMC,053722.000,A,5627.42556,N,08457.07010,E,1.6,352.9,300414,,,A*69
$GPGGA,053722.000,5627.42556,N,08457.07010,E,1,15,0.7,0118.8,M,-33.9,M,,*44
$GPVTG,352.9,T,,M,1.6,N,3.0,K,A*04
$GNGSA,A,3,25,20,16,04,31,13,29,23
,32,,,,1.3,0.7,1.1*24
$GNGSA,A,3,82,65,72,73,75,74,,,,,,,1.3,0.7,1.1*20
$GPGSV,3,1,11,02,02,003,,04,13,325,24,13,13,290,35,14,03,113,*74
$GPGSV,3,2,11,16,23,176,23,20,48,241,29,23,47,287,43,25,16,038,23*7F
$GPGSV,3,3,11,29,15,067,23,31,61,074,37,32,36,
190,30,,,,*4B
$GLGSV,3,1,12,74,84,040,36,82,03,321,,66,07,329,,66,07,329,26*67
$GLGSV,3,2,12,82,18,011,31,73,29,049,34,75,38,230,31,65,54,307,42*69
$GLGSV,3,3,12,83,09,069,19,81,04,325,,71,09,158,,72,57,183,30*67
$GPGLL,5627.42556,N,08457.07010,E,05372
2.000,A*3B
$GPRMC,053723.000,A,5627.42616,N,08457.06986,E,1.4,348.4,300414,,,A*6C
$GPGGA,053723.000,5627.42616,N,08457.06986,E,1,16,0.6,0119.1,M,-33.9,M,,*4F
$GPVTG,348.4,T,,M,1.4,N,2.6,K,A*07
$GNGSA,A,3,25,20,16,04,31,13,29,23,32,,,,1.2,0.6,1.0*25
$G
NGSA,A,3,71,82,65,72,73,75,74,,,,,,1.2,0.6,1.0*27
$GPGSV,3,1,11,02,02,003,,04,13,325,25,13,13,290,35,14,03,113,*75
$GPGSV,3,2,11,16,23,176,25,20,48,241,29,23,47,287,43,25,16,038,22*78
$GPGSV,3,3,11,29,15,067,23,31,61,074,38,32,36,190,30,,,,*44
$GLGSV,3
,1,12,74,84,040,36,82,03,321,,66,07,329,,66,07,329,29*68
$GLGSV,3,2,12,82,18,011,32,73,29,049,34,75,38,230,32,65,54,307,42*69
$GLGSV,3,3,12,83,09,069,19,81,04,325,,71,09,158,19,72,57,183,30*6F
$GPGLL,5627.42616,N,08457.06986,E,053723.000,A*3A
$GPRMC,05
3725.000,A,5627.42616,N,08457.06986,E,1.1,353.4,300414,,,A*65
$GPGGA,053725.000,5627.42616,N,08457.06986,E,1,16,0.6,0119.1,M,-33.9,M,,*49
$GPVTG,353.4,T,,M,1.1,N,2.0,K,A*0E
$GNGSA,A,3,25,20,16,04,31,13,29,23,32,,,,1.2,0.6,1.0*25
$GNGSA,A,3,71,82,65,72,
73,75,74,,,,,,1.2,0.6,1.0*27
$GPGSV,3,1,11,02,02,003,,04,13,325,26,13,13,290,34,14,03,113,*77
$GPGSV,3,2,11,16,23,176,26,20,48,241,28,23,47,287,43,25,16,038,20*78
$GPGSV,3,3,11,29,15,067,23,31,61,074,38,32,36,190,29,,,,*4C
$GLGSV,3,1,12,74,84,040,36,82
,03,321,,66,07,329,,66,07,329,24*65
$GLGSV,3,2,12,82,18,011,34,73,29,049,34,75,39,231,33,65,54,307,42*6E
$GLGSV,3,3,12,83,09,069,20,81,04,325,,71,09,158,19,72,57,183,29*6D
$GPGLL,5627.42616,N,08457.06986,E,053725.000,A*3C
$GPRMC,053726.000,A,5627.42616
,N,08457.06986,E,0.6,0.7,300414,,,A*66
$GPGGA,053726.000,5627.42616,N,08457.06986,E,1,16,0.6,0119.1,M,-33.9,M,,*4A
$GPVTG,0.7,T,,M,0.6,N,1.2,K,A*0F
$GNGSA,A,3,25,20,16,04,31,13,29,23,32,,,,1.2,0.6,1.0*25
$GNGSA,A,3,71,82,65,72,73,75,74,,,,,,1.2,0.6,1.0
*27
$GPGSV,3,1,11,02,02,003,,04,13,325,26,13,13,290,35,14,03,113,*76
$GPGSV,3,2,11,16,23,176,27,20,48,241,28,23,47,287,43,25,16,038,20*79
$GPGSV,3,3,11,29,15,067,23,31,61,074,37,32,36,190,29,,,,*43
$GLGSV,3,1,12,74,84,040,36,82,03,321,,66,07,329,,66,07
,329,24*65
$GLGSV,3,2,12,82,18,011,34,73,29,049,35,75,39,231,33,65,54,307,42*6F
$GLGSV,3,3,12,83,09,069,20,81,04,325,,71,09,158,20,72,57,183,28*66
$GPGLL,5627.42616,N,08457.06986,E,053726.000,A*3F
$GPRMC,053728.000,A,5627.42616,N,08457.06986,E,0.4,3.7,
300414,,,A*69
$GPGGA,053728.000,5627.42616,N,08457.06986,E,1,16,0.6,0119.1,M,-33.9,M,,*44
$GPVTG,3.7,T,,M,0.4,N,0.8,K,A*05
$GNGSA,A,3,25,20,16,04,31,13,29,23,32,,,,1.2,0.6,1.0*25
$GNGSA,A,3,71,82,65,72,73,75,74,,,,,,1.2,0.6,1.0*27
$GPGSV,3,1,11,02,02,
003,,04,13,325,22,13,13,290,35,14,03,113,*72
$GPGSV,3,2,11,16,23,176,26,20,48,241,26,23,47,287,44,25,16,038,21*70
$GPGSV,3,3,11,29,15,067,21,31,61,074,38,32,36,190,31,,,,*47
$GLGSV,3,1,12,74,84,040,37,82,03,321,,66,07,329,,66,07,329,25*65
$GLGSV,3,2,12
,82,18,011,35,73,29,049,37,75,39,231,33,65,55,306,43*6D
$GLGSV,3,3,12,83,09,069,20,81,04,325,,71,09,158,20,72,57,183,27*69
$GPGLL,5627.42616,N,08457.06986,E,053728.000,A*31
$GPRMC,053729.000,A,5627.42616,N,08457.06986,E,0.3,346.6,300414,,,A*6C
$GPGGA,0
53729.000,5627.42616,N,08457.06986,E,1,16,0.6,0119.1,M,-33.9,M,,*45
$GPVTG,346.6,T,,M,0.3,N,0.5,K,A*0C
$GNGSA,A,3,25,20,16,04,31,13,29,23,32,,,,1.2,0.6,1.0*25
$GNGSA,A,3,71,82,65,72,73,75,74,,,,,,1.2,0.6,1.0*27
$GPGSV,3,1,11,02,02,003,,04,13,325,20,13,
13,290,35,14,03,113,*70
$GPGSV,3,2,11,16,23,176,22,20,48,241,27,23,47,287,44,25,16,038,21*75
$GPGSV,3,3,11,29,15,067,22,31,61,074,38,32,36,190,30,,,,*45
$GLGSV,3,1,12,74,84,040,37,82,03,321,,66,07,329,,66,07,329,26*66
$GLGSV,3,2,12,82,18,011,31,73,29,0
49,37,75,39,231,32,65,55,306,43*68
$GLGSV,3,3,12,83,09,069,20,81,04,325,,71,09,158,20,72,57,183,28*66
$GPGLL,5627.42616,N,08457.06986,E,053729.000,A*30
$GPRMC,053731.000,A,5627.42616,N,08457.06986,E,1.5,341.9,300414,,,A*6A
$GPGGA,053731.000,5627.42616,
N,08457.06986,E,1,16,0.6,0119.1,M,-33.9,M,,*4C
$GPVTG,341.9,T,,M,1.5,N,2.7,K,A*03
$GNGSA,A,3,25,20,16,04,31,13,29,23,32,,,,1.2,0.6,1.0*25
$GNGSA,A,3,71,82,65,72,73,75,74,,,,,,1.2,0.6,1.0*27
$GPGSV,3,1,11,02,02,003,,04,13,325,26,13,13,290,34,14,03,113,*
77
$GPGSV,3,2,11,16,23,176,24,20,48,241,28,23,47,287,44,25,16,038,21*7C
$GPGSV,3,3,11,29,15,067,22,31,61,074,37,32,36,190,30,,,,*4A
$GLGSV,3,1,12,74,84,040,37,82,03,321,,66,07,329,,66,07,329,24*64
$GLGSV,3,2,12,82,18,011,31,73,29,049,37,75,39,231,32,65
,55,306,43*68
$GLGSV,3,3,12,83,10,068,20,81,04,325,,71,09,158,20,72,57,183,27*60
$GPGLL,5627.42616,N,08457.06986,E,053731.000,A*39
$GPRMC,053732.000,A,5627.42616,N,08457.06986,E,3.3,337.2,300414,,,A*67
$GPGGA,053732.000,5627.42616,N,08457.06986,E,1,16,
0.6,0119.1,M,-33.9,M,,*4F
$GPVTG,337.2,T,,M,3.3,N,6.1,K,A*0F
$GNGSA,A,3,25,20,16,04,31,13,29,23,32,,,,1.2,0.6,1.0*25
$GNGSA,A,3,71,82,65,72,73,75,74,,,,,,1.2,0.6,1.0*27
$GPGSV,3,1,11,02,02,003,,04,13,325,26,13,13,290,33,14,03,113,*70
$GPGSV,3,2,11,16,
23,176,25,20,48,241,28,23,47,287,44,25,16,038,21*7D
$GPGSV,3,3,11,29,15,067,22,31,61,074,37,32,36,190,30,,,,*4A
$GLGSV,3,1,12,74,84,040,36,82,03,321,,66,07,329,,66,07,329,24*65
$GLGSV,3,2,12,82,18,011,34,73,29,049,37,75,39,231,32,65,55,306,43*6D
$GLGSV
,3,3,12,83,10,068,20,81,04,325,,71,09,158,20,72,57,183,27*60
$GPGLL,5627.42616,N,08457.06986,E,053732.000,A*3A
$GPRMC,053734.000,A,5627.43161,N,08457.06884,E,9.0,355.2,300414,,,A*69
$GPGGA,053734.000,5627.43161,N,08457.06884,E,1,16,0.6,0119.9,M,-33.9,M,
,*44
$GPVTG,355.2,T,,M,9.0,N,16.6,K,A*34
$GNGSA,A,3,25,20,16,04,31,13,29,23,32,,,,1.2,0.6,1.0*25
$GNGSA,A,3,71,82,65,72,73,75,74,,,,,,1.2,0.6,1.0*27
$GPGSV,3,1,11,02,02,003,,04,13,325,27,13,13,290,28,14,03,113,*7B
$GPGSV,3,2,11,16,23,176,24,20,48,241,
28,23,47,287,44,25,16,038,22*7F
$GPGSV,3,3,11,29,15,067,31,31,61,074,38,32,36,190,27,,,,*41
$GLGSV,3,1,12,74,84,040,36,82,03,321,,66,07,329,,66,07,329,24*65
$GLGSV,3,2,12,82,18,011,35,73,29,049,37,75,39,231,33,65,55,306,44*6A
$GLGSV,3,3,12,83,10,068,20
,81,04,324,,71,09,158,20,72,57,183,26*60
$GPGLL,5627.43161,N,08457.06884,E,053734.000,A*39
$GPRMC,053736.000,A,5627.43955,N,08457.06846,E,13.3,359.2,300414,,,A*5E
$GPGGA,053736.000,5627.43955,N,08457.06846,E,1,16,0.6,0119.8,M,-33.9,M,,*46
$GPVTG,359.2,
T,,M,13.3,N,24.6,K,A*01
$GNGSA,A,3,25,20,16,04,31,13,29,23,32,,,,1.2,0.6,1.0*25
$GNGSA,A,3,71,82,65,72,73,75,74,,,,,,1.2,0.6,1.0*27
$GPGSV,3,1,11,02,02,003,,04,13,325,28,13,13,290,27,14,03,113,*7B
$GPGSV,3,2,11,16,23,176,22,20,48,241,26,23,47,287,44,25
,16,038,23*76
$GPGSV,3,3,11,29,15,066,31,31,61,074,38,32,36,190,27,,,,*40
$GLGSV,3,1,12,74,84,040,37,82,03,321,,66,07,329,,66,07,329,24*64
$GLGSV,3,2,12,82,18,011,33,73,29,049,36,75,39,231,31,65,55,306,44*6F
$GLGSV,3,3,12,83,10,068,19,81,04,324,,71,09,
158,20,72,57,183,27*6B
$GPGLL,5627.43955,N,08457.06846,E,053736.000,A*3A
$GPRMC,053737.000,A,5627.44376,N,08457.06784,E,14.6,358.3,300414,,,A*50
$GPGGA,053737.000,5627.44376,N,08457.06784,E,1,16,0.6,0120.1,M,-33.9,M,,*49
$GPVTG,358.3,T,,M,14.6,N,27.1,K
,A*07
$GNGSA,A,3,25,20,16,04,31,13,29,23,32,,,,1.2,0.6,1.0*25
$GNGSA,A,3,71,82,65,72,73,75,74,,,,,,1.2,0.6,1.0*27
$GPGSV,3,1,11,02,02,003,,04,13,325,27,13,13,290,22,14,03,113,*71
$GPGSV,3,2,11,16,23,176,20,20,48,241,26,23,47,287,43,25,16,038,25*75
$GP
GSV,3,3,11,29,15,066,31,31,61,074,38,32,36,190,26,,,,*41
$GLGSV,3,1,12,74,84,040,36,82,03,321,,66,07,329,,66,07,329,23*62
$GLGSV,3,2,12,82,18,011,33,73,29,049,32,75,39,231,30,65,55,306,43*6D
$GLGSV,3,3,12,83,10,068,19,81,04,324,,71,09,158,20,72,57,183,2
7*6B
$GPGLL,5627.44376,N,08457.06784,E,053737.000,A*36
$GPRMC,053739.000,A,5627.45242,N,08457.06639,E,15.7,359.5,300414,,,A*59
$GPGGA,053739.000,5627.45242,N,08457.06639,E,1,15,0.7,0119.8,M,-33.9,M,,*46
$GPVTG,359.5,T,,M,15.7,N,29.1,K,A*0E
$GNGSA,A,3,
25,20,16,04,31,13,29,23,32,,,,1.3,0.7,1.1*24
$GNGSA,A,3,82,65,72,73,75,74,,,,,,,1.3,0.7,1.1*20
$GPGSV,3,1,11,02,02,003,,04,13,325,28,13,13,290,22,14,03,113,*7E
$GPGSV,3,2,11,16,23,176,19,20,48,241,25,23,47,287,42,25,16,038,26*7E
$GPGSV,3,3,11,29,15,066
,25,31,61,074,37,32,36,190,26,,,,*4B
$GLGSV,3,1,12,74,84,040,37,82,03,321,,66,07,329,,66,07,329,23*63
$GLGSV,3,2,12,82,18,011,32,73,29,049,29,75,39,231,30,65,55,306,42*67
$GLGSV,3,3,12,83,10,068,19,81,04,324,,71,09,158,,72,57,183,28*66
$GPGLL,5627.4524
2,N,08457.06639,E,053739.000,A*38
$GPRMC,053740.000,A,5627.45634,N,08457.06620,E,14.9,0.5,300414,,,A*5A
$GPGGA,053740.000,5627.45634,N,08457.06620,E,1,16,0.6,0119.8,M,-33.9,M,,*47
$GPVTG,0.5,T,,M,14.9,N,27.6,K,A*07
$GNGSA,A,3,25,20,16,04,31,13,29,23,32
,,,,1.2,0.6,1.0*25
$GNGSA,A,3,71,82,65,72,73,75,74,,,,,,1.2,0.6,1.0*27
$GPGSV,3,1,11,02,02,003,,04,13,325,28,13,13,290,22,14,03,113,*7E
$GPGSV,3,2,11,16,23,176,19,20,48,241,26,23,47,287,42,25,16,038,22*79
$GPGSV,3,3,11,29,15,066,24,31,61,074,37,32,36,1
90,27,,,,*4B
$GLGSV,3,1,12,74,84,040,36,82,03,321,,66,07,329,,66,07,329,23*62
$GLGSV,3,2,12,82,18,011,32,73,29,049,30,75,39,231,30,65,55,306,42*6F
$GLGSV,3,3,12,83,10,068,19,81,04,324,,71,09,158,20,72,57,183,29*65
$GPGLL,5627.45634,N,08457.06620,E,0537
40.000,A*3B
$GPRMC,053742.000,A,5627.46335,N,08457.06660,E,13.3,4.2,300414,,,A*55
$GPGGA,053742.000,5627.46335,N,08457.06660,E,1,15,0.7,0119.4,M,-33.9,M,,*48
$GPVTG,4.2,T,,M,13.3,N,24.7,K,A*0B
$GNGSA,A,3,25,20,16,04,31,13,29,23,32,,,,1.3,0.7,1.1*24
$G
NGSA,A,3,82,65,72,73,75,74,,,,,,,1.3,0.7,1.1*20
$GPGSV,3,1,11,02,02,003,,04,13,325,27,13,13,290,22,14,03,113,*71
$GPGSV,3,2,11,16,23,176,19,20,48,241,26,23,47,287,42,25,16,038,22*79
$GPGSV,3,3,11,29,15,066,32,31,61,074,38,32,36,189,26,,,,*4A
$GLGSV,3,1
,12,74,84,040,36,82,03,321,,66,07,329,,66,07,329,22*63
$GLGSV,3,2,12,82,18,011,32,73,29,049,29,75,39,231,32,65,55,306,42*65
$GLGSV,3,3,12,83,10,068,19,81,04,324,,71,09,158,,72,57,183,29*67
$GPGLL,5627.46335,N,08457.06660,E,053742.000,A*3A
$GPRMC,053743
.000,A,5627.46634,N,08457.06673,E,12.3,3.0,300414,,,A*56
$GPGGA,053743.000,5627.46634,N,08457.06673,E,1,15,0.7,0119.6,M,-33.9,M,,*4D
$GPVTG,3.0,T,,M,12.3,N,22.8,K,A*06
$GNGSA,A,3,25,20,16,04,31,13,29,23,32,,,,1.3,0.7,1.1*24
$GNGSA,A,3,82,65,72,73,75,74
,,,,,,,1.3,0.7,1.1*20
$GPGSV,3,1,11,02,02,003,,04,13,325,29,13,13,290,25,14,03,113,*78
$GPGSV,3,2,11,16,23,176,20,20,48,241,26,23,47,287,41,25,16,038,25*77
$GPGSV,3,3,11,29,15,066,31,31,61,074,39,32,36,189,26,,,,*48
$GLGSV,3,1,12,74,84,040,36,82,03,321
,,66,07,329,,66,07,329,22*63
$GLGSV,3,2,12,82,18,011,32,73,29,049,27,75,39,231,33,65,55,306,42*6A
$GLGSV,3,3,12,83,10,068,19,81,04,324,,71,09,158,,72,57,183,29*67
$GPGLL,5627.46634,N,08457.06673,E,053743.000,A*3D
$GPRMC,053745.000,A,5627.47286,N,08457.
06696,E,11.4,359.9,300414,,,A*56
$GPGGA,053745.000,5627.47286,N,08457.06696,E,1,15,0.7,0120.4,M,-33.9,M,,*44
$GPVTG,359.9,T,,M,11.4,N,21.1,K,A*0D
$GNGSA,A,3,25,20,16,04,31,13,29,23,32,,,,1.2,0.7,1.0*24
$GNGSA,A,3,71,82,65,72,75,74,,,,,,,1.2,0.7,1.0*22

$GPGSV,3,1,11,02,02,003,22,04,13,325,26,13,13,290,30,14,03,113,*73
$GPGSV,3,2,11,16,23,176,25,20,48,241,31,23,47,287,42,25,16,038,35*76
$GPGSV,3,3,11,29,15,066,30,31,61,074,39,32,36,189,25,,,,*4A
$GLGSV,3,1,12,74,84,040,36,82,03,321,,66,07,329,,66,07,3
29,23*62
$GLGSV,3,2,12,82,18,011,32,73,29,049,,75,39,231,32,65,55,306,43*6F
$GLGSV,3,3,12,83,10,068,20,81,04,324,,71,09,158,29,72,57,183,29*66
$GPGLL,5627.47286,N,08457.06696,E,053745.000,A*3C
$GPRMC,053746.000,A,5627.47573,N,08457.06642,E,11.2,359.1,3
00414,,,A*5F
$GPGGA,053746.000,5627.47573,N,08457.06642,E,1,15,0.7,0120.8,M,-33.9,M,,*4F
$GPVTG,359.1,T,,M,11.2,N,20.7,K,A*04
$GNGSA,A,3,25,20,16,04,31,13,29,23,32,,,,1.3,0.7,1.1*24
$GNGSA,A,3,82,65,72,73,75,74,,,,,,,1.3,0.7,1.1*20
$GPGSV,3,1,11,02,02
,002,22,04,13,325,27,13,13,290,28,14,03,113,*7A
$GPGSV,3,2,11,16,23,176,25,20,48,241,30,23,47,287,42,25,16,038,34*76
$GPGSV,3,3,11,29,15,066,30,31,61,074,39,32,36,189,28,,,,*47
$GLGSV,3,1,12,74,84,040,37,82,03,321,,66,07,329,,66,07,329,23*63
$GLGSV,3,2
,12,82,18,011,33,73,29,049,24,75,39,231,33,65,55,306,43*69
$GLGSV,3,3,12,83,10,068,20,81,04,324,,71,09,158,,72,57,183,30*65
$GPGLL,5627.47573,N,08457.06642,E,053746.000,A*3B
$GPRMC,053748.000,A,5627.48078,N,08457.06485,E,9.6,0.7,300414,,,A*6D
$GPGGA,05
3748.000,5627.48078,N,08457.06485,E,1,15,0.7,0121.2,M,-33.9,M,,*42
$GPVTG,0.7,T,,M,9.6,N,17.9,K,A*3A
$GNGSA,A,3,25,20,16,04,31,13,29,23,32,,,,1.3,0.7,1.1*24
$GNGSA,A,3,82,65,72,73,75,74,,,,,,,1.3,0.7,1.1*20
$GPGSV,3,1,11,02,02,002,23,04,13,325,26,13,13
,290,24,14,03,113,*76
$GPGSV,3,2,11,16,23,176,24,20,48,241,29,23,47,287,43,25,16,038,31*7B
$GPGSV,3,3,11,29,15,066,31,31,61,074,38,32,36,189,29,,,,*46
$GLGSV,3,1,12,74,84,040,38,82,03,321,,66,07,329,,66,07,329,23*6C
$GLGSV,3,2,12,82,18,011,31,73,29,049
,35,75,39,231,35,65,55,306,43*6D
$GLGSV,3,3,12,83,10,068,26,81,04,324,,71,09,158,,72,57,183,31*62
$GPGLL,5627.48078,N,08457.06485,E,053748.000,A*3D
$GPRMC,053750.000,A,5627.48505,N,08457.06557,E,6.8,358.7,300414,,,A*6A
$GPGGA,053750.000,5627.48505,N,08
457.06557,E,1,15,0.7,0121.7,M,-33.9,M,,*4F
$GPVTG,358.7,T,,M,6.8,N,12.6,K,A*3F
$GNGSA,A,3,25,20,16,04,31,13,29,23,32,,,,1.3,0.7,1.1*24
$GNGSA,A,3,82,65,72,73,75,74,,,,,,,1.3,0.7,1.1*20
$GPGSV,3,1,11,02,02,002,23,04,13,324,27,13,13,290,23,14,03,113,*71

$GPGSV,3,2,11,16,23,176,24,20,48,241,28,23,47,287,44,25,16,038,31*7D
$GPGSV,3,3,11,29,15,066,30,31,61,074,38,32,36,189,29,,,,*47
$GLGSV,3,1,12,74,84,040,37,82,03,321,,66,07,329,,66,07,329,26*66
$GLGSV,3,2,12,82,18,011,31,73,29,049,38,75,39,231,36,65,55
,306,43*63
$GLGSV,3,3,12,83,10,068,27,81,04,324,,71,09,158,,72,57,183,31*63
$GPGLL,5627.48505,N,08457.06557,E,053750.000,A*35
$GPRMC,053751.000,A,5627.48674,N,08457.06477,E,5.4,1.0,300414,,,A*6A
$GPGGA,053751.000,5627.48674,N,08457.06477,E,1,16,0.6,012
1.2,M,-33.9,M,,*4F
$GPVTG,1.0,T,,M,5.4,N,10.0,K,A*3C
$GNGSA,A,3,25,20,16,04,31,13,29,23,32,,,,1.2,0.6,1.0*25
$GNGSA,A,3,71,82,65,72,73,75,74,,,,,,1.2,0.6,1.0*27
$GPGSV,3,1,11,02,02,002,23,04,13,324,30,13,13,290,23,14,03,113,*77
$GPGSV,3,2,11,16,23,176
,25,20,48,241,28,23,47,287,44,25,16,038,31*7C
$GPGSV,3,3,11,29,15,066,35,31,61,074,38,32,36,189,29,,,,*42
$GLGSV,3,1,12,74,84,040,38,82,03,321,,66,07,329,,66,07,329,26*69
$GLGSV,3,2,12,82,18,011,31,73,29,049,38,75,39,231,36,65,55,306,43*63
$GLGSV,3,3,1
2,83,10,068,29,81,04,324,,71,09,158,22,72,57,183,32*6E
$GPGLL,5627.48674,N,08457.06477,E,053751.000,A*32
$GPRMC,053753.000,A,5627.48948,N,08457.06385,E,2.6,356.4,300414,,,A*62
$GPGGA,053753.000,5627.48948,N,08457.06385,E,1,16,0.6,0119.7,M,-33.9,M,,*49

$GPVTG,356.4,T,,M,2.6,N,4.9,K,A*00
$GNGSA,A,3,25,20,16,04,31,13,29,23,32,,,,1.2,0.6,1.0*25
$GNGSA,A,3,71,82,65,72,73,75,74,,,,,,1.2,0.6,1.0*27
$GPGSV,3,1,11,02,02,002,23,04,13,324,26,13,13,290,22,14,03,113,*71
$GPGSV,3,2,11,16,23,176,25,20,48,241,30,23
,47,287,44,25,16,038,30*74
$GPGSV,3,3,11,29,15,066,33,31,61,074,39,32,36,189,32,,,,*4F
$GLGSV,3,1,12,74,84,040,38,82,03,321,,66,07,329,,66,07,329,25*6A
$GLGSV,3,2,12,82,18,011,31,73,29,049,38,75,39,231,36,65,55,306,42*62
$GLGSV,3,3,12,83,10,068,28,81,0
4,324,,71,09,158,23,72,57,183,32*6E
$GPGLL,5627.48948,N,08457.06385,E,053753.000,A*3A
$GPRMC,053754.000,A,5627.49016,N,08457.06386,E,0.2,0.0,300414,,,A*67
$GPGGA,053754.000,5627.49016,N,08457.06386,E,1,16,0.6,0118.6,M,-33.9,M,,*4E
$GPVTG,0.0,T,,M,0.2,N
,0.4,K,A*0B
$GNGSA,A,3,25,20,16,04,31,13,29,23,32,,,,1.2,0.6,1.0*25
$GNGSA,A,3,71,82,65,72,73,75,74,,,,,,1.2,0.6,1.0*27
$GPGSV,3,1,11,02,02,002,24,04,13,324,27,13,13,290,21,14,03,113,*74
$GPGSV,3,2,11,16,23,176,25,20,48,241,31,23,47,287,44,25,16,038,29
*7D
$GPGSV,3,3,11,29,15,066,33,31,61,074,40,32,36,189,33,,,,*40
$GLGSV,3,1,12,74,84,040,38,82,03,321,,66,07,329,,66,07,329,25*6A
$GLGSV,3,2,12,82,18,011,32,73,29,049,37,75,39,231,36,65,55,306,42*6E
$GLGSV,3,3,12,83,10,068,27,81,04,324,,71,09,158,23,72,
57,183,32*61
$GPGLL,5627.49016,N,08457.06386,E,053754.000,A*3D
$GPRMC,053756.000,A,5627.49016,N,08457.06386,E,0.1,0.0,300414,,,A*66
$GPGGA,053756.000,5627.49016,N,08457.06386,E,1,16,0.6,0118.6,M,-33.9,M,,*4C
$GPVTG,0.0,T,,M,0.1,N,0.2,K,A*0E
$GNGSA,A,3
,25,20,16,04,31,13,29,23,32,,,,1.2,0.6,1.0*25
$GNGSA,A,3,71,82,65,72,73,75,74,,,,,,1.2,0.6,1.0*27
$GPGSV,3,1,11,02,02,002,28,04,13,324,27,13,13,290,16,14,03,113,*7C
$GPGSV,3,2,11,16,23,176,23,20,48,241,31,23,47,287,44,25,16,038,30*73
$GPGSV,3,3,11,29,1
5,066,30,31,61,074,40,32,36,189,33,,,,*43
$GLGSV,3,1,12,74,84,040,37,82,03,321,,66,07,329,,66,07,329,26*66
$GLGSV,3,2,12,82,18,011,35,73,29,049,36,75,39,231,37,65,55,306,42*69
$GLGSV,3,3,12,83,10,068,27,81,04,324,,71,09,158,23,72,57,183,33*60
$GPGLL,56
27.49016,N,08457.06386,E,053756.000,A*3F
$GPRMC,053757.000,A,5627.49016,N,08457.06386,E,0.1,0.0,300414,,,A*67
$GPGGA,053757.000,5627.49016,N,08457.06386,E,1,15,0.7,0118.6,M,-33.9,M,,*4F
$GPVTG,0.0,T,,M,0.1,N,0.2,K,A*0E
$GNGSA,A,3,25,20,16,04,31,29,23,3
2,,,,,1.3,0.7,1.1*26
$GNGSA,A,3,71,82,65,72,73,75,74,,,,,,1.3,0.7,1.1*26
$GPGSV,3,1,11,02,02,002,28,04,13,324,27,13,13,290,14,14,03,113,*7E
$GPGSV,3,2,11,16,23,176,18,20,48,241,31,23,47,287,44,25,16,038,30*7B
$GPGSV,3,3,11,29,15,066,31,31,61,074,41,32,
36,189,33,,,,*43
$GLGSV,3,1,12,74,84,040,37,82,03,321,,66,07,329,,66,07,329,26*66
$GLGSV,3,2,12,82,18,011,34,73,29,049,35,75,39,231,37,65,55,306,42*6B
$GLGSV,3,3,12,83,10,068,27,81,04,324,,71,09,158,23,72,57,183,33*60
$GPGLL,5627.49016,N,08457.06386,E,
053757.000,A*3E
$GPRMC,053759.000,A,5627.49016,N,08457.06386,E,0.2,184.2,300414,,,A*65
$GPGGA,053759.000,5627.49016,N,08457.06386,E,1,15,0.7,0118.6,M,-33.9,M,,*41
$GPVTG,184.2,T,,M,0.2,N,0.5,K,A*05
$GNGSA,A,3,25,20,16,04,31,29,23,32,,,,,1.3,0.7,1.1*26

$GNGSA,A,3,71,82,65,72,73,75,74,,,,,,1.3,0.7,1.1*26
$GPGSV,3,1,11,02,02,002,28,04,13,324,27,13,13,290,14,14,03,113,*7E
$GPGSV,3,2,11,16,23,176,19,20,48,241,30,23,47,287,44,25,16,038,28*72
$GPGSV,3,3,11,29,15,066,30,31,61,074,41,32,36,189,33,,,,*42
$GL
GSV,3,1,12,74,84,040,36,82,03,321,,66,07,329,,66,07,329,26*67
$GLGSV,3,2,12,82,18,011,34,73,29,049,34,75,39,231,38,65,55,306,42*65
$GLGSV,3,3,12,83,10,068,27,81,04,324,,71,09,158,24,72,57,183,33*67
$GPGLL,5627.49016,N,08457.06386,E,053759.000,A*30
$GPR
MC,053800.000,A,5627.49016,N,08457.06386,E,0.1,0.0,300414,,,A*6A
$GPGGA,053800.000,5627.49016,N,08457.06386,E,1,15,0.7,0118.6,M,-33.9,M,,*42
$GPVTG,0.0,T,,M,0.1,N,0.1,K,A*0D
$GNGSA,A,3,25,20,16,04,31,29,23,32,,,,,1.3,0.7,1.1*26
$GNGSA,A,3,71,82,65,72,7
3,75,74,,,,,,1.3,0.7,1.1*26
$GPGSV,3,1,11,02,02,002,28,04,13,324,26,13,13,290,14,14,03,113,*7F
$GPGSV,3,2,11,16,23,176,19,20,48,241,30,23,47,287,44,25,16,038,26*7C
$GPGSV,3,3,11,29,15,066,29,31,61,074,41,32,36,189,33,,,,*4A
$GLGSV,3,1,12,74,84,040,36,8
2,03,321,,66,07,329,,66,07,329,25*64
$GLGSV,3,2,12,82,18,011,34,73,29,049,34,75,39,231,38,65,55,306,42*65
$GLGSV,3,3,12,83,10,068,27,81,04,324,,71,09,158,24,72,57,183,33*67
$GPGLL,5627.49016,N,08457.06386,E,053800.000,A*33
$GPRMC,053802.000,A,5627.4901
6,N,08457.06386,E,0.0,0.0,300414,,,A*69
$GPGGA,053802.000,5627.49016,N,08457.06386,E,1,15,0.7,0118.6,M,-33.9,M,,*40
$GPVTG,0.0,T,,M,0.0,N,0.0,K,A*0D
$GNGSA,A,3,25,20,16,04,31,29,23,32,,,,,1.3,0.7,1.1*26
$GNGSA,A,3,71,82,65,72,73,75,74,,,,,,1.3,0.7,1.1*
26
$GPGSV,3,1,11,02,02,002,27,04,13,324,25,13,13,290,14,14,03,113,*73
$GPGSV,3,2,11,16,23,176,19,20,48,241,30,23,47,287,43,25,16,038,24*79
$GPGSV,3,3,11,29,15,066,24,31,61,074,41,32,36,189,33,,,,*47
$GLGSV,3,1,12,74,84,040,36,82,03,321,,66,07,329,,66,0
7,329,25*64
$GLGSV,3,2,12,82,18,011,33,73,29,049,34,75,39,231,38,65,55,306,41*61
$GLGSV,3,3,12,83,10,068,27,81,04,324,,71,09,158,24,72,57,183,32*66
$GPGLL,5627.49016,N,08457.06386,E,053802.000,A*31
$GPRMC,053804.000,A,5627.49016,N,08457.06386,E,0.0,0.0
,300414,,,A*6F
$GPGGA,053804.000,5627.49016,N,08457.06386,E,1,15,0.7,0118.6,M,-33.9,M,,*46
$GPVTG,0.0,T,,M,0.0,N,0.0,K,A*0D
$GNGSA,A,3,25,20,16,04,31,29,23,32,,,,,1.3,0.7,1.1*26
$GNGSA,A,3,71,82,65,72,73,75,74,,,,,,1.3,0.7,1.1*26
$GPGSV,3,1,11,02,02,0
02,27,04,13,324,25,13,13,290,13,14,03,113,*74
$GPGSV,3,2,11,16,23,176,18,20,48,241,29,23,47,287,42,25,16,038,22*77
$GPGSV,3,3,11,29,15,066,25,31,61,074,40,32,36,189,33,,,,*47
$GLGSV,3,1,12,74,84,040,36,82,03,321,,66,07,329,,66,07,329,24*65
$GLGSV,3,2,1
2,82,18,011,32,73,29,049,34,75,39,231,37,65,55,306,41*6F
$GLGSV,3,3,12,83,10,068,27,81,04,324,,71,08,158,23,72,57,183,32*60
$GPGLL,5627.49016,N,08457.06386,E,053804.000,A*37
$GPRMC,053805.000,A,5627.49016,N,08457.06386,E,0.0,0.0,300414,,,A*6E
$GPGGA,05
3805.000,5627.49016,N,08457.06386,E,1,15,0.7,0118.6,M,-33.9,M,,*47
$GPVTG,0.0,T,,M,0.0,N,0.0,K,A*0D
$GNGSA,A,3,25,20,16,04,31,29,23,32,,,,,1.3,0.7,1.1*26
$GNGSA,A,3,71,82,65,72,73,75,74,,,,,,1.3,0.7,1.1*26
$GPGSV,3,1,11,02,02,002,27,04,13,324,24,13,13,
290,13,14,03,113,*75
$GPGSV,3,2,11,16,23,176,20,20,48,241,27,23,47,287,43,25,16,038,22*73
$GPGSV,3,3,11,29,15,066,25,31,61,074,40,32,36,189,32,,,,*46
$GLGSV,3,1,12,74,84,040,36,82,03,321,,66,07,329,,66,07,329,24*65
$GLGSV,3,2,12,82,18,011,32,73,29,049,
33,75,39,231,37,65,55,306,42*6B
$GLGSV,3,3,12,83,10,068,28,81,04,324,,71,08,158,23,72,56,183,33*6F
$GPGLL,5627.49016,N,08457.06386,E,053805.000,A*36
$GPRMC,053807.000,A,5627.49016,N,08457.06386,E,0.1,0.0,300414,,,A*6D
$GPGGA,053807.000,5627.49016,N,084
57.06386,E,1,15,0.7,0118.6,M,-33.9,M,,*45
$GPVTG,0.0,T,,M,0.1,N,0.2,K,A*0E
$GNGSA,A,3,25,20,16,04,31,29,23,32,,,,,1.3,0.7,1.1*26
$GNGSA,A,3,71,82,65,72,73,75,74,,,,,,1.3,0.7,1.1*26
$GPGSV,3,1,11,02,02,002,26,04,13,324,23,13,13,290,13,14,03,113,*73
$GP
GSV,3,2,11,16,23,176,21,20,48,241,23,23,47,287,42,25,16,038,21*74
$GPGSV,3,3,11,29,15,066,28,31,61,074,40,32,36,189,33,,,,*4A
$GLGSV,3,1,12,74,84,040,36,82,03,321,,66,07,329,,66,07,329,24*65
$GLGSV,3,2,12,82,18,011,30,73,29,049,33,75,39,231,36,65,55,306
,41*6B
$GLGSV,3,3,12,83,10,068,27,81,04,324,,71,08,158,22,72,56,183,33*61
$GPGLL,5627.49016,N,08457.06386,E,053807.000,A*34
$GPRMC,053808.000,A,5627.49016,N,08457.06386,E,0.0,0.0,300414,,,A*63
$GPGGA,053808.000,5627.49016,N,08457.06386,E,1,15,0.7,0118.
6,M,-33.9,M,,*4A
$GPVTG,0.0,T,,M,0.0,N,0.1,K,A*0C
$GNGSA,A,3,25,20,16,04,31,29,23,32,,,,,1.3,0.7,1.1*26
$GNGSA,A,3,71,82,65,72,73,75,74,,,,,,1.3,0.7,1.1*26
$GPGSV,3,1,11,02,02,002,26,04,13,324,22,13,14,290,13,14,03,113,*75
$GPGSV,3,2,11,16,23,176,21,2
0,48,241,25,23,47,287,43,25,16,038,21*73
$GPGSV,3,3,11,29,15,066,29,31,61,074,40,32,36,189,34,,,,*4C
$GLGSV,3,1,12,74,83,040,36,82,03,321,,66,07,329,,66,07,329,24*62
$GLGSV,3,2,12,82,18,011,30,73,29,049,34,75,39,231,37,65,55,306,42*6E
$GLGSV,3,3,12,83,
10,068,28,81,04,324,,71,08,158,22,72,56,183,34*69
$GPGLL,5627.49016,N,08457.06386,E,053808.000,A*3B
$GPRMC,053810.000,A,5627.49016,N,08457.06386,E,0.0,0.0,300414,,,A*6A
$GPGGA,053810.000,5627.49016,N,08457.06386,E,1,15,0.7,0118.6,M,-33.9,M,,*43
$GPVTG,
0.0,T,,M,0.0,N,0.1,K,A*0C
$GNGSA,A,3,25,20,16,04,31,29,23,32,,,,,1.3,0.7,1.0*27
$GNGSA,A,3,71,82,65,72,73,75,74,,,,,,1.3,0.7,1.0*27
$GPGSV,3,1,11,02,02,002,26,04,13,324,19,13,14,290,08,14,03,113,*77
$GPGSV,3,2,11,16,23,176,21,20,48,241,27,23,47,287,43,
25,16,038,21*71
$GPGSV,3,3,11,29,15,066,29,31,61,074,41,32,36,189,34,,,,*4D
$GLGSV,3,1,12,74,83,040,35,82,02,321,,66,07,329,,66,07,329,27*63
$GLGSV,3,2,12,82,18,011,32,73,29,049,34,75,39,231,36,65,55,306,42*6D
$GLGSV,3,3,12,83,10,068,27,81,04,324,,71,0
8,158,26,72,56,183,34*62
$GPGLL,5627.49016,N,08457.06386,E,053810.000,A*32
$GPRMC,053811.000,A,5627.49016,N,08457.06386,E,0.1,0.0,300414,,,A*6A
$GPGGA,053811.000,5627.49016,N,08457.06386,E,1,15,0.7,0118.6,M,-33.9,M,,*42
$GPVTG,0.0,T,,M,0.1,N,0.1,K,A*0D

$GNGSA,A,3,25,20,16,04,31,29,23,32,,,,,1.3,0.7,1.0*27
$GNGSA,A,3,71,82,65,72,73,75,74,,,,,,1.3,0.7,1.0*27
$GPGSV,3,1,11,02,02,002,26,04,13,324,19,13,14,290,,14,03,113,*7F
$GPGSV,3,2,11,16,23,176,21,20,48,241,28,23,47,287,43,25,16,038,20*7F
$GPGSV,3,3
,11,29,15,066,30,31,61,074,41,32,36,189,34,,,,*45
$GLGSV,3,1,12,74,83,040,35,82,02,321,,66,08,329,,66,07,329,29*62
$GLGSV,3,2,12,82,18,011,34,73,29,049,34,75,39,231,36,65,55,306,42*6B
$GLGSV,3,3,12,83,10,068,28,81,04,324,,71,08,158,27,72,56,183,34*6C
$
GPGLL,5627.49016,N,08457.06386,E,053811.000,A*33
$GPRMC,053813.000,A,5627.49016,N,08457.06386,E,0.0,0.0,300414,,,A*69
$GPGGA,053813.000,5627.49016,N,08457.06386,E,1,15,0.7,0118.6,M,-33.9,M,,*40
$GPVTG,0.0,T,,M,0.0,N,0.1,K,A*0C
$GNGSA,A,3,25,20,16,04,31
,29,23,32,,,,,1.3,0.7,1.0*27
$GNGSA,A,3,71,82,65,72,73,75,74,,,,,,1.3,0.7,1.0*27
$GPGSV,3,1,11,02,02,002,26,04,13,324,19,13,14,290,,14,03,113,*7F
$GPGSV,3,2,11,16,23,176,23,20,48,241,29,23,47,287,44,25,16,038,21*7A
$GPGSV,3,3,11,29,15,066,31,31,61,074,
41,32,36,189,34,,,,*44
$GLGSV,3,1,12,74,83,040,35,82,02,321,,66,08,329,,66,08,329,30*65
$GLGSV,3,2,12,82,18,011,35,73,29,049,34,75,39,231,36,65,55,306,42*6A
$GLGSV,3,3,12,83,10,068,29,81,04,324,,71,08,158,27,72,56,183,35*6C
$GPGLL,5627.49016,N,08457.06
386,E,053813.000,A*31
$GPRMC,053814.000,A,5627.49016,N,08457.06386,E,0.1,0.0,300414,,,A*6F
$GPGGA,053814.000,5627.49016,N,08457.06386,E,1,15,0.7,0118.6,M,-33.9,M,,*47
$GPVTG,0.0,T,,M,0.1,N,0.2,K,A*0E
$GNGSA,A,3,25,20,16,04,31,29,23,32,,,,,1.3,0.7,1.0*2
7
$GNGSA,A,3,71,82,65,72,73,75,74,,,,,,1.3,0.7,1.0*27
$GPGSV,3,1,11,02,02,002,25,04,13,324,19,13,14,290,,14,03,113,*7C
$GPGSV,3,2,11,16,23,176,25,20,48,241,30,23,47,287,44,25,16,038,21*74
$GPGSV,3,3,11,29,15,066,32,31,61,074,41,32,36,189,34,,,,*47
$GL
GSV,3,1,12,74,83,040,35,82,02,321,,66,08,329,,66,08,329,30*65
$GLGSV,3,2,12,82,18,011,35,73,29,049,34,75,39,231,36,65,55,306,43*6B
$GLGSV,3,3,12,83,10,068,29,81,04,324,,71,08,158,28,72,56,183,35*63
$GPGLL,5627.49016,N,08457.06386,E,053814.000,A*36
$GPR
MC,053816.000,A,5627.49016,N,08457.06386,E,0.1,0.0,300414,,,A*6D
$GPGGA,053816.000,5627.49016,N,08457.06386,E,1,15,0.7,0118.6,M,-33.9,M,,*45
$GPVTG,0.0,T,,M,0.1,N,0.1,K,A*0D
$GNGSA,A,3,25,20,16,04,31,29,23,32,,,,,1.3,0.7,1.0*27
$GNGSA,A,3,71,82,65,72,7
3,75,74,,,,,,1.3,0.7,1.0*27
$GPGSV,3,1,11,02,02,002,25,04,13,324,20,13,14,290,,14,03,113,*76
$GPGSV,3,2,11,16,23,176,25,20,48,241,30,23,47,287,44,25,16,038,21*74
$GPGSV,3,3,11,29,15,066,34,31,61,074,40,32,36,189,31,,,,*45
$GLGSV,3,1,12,74,83,040,34,82,
02,321,,66,08,329,,66,08,329,*67
$GLGSV,3,2,12,82,18,011,38,73,29,049,35,75,39,231,35,65,55,306,43*64
$GLGSV,3,3,12,83,10,068,30,81,04,324,,71,08,158,29,72,56,183,36*69
$GPGLL,5627.49016,N,08457.06386,E,053816.000,A*34
$GPRMC,053818.000,A,5627.49016,N,
08457.06386,E,0.2,0.0,300414,,,A*60
$GPGGA,053818.000,5627.49016,N,08457.06386,E,1,15,0.7,0118.6,M,-33.9,M,,*4B
$GPVTG,0.0,T,,M,0.2,N,0.3,K,A*0C
$GNGSA,A,3,25,20,16,04,31,29,23,32,,,,,1.3,0.7,1.0*27
$GNGSA,A,3,71,82,65,72,73,75,74,,,,,,1.3,0.7,1.0*27

$GPGSV,3,1,11,02,02,002,24,04,13,324,21,13,14,290,,14,03,113,*76
$GPGSV,3,2,11,16,23,176,25,20,48,241,29,23,47,287,44,25,16,038,24*79
$GPGSV,3,3,11,29,15,066,36,31,61,074,40,32,36,189,30,,,,*46
$GLGSV,3,1,12,74,83,040,33,82,02,321,,66,08,329,,66,08,329,
23*61
$GLGSV,3,2,12,82,18,011,38,73,28,049,34,75,39,231,34,65,55,306,43*65
$GLGSV,3,3,12,83,10,068,31,81,04,324,,71,08,158,29,72,56,183,36*68
$GPGLL,5627.49016,N,08457.06386,E,053818.000,A*3A
$GPRMC,053819.000,A,5627.49016,N,08457.06386,E,0.1,0.0,30041
4,,,A*62
$GPGGA,053819.000,5627.49016,N,08457.06386,E,1,15,0.7,0118.6,M,-33.9,M,,*4A
$GPVTG,0.0,T,,M,0.1,N,0.3,K,A*0F
$GNGSA,A,3,25,20,16,04,31,29,23,32,,,,,1.3,0.7,1.0*27
$GNGSA,A,3,71,82,65,72,73,75,74,,,,,,1.3,0.7,1.0*27
$GPGSV,3,1,11,02,02,002,24,
04,13,324,23,13,14,290,,14,03,113,*74
$GPGSV,3,2,11,16,23,176,25,20,48,241,29,23,47,287,44,25,16,038,24*79
$GPGSV,3,3,11,29,15,066,36,31,61,074,39,32,36,189,30,,,,*48
$GLGSV,3,1,12,74,83,040,33,82,02,321,,66,08,329,,66,08,329,23*61
$GLGSV,3,2,12,82,18,
011,38,73,28,049,34,75,39,231,34,65,55,306,43*65
$GLGSV,3,3,12,83,10,068,31,81,04,324,,71,08,158,30,72,56,183,36*60
$GPGLL,5627.49016,N,08457.06386,E,053819.000,A*3B
$GPRMC,053821.000,A,5627.49016,N,08457.06386,E,0.1,0.0,300414,,,A*69
$GPGGA,053821.000
,5627.49016,N,08457.06386,E,1,15,0.7,0118.6,M,-33.9,M,,*41
$GPVTG,0.0,T,,M,0.1,N,0.2,K,A*0E
$GNGSA,A,3,25,20,16,04,31,29,23,32,,,,,1.3,0.7,1.0*27
$GNGSA,A,3,71,82,65,72,73,75,74,,,,,,1.3,0.7,1.0*27
$GPGSV,3,1,11,02,02,002,24,04,13,324,25,13,14,290,,14,
03,113,*72
$GPGSV,3,2,11,16,23,176,24,20,48,241,29,23,47,287,43,25,16,038,24*7F
$GPGSV,3,3,11,29,15,066,36,31,61,074,39,32,36,189,29,,,,*40
$GLGSV,3,1,12,74,83,040,33,82,02,321,,66,08,329,,66,08,329,23*61
$GLGSV,3,2,12,82,18,011,39,73,28,049,33,75,39,2
31,34,65,55,306,43*63
$GLGSV,3,3,12,83,10,068,31,81,04,324,,71,08,158,31,72,56,183,35*62
$GPGLL,5627.49016,N,08457.06386,E,053821.000,A*30
$GPRMC,053822.000,A,5627.49016,N,08457.06386,E,0.1,0.0,300414,,,A*6A
$GPGGA,053822.000,5627.49016,N,08457.06386,E
,1,15,0.7,0118.6,M,-33.9,M,,*42
$GPVTG,0.0,T,,M,0.1,N,0.1,K,A*0D
$GNGSA,A,3,25,20,16,04,31,29,23,32,,,,,1.3,0.7,1.0*27
$GNGSA,A,3,71,82,65,72,73,75,74,,,,,,1.3,0.7,1.0*27
$GPGSV,3,1,11,02,02,002,23,04,13,324,26,13,14,290,,14,03,113,*76
$GPGSV,3,2,11,1
6,23,176,24,20,48,241,29,23,47,287,43,25,16,038,24*7F
$GPGSV,3,3,11,29,15,066,36,31,61,074,39,32,36,189,28,,,,*41
$GLGSV,3,1,12,74,83,040,33,82,02,321,,66,08,329,,66,08,329,23*61
$GLGSV,3,2,12,82,18,011,38,73,28,049,33,75,39,231,33,65,55,306,43*65
$GLG
SV,3,3,12,83,10,068,30,81,04,324,,71,08,158,31,72,56,183,35*63
$GPGLL,5627.49016,N,08457.06386,E,053822.000,A*33
$GPRMC,053824.000,A,5627.49016,N,08457.06386,E,0.2,357.1,300414,,,A*6F
$GPGGA,053824.000,5627.49016,N,08457.06386,E,1,15,0.7,0118.6,M,-33.9,
M,,*44
$GPVTG,357.1,T,,M,0.2,N,0.4,K,A*0B
$GNGSA,A,3,25,20,16,04,31,29,23,32,,,,,1.3,0.7,1.0*27
$GNGSA,A,3,71,82,65,72,73,75,74,,,,,,1.3,0.7,1.0*27
$GPGSV,3,1,11,02,02,002,22,04,13,324,26,13,14,290,,14,03,113,*77
$GPGSV,3,2,11,16,23,176,24,20,48,241,2
5,23,47,287,43,25,16,038,24*73
$GPGSV,3,3,11,29,15,066,36,31,61,074,38,32,36,189,28,,,,*40
$GLGSV,3,1,12,74,83,040,33,82,02,321,,66,08,329,,66,08,329,22*60
$GLGSV,3,2,12,82,18,011,38,73,28,049,33,75,39,231,33,65,55,306,43*65
$GLGSV,3,3,12,83,10,068,29,
81,04,324,,71,08,158,31,72,56,183,35*6B
$GPGLL,5627.49016,N,08457.06386,E,053824.000,A*35
$GPRMC,053825.000,A,5627.49016,N,08457.06386,E,0.1,0.0,300414,,,A*6D
$GPGGA,053825.000,5627.49016,N,08457.06386,E,1,15,0.7,0118.6,M,-33.9,M,,*45
$GPVTG,0.0,T,,M,0
.1,N,0.2,K,A*0E
$GNGSA,A,3,25,20,16,04,31,29,23,32,,,,,1.3,0.7,1.0*27
$GNGSA,A,3,71,82,65,72,73,75,74,,,,,,1.3,0.7,1.0*27
$GPGSV,3,1,11,02,02,002,22,04,13,324,26,13,14,290,,14,03,113,*77
$GPGSV,3,2,11,16,23,176,24,20,48,241,25,23,47,287,43,25,16,038,24
*73
$GPGSV,3,3,11,29,15,066,36,31,61,074,38,32,36,189,28,,,,*40
$GLGSV,3,1,12,74,83,040,33,82,02,321,,66,08,329,,66,08,329,*60
$GLGSV,3,2,12,82,18,011,39,73,28,049,33,75,39,231,33,65,55,306,43*64
$GLGSV,3,3,12,83,10,068,29,81,04,324,,71,08,158,32,72,56
,183,34*69
$GPGLL,5627.49016,N,08457.06386,E,053825.000,A*34
$GPRMC,053827.000,A,5627.49016,N,08457.06386,E,0.1,0.0,300414,,,A*6F
$GPGGA,053827.000,5627.49016,N,08457.06386,E,1,15,0.7,0118.6,M,-33.9,M,,*47
$GPVTG,0.0,T,,M,0.1,N,0.3,K,A*0F
$GNGSA,A,3,2
5,20,16,04,31,29,23,32,,,,,1.3,0.7,1.0*27
$GNGSA,A,3,71,82,65,72,73,75,74,,,,,,1.3,0.7,1.0*27
$GPGSV,3,1,11,02,02,002,19,04,13,324,25,13,14,290,,14,03,113,*7C
$GPGSV,3,2,11,16,23,176,24,20,48,241,24,23,47,287,43,25,16,038,24*72
$GPGSV,3,3,11,29,15,066,
35,31,61,074,38,32,36,189,28,,,,*43
$GLGSV,3,1,12,74,83,040,33,82,02,321,,66,08,329,,66,08,329,*60
$GLGSV,3,2,12,82,18,011,38,73,28,049,33,75,39,231,33,65,55,306,43*65
$GLGSV,3,3,12,83,10,068,29,81,04,324,,71,08,158,32,72,56,183,34*69
$GPGLL,5627.49016
,N,08457.06386,E,053827.000,A*36
$GPRMC,053828.000,A,5627.49016,N,08457.06386,E,0.1,0.0,300414,,,A*60
$GPGGA,053828.000,5627.49016,N,08457.06386,E,1,15,0.7,0118.6,M,-33.9,M,,*48
$GPVTG,0.0,T,,M,0.1,N,0.1,K,A*0D
$GNGSA,A,3,25,20,16,04,31,29,23,32,,,,,1.
3,0.7,1.0*27
$GNGSA,A,3,71,82,65,72,73,75,74,,,,,,1.3,0.7,1.0*27
$GPGSV,3,1,11,02,02,002,19,04,13,324,24,13,14,290,,14,03,113,*7D
$GPGSV,3,2,11,16,23,176,24,20,48,241,22,23,48,287,43,25,16,038,24*7B
$GPGSV,3,3,11,29,15,066,35,31,61,074,38,32,36,189,29,
,,,*42
$GLGSV,3,1,12,74,83,040,32,82,02,321,,66,08,329,,66,08,329,*61
$GLGSV,3,2,12,82,18,011,38,73,28,049,34,75,39,231,33,65,55,306,43*62
$GLGSV,3,3,12,83,10,068,30,81,04,324,,71,08,158,32,72,56,183,34*61
$GPGLL,5627.49016,N,08457.06386,E,053828.000,A
*39
$GPRMC,053830.000,A,5627.49016,N,08457.06386,E,0.1,0.0,300414,,,A*69
$GPGGA,053830.000,5627.49016,N,08457.06386,E,1,15,0.7,0118.6,M,-33.9,M,,*41
$GPVTG,0.0,T,,M,0.1,N,0.1,K,A*0D
$GNGSA,A,3,25,20,16,04,31,29,23,32,,,,,1.3,0.7,1.0*27
$GNGSA,A,3,71,8
2,65,72,73,75,74,,,,,,1.3,0.7,1.0*27
$GPGSV,3,1,11,02,02,002,18,04,13,324,24,13,14,290,,14,03,113,*7C
$GPGSV,3,2,11,16,23,176,24,20,48,241,21,23,48,287,44,25,16,038,24*7F
$GPGSV,3,3,11,29,15,066,35,31,61,074,38,32,36,189,29,,,,*42
$GLGSV,3,1,12,74,83,0
40,32,82,02,321,,66,08,329,,66,08,329,*61
$GLGSV,3,2,12,82,18,011,38,73,28,049,34,75,39,231,33,65,55,306,43*62
$GLGSV,3,3,12,83,10,068,30,81,03,324,,71,08,158,32,72,56,183,35*67
$GPGLL,5627.49016,N,08457.06386,E,053830.000,A*30
$GPRMC,053831.000,A,5627
.49016,N,08457.06386,E,0.1,0.0,300414,,,A*68
$GPGGA,053831.000,5627.49016,N,08457.06386,E,1,15,0.7,0118.6,M,-33.9,M,,*40
$GPVTG,0.0,T,,M,0.1,N,0.2,K,A*0E
$GNGSA,A,3,25,20,16,04,31,29,23,32,,,,,1.3,0.7,1.0*27
$GNGSA,A,3,71,82,65,72,73,75,74,,,,,,1.3,0.7
,1.0*27
$GPGSV,3,1,11,02,02,002,17,04,13,324,23,13,14,290,,14,03,113,*74
$GPGSV,3,2,11,16,23,176,24,20,48,241,21,23,48,287,44,25,15,038,24*7C
$GPGSV,3,3,11,29,15,066,35,31,61,074,38,32,36,189,29,,,,*42
$GLGSV,3,1,12,74,83,040,32,82,02,321,,66,08,329,,6
6,08,329,*61
$GLGSV,3,2,12,82,18,011,39,73,28,049,34,75,39,231,33,65,55,306,43*63
$GLGSV,3,3,12,83,10,068,30,81,03,324,,71,08,158,32,72,56,183,35*67
$GPGLL,5627.49016,N,08457.06386,E,053831.000,A*31
$GPRMC,053833.000,A,5627.49016,N,08457.06386,E,0.2,0.
0,300414,,,A*69
$GPGGA,053833.000,5627.49016,N,08457.06386,E,1,16,0.7,0118.6,M,-33.9,M,,*41
$GPVTG,0.0,T,,M,0.2,N,0.3,K,A*0C
$GNGSA,A,3,25,20,16,04,31,29,23,32,,,,,1.2,0.7,1.0*26
$GNGSA,A,3,71,82,65,72,73,75,83,74,,,,,1.2,0.7,1.0*2D
$GPGSV,3,1,11,02,0
2,002,13,04,13,324,21,13,14,290,,14,03,113,*72
$GPGSV,3,2,11,16,23,176,25,20,48,241,21,23,48,287,44,25,15,038,24*7D
$GPGSV,3,3,11,29,15,066,35,31,61,074,38,32,36,189,31,,,,*4B
$GLGSV,3,1,12,74,83,040,32,82,02,321,,66,08,329,,66,08,329,*61
$GLGSV,3,2,12
,82,18,011,38,73,28,049,35,75,39,231,34,65,55,306,43*64
$GLGSV,3,3,12,83,10,068,30,81,03,324,,71,08,158,32,72,56,183,34*66
$GPGLL,5627.49016,N,08457.06386,E,053833.000,A*33
$GPRMC,053834.000,A,5627.49087,N,08457.06389,E,0.1,0.0,300414,,,A*6A
$GPGGA,053
834.000,5627.49087,N,08457.06389,E,1,16,0.7,0120.5,M,-33.9,M,,*49
$GPVTG,0.0,T,,M,0.1,N,0.1,K,A*0D
$GNGSA,A,3,25,20,16,04,31,29,23,32,,,,,1.2,0.7,1.0*26
$GNGSA,A,3,71,82,65,72,73,75,83,74,,,,,1.2,0.7,1.0*2D
$GPGSV,3,1,11,02,02,002,13,04,13,324,21,13,14
,290,,14,03,113,*72
$GPGSV,3,2,11,16,23,176,25,20,48,241,21,23,48,287,44,25,15,038,23*7A
$GPGSV,3,3,11,29,15,066,34,31,61,074,38,32,36,189,32,,,,*49
$GLGSV,3,1,12,74,83,040,34,82,02,321,,66,08,329,,66,08,329,*67
$GLGSV,3,2,12,82,18,011,38,73,28,049,35,
75,39,231,35,65,55,306,43*65
$GLGSV,3,3,12,83,10,068,30,81,03,324,,71,08,158,32,72,56,183,34*66
$GPGLL,5627.49087,N,08457.06389,E,053834.000,A*33
$GPRMC,053836.000,A,5627.49087,N,08457.06389,E,0.2,0.0,300414,,,A*6B
$GPGGA,053836.000,5627.49087,N,08457.
06389,E,1,16,0.7,0120.5,M,-33.9,M,,*4B
$GPVTG,0.0,T,,M,0.2,N,0.3,K,A*0C
$GNGSA,A,3,25,20,16,04,31,29,23,32,,,,,1.2,0.7,1.0*26
$GNGSA,A,3,71,82,65,72,73,75,83,74,,,,,1.2,0.7,1.0*2D
$GPGSV,3,1,11,02,02,002,13,04,13,324,20,13,14,290,,14,03,113,*73
$GPGSV
,3,2,11,16,23,176,25,20,48,241,23,23,48,287,43,25,15,038,23*7F
$GPGSV,3,3,11,29,15,066,34,31,61,074,37,32,36,189,31,,,,*45
$GLGSV,3,1,12,74,83,040,34,82,02,321,,66,08,329,,66,08,329,*67
$GLGSV,3,2,12,82,18,011,37,73,28,049,35,75,39,231,35,65,55,306,43*6
A
$GLGSV,3,3,12,83,10,068,30,81,03,324,,71,08,158,30,72,56,183,34*64
$GPGLL,5627.49087,N,08457.06389,E,053836.000,A*31
$GPRMC,053838.000,A,5627.49087,N,08457.06389,E,1.4,353.9,300414,,,A*6E
$GPGGA,053838.000,5627.49087,N,08457.06389,E,1,16,0.7,0120.5,M
,-33.9,M,,*45
$GPVTG,353.9,T,,M,1.4,N,2.5,K,A*03
$GNGSA,A,3,25,20,16,04,31,29,23,32,,,,,1.2,0.7,1.0*26
$GNGSA,A,3,71,82,65,72,73,75,83,74,,,,,1.2,0.7,1.0*2D
$GPGSV,3,1,11,02,02,002,13,04,13,324,22,13,14,290,,14,03,113,*71
$GPGSV,3,2,11,16,23,176,24,20
,48,241,23,23,48,287,42,25,15,038,25*79
$GPGSV,3,3,11,29,15,066,33,31,61,074,35,32,36,189,26,,,,*46
$GLGSV,3,1,12,74,83,040,33,82,02,321,,66,08,329,,66,08,329,*60
$GLGSV,3,2,12,82,18,011,33,73,28,049,35,75,39,231,34,65,55,306,42*6E
$GLGSV,3,3,12,83,10,
068,30,81,03,324,,71,08,158,26,72,56,183,34*63
$GPGLL,5627.49087,N,08457.06389,E,053838.000,A*3F
$GPRMC,053839.000,A,5627.49087,N,08457.06389,E,2.8,2.5,300414,,,A*6B
$GPGGA,053839.000,5627.49087,N,08457.06389,E,1,16,0.7,0120.5,M,-33.9,M,,*44
$GPVTG,2.5
,T,,M,2.8,N,5.1,K,A*04
$GNGSA,A,3,25,20,16,04,31,29,23,32,,,,,1.2,0.7,1.0*26
$GNGSA,A,3,71,82,65,72,73,75,83,74,,,,,1.2,0.7,1.0*2D
$GPGSV,3,1,11,02,02,002,13,04,13,324,23,13,14,290,,14,03,113,*70
$GPGSV,3,2,11,16,23,176,24,20,48,241,25,23,48,287,42,25,
15,038,25*7F
$GPGSV,3,3,11,29,15,066,33,31,61,074,35,32,36,189,27,,,,*47
$GLGSV,3,1,12,74,83,040,33,82,02,321,,66,08,329,,66,08,329,*60
$GLGSV,3,2,12,82,18,011,32,73,28,049,36,75,39,231,34,65,55,306,42*6C
$GLGSV,3,3,12,83,10,068,28,81,03,324,,71,08,158
,25,72,56,183,34*69
$GPGLL,5627.49087,N,08457.06389,E,053839.000,A*3E
$GPRMC,053841.000,A,5627.49264,N,08457.06584,E,2.8,1.8,300414,,,A*6E
$GPGGA,053841.000,5627.49264,N,08457.06584,E,1,16,0.7,0121.3,M,-33.9,M,,*48
$GPVTG,1.8,T,,M,2.8,N,5.2,K,A*09
$GN
GSA,A,3,25,20,16,04,31,29,23,32,,,,,1.2,0.7,1.0*26
$GNGSA,A,3,71,82,65,72,73,75,83,74,,,,,1.2,0.7,1.0*2D
$GPGSV,3,1,11,02,02,002,15,04,13,324,27,13,14,290,,14,03,113,*72
$GPGSV,3,2,11,16,23,176,24,20,48,241,27,23,48,287,43,25,15,038,27*7E
$GPGSV,3,3,11
,29,15,066,33,31,61,074,36,32,36,189,30,,,,*42
$GLGSV,3,1,12,74,83,040,32,82,02,321,,66,08,329,,66,08,329,26*65
$GLGSV,3,2,12,82,18,011,32,73,28,049,35,75,39,231,34,65,55,306,42*6F
$GLGSV,3,3,12,83,10,068,25,81,03,324,,71,08,158,26,72,56,183,33*60
$GPG
LL,5627.49264,N,08457.06584,E,053841.000,A*35
$GPRMC,053842.000,A,5627.49413,N,08457.06606,E,5.0,354.8,300414,,,A*6E
$GPGGA,053842.000,5627.49413,N,08457.06606,E,1,17,0.6,0121.0,M,-33.9,M,,*47
$GPVTG,354.8,T,,M,5.0,N,9.3,K,A*08
$GNGSA,A,3,25,20,16,04,3
1,13,29,23,32,,,,1.1,0.6,0.9*2E
$GNGSA,A,3,71,82,65,72,73,75,83,74,,,,,1.1,0.6,0.9*27
$GPGSV,3,1,11,02,02,002,17,04,13,324,27,13,14,290,25,14,03,113,*77
$GPGSV,3,2,11,16,23,176,24,20,48,241,27,23,48,287,43,25,15,038,29*70
$GPGSV,3,3,11,29,15,066,33,31,
61,074,37,32,36,189,29,,,,*4B
$GLGSV,3,1,12,74,83,040,33,82,02,321,,66,08,329,,66,08,329,25*67
$GLGSV,3,2,12,82,18,011,32,73,28,049,33,75,39,231,34,65,55,306,42*69
$GLGSV,3,3,12,83,10,068,25,81,03,324,,71,08,158,26,72,56,183,33*60
$GPGLL,5627.49413,N,0
8457.06606,E,053842.000,A*39
$GPRMC,053844.000,A,5627.49748,N,08457.06610,E,5.1,356.5,300414,,,A*6C
$GPGGA,053844.000,5627.49748,N,08457.06610,E,1,17,0.6,0119.3,M,-33.9,M,,*43
$GPVTG,356.5,T,,M,5.1,N,9.5,K,A*00
$GNGSA,A,3,25,20,16,04,31,13,29,23,32,,,,
1.1,0.6,0.9*2E
$GNGSA,A,3,71,82,65,72,73,75,83,74,,,,,1.1,0.6,0.9*27
$GPGSV,3,1,11,02,02,002,19,04,13,324,27,13,14,290,24,14,03,113,*78
$GPGSV,3,2,11,16,23,176,24,20,48,241,29,23,48,287,43,25,15,038,29*7E
$GPGSV,3,3,11,29,15,066,32,31,60,074,37,32,36,1
89,28,,,,*4A
$GLGSV,3,1,12,74,83,040,34,82,02,321,,66,08,329,,66,08,329,26*63
$GLGSV,3,2,12,82,18,011,33,73,28,049,29,75,39,231,33,65,55,306,43*65
$GLGSV,3,3,12,83,10,068,25,81,03,324,,71,08,158,25,72,56,183,33*63
$GPGLL,5627.49748,N,08457.06610,E,0538
44.000,A*35
$GPRMC,053845.000,A,5627.49894,N,08457.06552,E,5.9,351.4,300414,,,A*68
$GPGGA,053845.000,5627.49894,N,08457.06552,E,1,17,0.6,0119.4,M,-33.9,M,,*4E
$GPVTG,351.4,T,,M,5.9,N,11.0,K,A*32
$GNGSA,A,3,25,20,16,04,31,13,29,23,32,,,,1.1,0.6,0.9*2E

$GNGSA,A,3,71,82,65,72,73,75,83,74,,,,,1.1,0.6,0.9*27
$GPGSV,3,1,11,02,02,002,20,04,13,324,27,13,14,290,24,14,03,113,*72
$GPGSV,3,2,11,16,23,176,24,20,48,241,31,23,48,287,44,25,15,038,28*71
$GPGSV,3,3,11,29,15,066,32,31,60,074,37,32,35,189,28,,,,*49
$G
LGSV,3,1,12,74,83,040,34,82,02,321,,66,08,329,,66,08,329,28*6D
$GLGSV,3,2,12,82,18,011,35,73,28,049,28,75,39,231,33,65,55,306,43*62
$GLGSV,3,3,12,83,10,068,25,81,03,324,,71,08,158,25,72,56,183,32*62
$GPGLL,5627.49894,N,08457.06552,E,053845.000,A*3F
$GP
RMC,053847.000,A,5627.50183,N,08457.06546,E,6.1,5.2,300414,,,A*67
$GPGGA,053847.000,5627.50183,N,08457.06546,E,1,17,0.6,0119.3,M,-33.9,M,,*49
$GPVTG,5.2,T,,M,6.1,N,11.2,K,A*3F
$GNGSA,A,3,25,20,16,04,31,13,29,23,32,,,,1.1,0.6,0.9*2E
$GNGSA,A,3,71,82,65,
72,73,75,83,74,,,,,1.1,0.6,0.9*27
$GPGSV,3,1,11,02,02,002,22,04,13,324,29,13,14,290,24,14,03,113,*7E
$GPGSV,3,2,11,16,23,176,25,20,48,241,33,23,48,287,45,25,15,038,30*7A
$GPGSV,3,3,11,29,15,066,28,31,60,074,38,32,35,189,28,,,,*4D
$GLGSV,3,1,12,74,83,04
0,35,82,02,321,,66,08,329,,66,08,329,28*6C
$GLGSV,3,2,12,82,18,011,35,73,28,049,25,75,39,231,32,65,55,306,44*69
$GLGSV,3,3,12,83,10,068,25,81,03,324,,71,08,158,26,72,56,183,32*61
$GPGLL,5627.50183,N,08457.06546,E,053847.000,A*3F
$GPRMC,053848.000,A,562
7.50374,N,08457.06459,E,7.2,357.1,300414,,,A*68
$GPGGA,053848.000,5627.50374,N,08457.06459,E,1,17,0.6,0119.7,M,-33.9,M,,*47
$GPVTG,357.1,T,,M,7.2,N,13.4,K,A*3E
$GNGSA,A,3,25,20,16,04,31,13,29,23,32,,,,1.1,0.6,0.9*2E
$GNGSA,A,3,71,82,65,72,73,75,83,74,,
,,,1.1,0.6,0.9*27
$GPGSV,3,1,11,02,02,002,22,04,13,324,31,13,14,290,24,14,03,113,*77
$GPGSV,3,2,11,16,23,176,25,20,48,241,32,23,48,287,45,25,15,038,33*78
$GPGSV,3,3,11,29,15,066,27,31,60,074,37,32,35,189,28,,,,*4D
$GLGSV,3,1,12,74,83,040,35,82,02,321,,
66,08,329,,66,08,329,27*63
$GLGSV,3,2,12,82,18,011,35,73,28,049,25,75,39,231,32,65,55,306,43*6E
$GLGSV,3,3,12,83,10,068,25,81,03,324,,71,08,158,25,72,56,183,32*62
$GPGLL,5627.50374,N,08457.06459,E,053848.000,A*35
$GPRMC,053850.000,A,5627.50738,N,08457.
06534,E,5.4,3.4,300414,,,A*64
$GPGGA,053850.000,5627.50738,N,08457.06534,E,1,17,0.6,0121.6,M,-33.9,M,,*42
$GPVTG,3.4,T,,M,5.4,N,10.0,K,A*3A
$GNGSA,A,3,25,20,16,04,31,13,29,23,32,,,,1.1,0.6,0.9*2E
$GNGSA,A,3,71,82,65,72,73,75,83,74,,,,,1.1,0.6,0.9*27
$
GPGSV,3,1,11,02,02,002,23,04,13,324,33,13,14,290,25,14,03,113,*75
$GPGSV,3,2,11,16,23,176,24,20,48,241,30,23,48,287,44,25,15,038,33*7A
$GPGSV,3,3,11,29,15,066,26,31,60,074,37,32,35,189,30,,,,*45
$GLGSV,3,1,12,74,83,040,35,82,02,321,,66,08,329,,66,08,329
,26*62
$GLGSV,3,2,12,82,18,011,35,73,28,049,36,75,39,231,33,65,55,306,43*6D
$GLGSV,3,3,12,83,10,068,25,81,03,324,,71,08,158,24,72,56,183,32*63
$GPGLL,5627.50738,N,08457.06534,E,053850.000,A*3A
$GPRMC,053852.000,A,5627.51069,N,08457.06711,E,5.3,355.6,30
0414,,,A*64
$GPGGA,053852.000,5627.51069,N,08457.06711,E,1,16,0.7,0123.4,M,-33.9,M,,*47
$GPVTG,355.6,T,,M,5.3,N,9.8,K,A*0F
$GNGSA,A,3,25,20,16,04,31,13,29,23,32,,,,1.3,0.7,1.1*24
$GNGSA,A,3,82,65,72,73,75,83,74,,,,,,1.3,0.7,1.1*2B
$GPGSV,3,1,11,02,02,
002,23,04,13,324,36,13,14,290,36,14,03,113,*72
$GPGSV,3,2,11,16,23,176,25,20,48,241,30,23,48,287,44,25,15,038,34*7C
$GPGSV,3,3,11,29,15,066,26,31,60,074,37,32,35,189,31,,,,*44
$GLGSV,3,1,12,74,83,040,35,82,02,321,,66,08,329,,66,08,329,27*63
$GLGSV,3,2,
12,82,18,011,32,73,28,049,39,75,39,231,34,65,55,306,43*62
$GLGSV,3,3,12,83,10,068,27,81,03,324,,71,08,158,,72,56,183,32*67
$GPGLL,5627.51069,N,08457.06711,E,053852.000,A*3F
$GPRMC,053853.000,A,5627.51205,N,08457.06733,E,4.0,357.4,300414,,,A*6F
$GPGGA,0
53853.000,5627.51205,N,08457.06733,E,1,16,0.7,0124.3,M,-33.9,M,,*4E
$GPVTG,357.4,T,,M,4.0,N,7.4,K,A*0F
$GNGSA,A,3,25,20,16,04,31,13,29,23,32,,,,1.3,0.7,1.1*24
$GNGSA,A,3,82,65,72,73,75,83,74,,,,,,1.3,0.7,1.1*2B
$GPGSV,3,1,11,02,02,002,23,04,13,324,35,1
3,14,290,35,14,03,113,*72
$GPGSV,3,2,11,16,23,176,25,20,48,241,30,23,48,287,44,25,15,038,34*7C
$GPGSV,3,3,11,29,15,066,25,31,60,074,36,32,35,189,30,,,,*47
$GLGSV,3,1,12,74,83,040,35,82,02,321,,66,08,329,,66,08,329,28*6C
$GLGSV,3,2,12,82,18,011,32,73,28
,049,39,75,39,231,34,65,55,306,42*63
$GLGSV,3,3,12,83,10,068,27,81,03,324,,71,08,158,,72,56,183,32*67
$GPGLL,5627.51205,N,08457.06733,E,053853.000,A*36
$GPRMC,053855.000,A,5627.51526,N,08457.06744,E,5.3,357.9,300414,,,A*60
$GPGGA,053855.000,5627.51526,
N,08457.06744,E,1,17,0.6,0123.2,M,-33.9,M,,*48
$GPVTG,357.9,T,,M,5.3,N,9.8,K,A*02
$GNGSA,A,3,25,20,16,04,31,13,29,23,32,,,,1.1,0.6,0.9*2E
$GNGSA,A,3,71,82,65,72,73,75,83,74,,,,,1.1,0.6,0.9*27
$GPGSV,3,1,11,02,02,002,27,04,13,324,30,13,14,290,37,14,03,1
13,*71
$GPGSV,3,2,11,16,23,176,25,20,48,241,30,23,48,287,44,25,15,038,36*7E
$GPGSV,3,3,11,29,15,066,25,31,60,074,37,32,35,189,31,,,,*47
$GLGSV,3,1,12,74,83,040,36,82,02,321,,66,08,329,,66,08,329,32*64
$GLGSV,3,2,12,82,18,011,33,73,28,049,39,75,39,231,3
4,65,55,306,43*63
$GLGSV,3,3,12,83,10,068,26,81,03,324,,71,08,158,27,72,56,183,32*63
$GPGLL,5627.51526,N,08457.06744,E,053855.000,A*36
$GPRMC,053856.000,A,5627.51701,N,08457.06701,E,5.9,357.5,300414,,,A*63
$GPGGA,053856.000,5627.51701,N,08457.06701,E,1
,17,0.6,0122.7,M,-33.9,M,,*49
$GPVTG,357.5,T,,M,5.9,N,11.0,K,A*35
$GNGSA,A,3,25,20,16,04,31,13,29,23,32,,,,1.1,0.6,0.9*2E
$GNGSA,A,3,71,82,65,72,73,75,83,74,,,,,1.1,0.6,0.9*27
$GPGSV,3,1,11,02,02,002,27,04,13,324,28,13,14,290,35,14,03,113,*7A
$GPGSV,3
,2,11,16,23,176,24,20,48,241,30,23,48,287,44,25,15,038,36*7F
