$GPRMC,090513.25,A,5629.3019,N,08457.0057,E,13.582,270.1,260214,,,A*62
$GPGGA,090513.25,5629.3019,N,08457.0057,E,1,08,1.6,22.4,M,,M,,*4F
$GPGSA,A,3,32,25,20,31,14,,,,,,,,3.3,1.6,2.9*3D
$GPGSA,A,3,65,75,74,,,,,,,,,,3.3,1.6,2.9*3C
$GPRMC,090514.00,A,5629
.3010,N,08457.0043,E,14.229,271.8,260214,,,A*67
$GPGGA,090514.00,5629.3010,N,08457.0043,E,1,08,1.6,30.2,M,,M,,*46
$GPGSA,A,3,32,25,20,31,14,,,,,,,,3.3,1.6,2.9*3D
$GPGSA,A,3,65,75,74,,,,,,,,,,3.3,1.6,2.9*3C

$GPRMC,090515.00,A,5629.3006,N,08456.9986,E,14.941,273.5,260214,,,A*63
$GPGGA,090515.00,5629.3006,N,08456.9986,E,1,08,1.6,33.9,M,,M,,*40
$GPGSA,A,3,32,25,20,31,14,,,,,,,,3.3,1.6,2.9*3D
$GPGSA,A,3,65,75,74,,,,,,,,,,3.3,1.6,2.9*3C

$GPRMC,090516.00,A,5629.3006,N,08456.9914,E,15.425,274.5,260214,,,A*62
$GPGGA,090516.00,5629.3006,N,08456.9914,E,1,09,1.3,35.7,M,,M,,*44
$GPGSA,A,3,32,23,25,20,31,14,,,,,,,2.3,1.3,1.9*3B
$GPGSA,A,3,65,75,74,,,,,,,,,,2.3,1.3,1.9*3B
$GPGSV,5,1,10,01,13,2
45,,04,08,342,13,12,07,025,,14,24,103,37*71
$GPGSV,5,2,10,20,49,278,40,23,23,282,31,25,32,053,36,29,02,082,*75
$GPGSV,5,3,10,31,78,112,43,32,58,205,37*79
$GPGSV,5,4,8,65,79,241,40,66,32,316,,72,32,150,,73,03,040,*48
$GPGSV,5,5,8,74,52,046,35,75,67,204,
40,76,13,216,,83,10,041,*49

$GPRMC,090518.00,A,5629.3006,N,08456.9764,E,15.451,274.7,260214,,,A*64
$GPGGA,090518.00,5629.3006,N,08456.9764,E,1,09,1.3,39.1,M,,M,,*49
$GPGSA,A,3,32,23,25,20,31,14,,,,,,,2.3,1.3,1.9*3B
$GPGSA,A,3,65,75,74,,,,,,,,,,2.3,1.3,1.9*3B

$GPRMC,090519.00,A,5629.3004,N,08456.9688,E,14.858,274.6,260214,,,A*61
$GPGGA,090519.00,5629.3004,N,08456.9688,E,1,09,1.3,40.1,M,,M,,*47
$GPGSA,A,3,32,23,25,20,31,14,,,,,,,2.3,1.3,1.9*3B
$GPGSA,A,3,65,75,74,,,,,,,,,,2.3,1.3,1.9*3B

$GPRMC,090520.00,A,5629.3003,N,08456.9616,E,13.867,274.2,260214,,,A*64
$GPGGA,090520.00,5629.3003,N,08456.9616,E,1,09,1.3,40.8,M,,M,,*44
$GPGSA,A,3,32,23,25,20,31,14,,,,,,,2.3,1.3,1.9*3B
$GPGSA,A,3,65,75,74,,,,,,,,,,2.3,1.3,1.9*3B

$GPRMC,090521.00,A,5629.3004,N,08456.9548,E,13.491,273.7,260214,,,A*6D
$GPGGA,090521.00,5629.3004,N,08456.9548,E,1,10,1.1,41.1,M,,M,,*48
$GPGSA,A,3,32,23,25,20,31,01,14,,,,,,1.8,1.1,1.4*3D
$GPGSA,A,3,65,75,74,,,,,,,,,,1.8,1.1,1.4*3C
$GPGSV,5,1,10,01,13
,244,37,04,08,342,,12,07,025,,14,24,103,41*77
$GPGSV,5,2,10,20,49,278,37,23,23,282,35,25,32,053,30,29,02,082,*77
$GPGSV,5,3,10,31,78,112,43,32,58,205,36*78
$GPGSV,5,4,8,65,79,241,41,66,32,316,30,72,32,150,,73,03,040,*4A
$GPGSV,5,5,8,74,52,046,34,75,67,
204,40,76,13,216,,83,10,041,*48

$GPRMC,090523.00,A,5629.3005,N,08456.9418,E,12.682,273.0,260214,,,A*6C
$GPGGA,090523.00,5629.3005,N,08456.9418,E,1,10,1.1,42.0,M,,M,,*4D
$GPGSA,A,3,32,23,25,20,31,01,14,,,,,,1.8,1.1,1.4*3D
$GPGSA,A,3,65,75,74,,,,,,,,,,1.8,1.1,1.4*3C

$GPRMC,090524.00,A,5629.3006,N,08456.9356,E,12.422,272.2,260214,,,A*6E
$GPGGA,090524.00,5629.3006,N,08456.9356,E,1,10,1.1,42.5,M,,M,,*41
$GPGSA,A,3,32,23,25,20,31,01,14,,,,,,1.8,1.1,1.4*3D
$GPGSA,A,3,65,75,74,,,,,,,,,,1.8,1.1,1.4*3C

$GPRMC,090525.00,A,5629.3005,N,08456.9296,E,12.049,272.0,260214,,,A*6A
$GPGGA,090525.00,5629.3005,N,08456.9296,E,1,10,1.1,42.9,M,,M,,*42
$GPGSA,A,3,32,23,25,20,31,01,14,,,,,,1.8,1.1,1.4*3D
$GPGSA,A,3,65,75,74,,,,,,,,,,1.8,1.1,1.4*3C

$GPRMC,090526.00,A,5629.3005,N,08456.9234,E,12.684,270.3,260214,,,A*67
$GPGGA,090526.00,5629.3005,N,08456.9234,E,1,10,1.1,43.5,M,,M,,*44
$GPGSA,A,3,32,23,25,20,31,01,14,,,,,,1.8,1.1,1.4*3D
$GPGSA,A,3,65,75,74,,,,,,,,,,1.8,1.1,1.4*3C
$GPGSV,5,1,10,01,13
,244,37,04,08,342,,12,07,025,,14,24,103,44*72
$GPGSV,5,2,10,20,49,278,34,23,23,282,25,25,32,052,38,29,02,082,*7C
$GPGSV,5,3,10,31,78,112,44,32,58,205,37*7E
$GPGSV,5,4,8,65,79,240,41,66,32,316,,72,32,150,,73,03,040,*48
$GPGSV,5,5,8,74,52,046,33,75,67,20
4,39,76,13,216,,83,10,041,*41

$GPRMC,090528.00,A,5629.3003,N,08456.9107,E,12.554,269.1,260214,,,A*68
$GPGGA,090528.00,5629.3003,N,08456.9107,E,1,10,1.1,44.6,M,,M,,*4B
$GPGSA,A,3,32,23,25,20,31,01,14,,,,,,1.8,1.1,1.4*3D
$GPGSA,A,3,65,75,74,,,,,,,,,,1.8,1.1,1.4*3C

$GPRMC,090529.00,A,5629.3002,N,08456.9045,E,12.167,269.6,260214,,,A*6C
$GPGGA,090529.00,5629.3002,N,08456.9045,E,1,10,1.1,45.1,M,,M,,*4A
$GPGSA,A,3,32,23,25,20,31,01,14,,,,,,1.8,1.1,1.4*3D
$GPGSA,A,3,65,75,74,,,,,,,,,,1.8,1.1,1.4*3C

$GPRMC,090530.00,A,5629.3004,N,08456.8986,E,11.971,275.2,260214,,,A*60
$GPGGA,090530.00,5629.3004,N,08456.8986,E,1,10,1.1,45.6,M,,M,,*44
$GPGSA,A,3,32,23,25,20,31,01,14,,,,,,1.8,1.1,1.4*3D
$GPGSA,A,3,65,75,74,,,,,,,,,,1.8,1.1,1.4*3C

$GPRMC,090531.00,A,5629.3011,N,08456.8929,E,11.089,285.0,260214,,,A*63
$GPGGA,090531.00,5629.3011,N,08456.8929,E,1,10,1.1,45.9,M,,M,,*4B
$GPGSA,A,3,32,23,25,20,31,01,14,,,,,,1.8,1.1,1.4*3D
$GPGSA,A,3,65,75,74,,,,,,,,,,1.8,1.1,1.4*3C
$GPGSV,5,1,10,01,13
,244,36,04,08,342,,12,07,025,,14,24,103,38*78
$GPGSV,5,2,10,20,49,278,37,23,23,282,32,25,32,052,27,29,02,082,*77
$GPGSV,5,3,10,31,78,112,43,32,58,205,41*78
$GPGSV,5,4,8,65,79,240,40,66,32,316,28,72,32,150,,73,03,040,*43
$GPGSV,5,5,8,74,52,046,35,75,67,
204,40,76,13,216,,83,11,041,*48

$GPRMC,090533.00,A,5629.3039,N,08456.8834,E,10.704,303.6,260214,,,A*6C
$GPGGA,090533.00,5629.3039,N,08456.8834,E,1,10,1.1,46.0,M,,M,,*44
$GPGSA,A,3,32,23,25,20,31,01,14,,,,,,1.8,1.1,1.4*3D
$GPGSA,A,3,65,75,74,,,,,,,,,,1.8,1.1,1.4*3C

$GPRMC,090534.00,A,5629.3058,N,08456.8793,E,10.493,310.0,260214,,,A*67
$GPGGA,090534.00,5629.3058,N,08456.8793,E,1,10,1.1,46.1,M,,M,,*47
$GPGSA,A,3,32,23,25,20,31,01,14,,,,,,1.8,1.1,1.4*3D
$GPGSA,A,3,65,75,74,,,,,,,,,,1.8,1.1,1.4*3C

$GPRMC,090535.00,A,5629.3082,N,08456.8763,E,10.324,321.7,260214,,,A*60
$GPGGA,090535.00,5629.3082,N,08456.8763,E,1,10,1.1,46.6,M,,M,,*49
$GPGSA,A,3,32,23,25,20,31,01,14,,,,,,1.8,1.1,1.4*3D
$GPGSA,A,3,65,75,74,,,,,,,,,,1.8,1.1,1.4*3C

$GPRMC,090536.00,A,5629.3111,N,08456.8740,E,10.867,330.4,260214,,,A*66
$GPGGA,090536.00,5629.3111,N,08456.8740,E,1,10,1.1,47.5,M,,M,,*42
$GPGSA,A,3,32,23,25,20,31,01,14,,,,,,1.8,1.1,1.4*3D
$GPGSA,A,3,65,75,74,,,,,,,,,,1.8,1.1,1.4*3C
$GPGSV,5,1,10,01,13
,244,33,04,08,342,,12,07,025,,14,23,103,18*78
$GPGSV,5,2,10,20,49,277,35,23,23,282,33,25,32,052,32,29,02,082,*7F
$GPGSV,5,3,10,31,78,111,44,32,58,205,45*78
$GPGSV,5,4,8,65,79,239,32,66,32,316,38,72,32,150,,73,03,040,*49
$GPGSV,5,5,8,74,52,046,34,75,67,
204,32,76,13,216,,83,11,041,20*4E

$GPRMC,090538.00,A,5629.3177,N,08456.8706,E,12.088,340.9,260214,,,A*6B
$GPGGA,090538.00,5629.3177,N,08456.8706,E,1,10,1.1,49.6,M,,M,,*43
$GPGSA,A,3,32,23,25,20,31,01,14,,,,,,1.8,1.1,1.4*3D
$GPGSA,A,3,65,75,74,,,,,,,,,,1.8,1.1,1.4*3C

$GPRMC,090539.00,A,5629.3213,N,08456.8691,E,12.559,343.8,260214,,,A*6F
$GPGGA,090539.00,5629.3213,N,08456.8691,E,1,10,1.1,50.5,M,,M,,*47
$GPGSA,A,3,32,23,25,20,31,01,14,,,,,,1.8,1.1,1.4*3D
$GPGSA,A,3,65,75,74,,,,,,,,,,1.8,1.1,1.4*3C

$GPRMC,090540.00,A,5629.3255,N,08456.8685,E,13.688,348.3,260214,,,A*68
$GPGGA,090540.00,5629.3255,N,08456.8685,E,1,10,1.1,51.4,M,,M,,*4E
$GPGSA,A,3,32,23,25,20,31,01,14,,,,,,1.8,1.1,1.4*3D
$GPGSA,A,3,65,75,74,,,,,,,,,,1.8,1.1,1.4*3C

$GPRMC,090541.00,A,5629.3298,N,08456.8683,E,14.475,351.9,260214,,,A*6B
$GPGGA,090541.00,5629.3298,N,08456.8683,E,1,10,1.1,52.2,M,,M,,*4D
$GPGSA,A,3,32,23,25,20,31,01,14,,,,,,1.8,1.1,1.4*3D
$GPGSA,A,3,65,75,74,,,,,,,,,,1.8,1.1,1.4*3C
$GPGSV,5,1,10,01,13
,244,24,04,08,342,28,12,07,025,,14,23,103,27*78
$GPGSV,5,2,10,20,49,277,34,23,23,282,29,25,32,052,29,29,02,082,*7F
$GPGSV,5,3,10,31,78,111,46,32,58,205,46*79
$GPGSV,5,4,8,65,79,239,36,66,32,316,39,72,32,150,36,73,03,040,*49
$GPGSV,5,5,8,74,52,046,29,75
,67,204,35,76,13,216,,83,11,041,*47

$GPRMC,090543.00,A,5629.3403,N,08456.8706,E,16.332,357.7,260214,,,A*6F
$GPGGA,090543.00,5629.3403,N,08456.8706,E,1,11,1.0,56.0,M,,M,,*41
$GPGSA,A,3,32,23,25,20,31,01,14,,,,,,1.6,1.0,1.3*35
$GPGSA,A,3,65,75,72,74,,,,,,,,,1.6,1.0,1.3*31

$GPRMC,090544.00,A,5629.3452,N,08456.8714,E,16.585,358.5,260214,,,A*68
$GPGGA,090544.00,5629.3452,N,08456.8714,E,1,11,1.0,57.7,M,,M,,*47
$GPGSA,A,3,32,23,25,20,31,01,14,,,,,,1.6,1.0,1.3*35
$GPGSA,A,3,65,75,72,74,,,,,,,,,1.6,1.0,1.3*31

$GPRMC,090545.00,A,5629.3503,N,08456.8723,E,17.190,359.3,260214,,,A*6E
$GPGGA,090545.00,5629.3503,N,08456.8723,E,1,11,1.0,59.6,M,,M,,*48
$GPGSA,A,3,32,23,25,20,31,01,14,,,,,,1.6,1.0,1.3*35
$GPGSA,A,3,65,75,72,74,,,,,,,,,1.6,1.0,1.3*31

$GPRMC,090546.00,A,5629.3557,N,08456.8732,E,17.908,359.8,260214,,,A*6E
$GPGGA,090546.00,5629.3557,N,08456.8732,E,1,11,1.0,61.5,M,,M,,*42
$GPGSA,A,3,32,23,25,20,31,01,14,,,,,,1.6,1.0,1.3*35
$GPGSA,A,3,65,75,72,74,,,,,,,,,1.6,1.0,1.3*31
$GPGSV,5,1,10,01,
13,244,29,04,08,342,,12,07,025,,14,23,103,28*70
$GPGSV,5,2,10,20,49,277,29,23,23,282,31,25,32,052,29,29,02,082,*7A
$GPGSV,5,3,10,31,78,111,47,32,58,205,45*7B
$GPGSV,5,4,8,65,79,239,37,66,32,316,37,72,32,150,35,73,03,040,*45
$GPGSV,5,5,8,74,51,046,30,75
,67,204,37,76,13,216,,83,11,041,*4E

$GPRMC,090548.00,A,5629.3663,N,08456.8743,E,18.355,000.2,260214,,,A*6A
$GPGGA,090548.00,5629.3663,N,08456.8743,E,1,11,1.0,63.5,M,,M,,*4C
$GPGSA,A,3,32,23,25,20,31,01,14,,,,,,1.6,1.0,1.3*35
$GPGSA,A,3,65,75,72,74,,,,,,,,,1.6,1.0,1.3*31

$GPRMC,090549.00,A,5629.3715,N,08456.8746,E,18.201,000.2,260214,,,A*6E
$GPGGA,090549.00,5629.3715,N,08456.8746,E,1,11,1.0,63.7,M,,M,,*4A
$GPGSA,A,3,32,23,25,20,31,01,14,,,,,,1.6,1.0,1.3*35
$GPGSA,A,3,65,75,72,74,,,,,,,,,1.6,1.0,1.3*31

$GPRMC,090550.00,A,5629.3766,N,08456.8748,E,17.785,000.3,260214,,,A*6B
$GPGGA,090550.00,5629.3766,N,08456.8748,E,1,11,1.0,64.0,M,,M,,*48
$GPGSA,A,3,32,23,25,20,31,01,14,,,,,,1.6,1.0,1.3*35
$GPGSA,A,3,65,75,72,74,,,,,,,,,1.6,1.0,1.3*31

$GPRMC,090551.00,A,5629.3815,N,08456.8751,E,17.322,000.2,260214,,,A*61
$GPGGA,090551.00,5629.3815,N,08456.8751,E,1,11,1.0,63.9,M,,M,,*44
$GPGSA,A,3,32,23,25,20,31,01,14,,,,,,1.6,1.0,1.3*35
$GPGSA,A,3,65,75,72,74,,,,,,,,,1.6,1.0,1.3*31
$GPGSV,5,1,10,01,
12,244,31,04,08,341,31,12,07,025,,14,23,103,33*73
$GPGSV,5,2,10,20,49,277,40,23,23,282,34,25,32,052,35,29,02,082,*7D
$GPGSV,5,3,10,31,78,111,48,32,58,205,45*74
$GPGSV,5,4,8,65,79,239,37,66,32,316,41,72,32,150,38,73,03,040,*49
$GPGSV,5,5,8,74,51,046,35,
75,67,204,38,76,13,216,,83,11,041,*44

$GPRMC,090553.00,A,5629.3898,N,08456.8766,E,13.976,000.0,260214,,,A*6F
$GPGGA,090553.00,5629.3898,N,08456.8766,E,1,11,1.0,64.7,M,,M,,*4E
$GPGSA,A,3,32,23,25,20,31,01,14,,,,,,1.6,1.0,1.3*35
$GPGSA,A,3,65,75,72,74,,,,,,,,,1.6,1.0,1.3*31

$GPRMC,090554.00,A,5629.3932,N,08456.8772,E,12.196,359.9,260214,,,A*6D
$GPGGA,090554.00,5629.3932,N,08456.8772,E,1,12,0.8,65.1,M,,M,,*40
$GPGSA,A,3,32,23,25,20,31,01,14,12,,,,,1.4,0.8,1.1*3F
$GPGSA,A,3,65,75,72,74,,,,,,,,,1.4,0.8,1.1*38

$GPRMC,090555.00,A,5629.3961,N,08456.8780,E,10.605,000.2,260214,,,A*6C
$GPGGA,090555.00,5629.3961,N,08456.8780,E,1,12,0.8,66.0,M,,M,,*48
$GPGSA,A,3,32,23,25,20,31,01,14,12,,,,,1.4,0.8,1.1*3F
$GPGSA,A,3,65,75,72,74,,,,,,,,,1.4,0.8,1.1*38

$GPRMC,090556.00,A,5629.3987,N,08456.8791,E,09.076,000.4,260214,,,A*6B
$GPGGA,090556.00,5629.3987,N,08456.8791,E,1,12,0.8,66.6,M,,M,,*45
$GPGSA,A,3,32,23,25,20,31,01,14,12,,,,,1.4,0.8,1.1*3F
$GPGSA,A,3,65,75,72,74,,,,,,,,,1.4,0.8,1.1*38
$GPGSV,5,1,10,0
1,12,244,29,04,08,341,,12,07,025,30,14,23,103,28*71
$GPGSV,5,2,10,20,49,277,40,23,23,282,40,25,32,052,38,29,02,082,*73
$GPGSV,5,3,10,31,78,111,47,32,58,204,45*7A
$GPGSV,5,4,8,65,79,238,37,66,32,316,37,72,32,150,32,73,03,040,*43
$GPGSV,5,5,8,74,51,046,3
2,75,68,204,38,76,13,216,,83,11,041,*4C

$GPRMC,090558.00,A,5629.4038,N,08456.8810,E,08.249,000.0,260214,,,A*62
$GPGGA,090558.00,5629.4038,N,08456.8810,E,1,12,0.8,66.9,M,,M,,*48
$GPGSA,A,3,32,23,25,20,31,01,14,12,,,,,1.4,0.8,1.1*3F
$GPGSA,A,3,65,75,72,74,,,,,,,,,1.4,0.8,1.1*38

$GPRMC,090559.00,A,5629.4065,N,08456.8811,E,08.662,357.8,260214,,,A*6E
$GPGGA,090559.00,5629.4065,N,08456.8811,E,1,12,0.8,66.8,M,,M,,*41
$GPGSA,A,3,32,23,25,20,31,01,14,12,,,,,1.4,0.8,1.1*3F
$GPGSA,A,3,65,75,72,74,,,,,,,,,1.4,0.8,1.1*38

$GPRMC,090600.00,A,5629.4094,N,08456.8814,E,09.785,001.1,260214,,,A*6A
$GPGGA,090600.00,5629.4094,N,08456.8814,E,1,12,0.8,66.8,M,,M,,*45
$GPGSA,A,3,32,23,25,20,31,01,14,12,,,,,1.4,0.8,1.1*3F
$GPGSA,A,3,65,75,72,74,,,,,,,,,1.4,0.8,1.1*38

$GPRMC,090601.00,A,5629.4126,N,08456.8820,E,11.013,003.3,260214,,,A*65
$GPGGA,090601.00,5629.4126,N,08456.8820,E,1,12,0.8,67.0,M,,M,,*42
$GPGSA,A,3,32,23,25,20,31,01,14,12,,,,,1.4,0.8,1.1*3F
$GPGSA,A,3,65,75,72,74,,,,,,,,,1.4,0.8,1.1*38
$GPGSV,5,1,10,0
1,12,244,38,04,08,341,,12,07,025,33,14,23,103,31*7A
$GPGSV,5,2,10,20,49,277,33,23,23,282,36,25,32,052,38,29,02,082,*76
$GPGSV,5,3,10,31,78,111,45,32,58,204,47*7A
$GPGSV,5,4,8,65,79,238,35,66,32,316,36,72,32,150,34,73,03,040,*46
$GPGSV,5,5,8,74,51,046,3
0,75,68,204,34,76,13,216,,83,11,041,25*45

$GPRMC,090603.00,A,5629.4200,N,08456.8838,E,13.318,002.3,260214,,,A*62
$GPGGA,090603.00,5629.4200,N,08456.8838,E,1,12,0.8,67.6,M,,M,,*48
$GPGSA,A,3,32,23,25,20,31,01,14,12,,,,,1.4,0.8,1.1*3F
$GPGSA,A,3,65,75,72,74,,,,,,,,,1.4,0.8,1.1*38

$GPRMC,090604.00,A,5629.4240,N,08456.8847,E,13.471,001.2,260214,,,A*63
$GPGGA,090604.00,5629.4240,N,08456.8847,E,1,12,0.8,68.1,M,,M,,*4B
$GPGSA,A,3,32,23,25,20,31,01,14,12,,,,,1.4,0.8,1.1*3F
$GPGSA,A,3,65,75,72,74,,,,,,,,,1.4,0.8,1.1*38

$GPRMC,090605.00,A,5629.4281,N,08456.8858,E,13.649,001.3,260214,,,A*69
$GPGGA,090605.00,5629.4281,N,08456.8858,E,1,12,0.8,68.8,M,,M,,*40
$GPGSA,A,3,32,23,25,20,31,01,14,12,,,,,1.4,0.8,1.1*3F
$GPGSA,A,3,65,75,72,74,,,,,,,,,1.4,0.8,1.1*38

$GPRMC,090606.00,A,5629.4321,N,08456.8870,E,14.035,001.1,260214,,,A*63
$GPGGA,090606.00,5629.4321,N,08456.8870,E,1,12,0.8,69.6,M,,M,,*4D
$GPGSA,A,3,32,23,25,20,31,01,14,12,,,,,1.4,0.8,1.1*3F
$GPGSA,A,3,65,75,72,74,,,,,,,,,1.4,0.8,1.1*38
$GPGSV,5,1,10,0
1,12,244,30,04,08,341,26,12,07,025,30,14,23,103,44*77
$GPGSV,5,2,10,20,49,277,36,23,23,282,34,25,32,052,31,29,02,081,*7B
$GPGSV,5,3,10,31,78,110,45,32,58,204,47*7B
$GPGSV,5,4,8,65,79,238,35,66,32,316,35,72,32,151,35,73,03,040,*45
$GPGSV,5,5,8,74,51,046
,32,75,68,204,35,76,13,216,,83,11,041,*41

$GPRMC,090608.00,A,5629.4400,N,08456.8878,E,14.625,001.9,260214,,,A*6E
$GPGGA,090608.00,5629.4400,N,08456.8878,E,1,12,0.8,70.7,M,,M,,*46
$GPGSA,A,3,32,23,25,20,31,01,14,12,,,,,1.4,0.8,1.1*3F
$GPGSA,A,3,65,75,72,74,,,,,,,,,1.4,0.8,1.1*38

$GPRMC,090609.00,A,5629.4442,N,08456.8883,E,15.013,002.5,260214,,,A*60
$GPGGA,090609.00,5629.4442,N,08456.8883,E,1,12,0.8,71.5,M,,M,,*46
$GPGSA,A,3,32,23,25,20,31,01,14,12,,,,,1.4,0.8,1.1*3F
$GPGSA,A,3,65,75,72,74,,,,,,,,,1.4,0.8,1.1*38

$GPRMC,090610.00,A,5629.4487,N,08456.8886,E,15.864,001.4,260214,,,A*6E
$GPGGA,090610.00,5629.4487,N,08456.8886,E,1,12,0.8,71.7,M,,M,,*40
$GPGSA,A,3,32,23,25,20,31,01,14,12,,,,,1.4,0.8,1.1*3F
$GPGSA,A,3,65,75,72,74,,,,,,,,,1.4,0.8,1.1*38

$GPRMC,090611.00,A,5629.4539,N,08456.8887,E,16.301,002.4,260214,,,A*62
$GPGGA,090611.00,5629.4539,N,08456.8887,E,1,13,0.8,71.8,M,,M,,*4A
$GPGSA,A,3,32,23,25,20,31,01,14,12,,,,,1.3,0.8,1.1*38
$GPGSA,A,3,65,75,66,72,74,,,,,,,,1.3,0.8,1.1*3F
$GPGSV,5,1,10
,01,12,244,27,04,08,341,19,12,07,025,26,14,23,103,26*7E
$GPGSV,5,2,10,20,49,277,33,23,23,282,37,25,32,052,37,29,02,081,*7B
$GPGSV,5,3,10,31,78,110,45,32,58,204,47*7B
$GPGSV,5,4,8,65,79,238,36,66,32,316,38,72,32,151,31,73,03,040,*4F
$GPGSV,5,5,8,74,51,0
46,33,75,68,204,33,76,13,216,,83,11,041,*46

$GPRMC,090613.00,A,5629.4659,N,08456.8885,E,19.130,001.5,260214,,,A*6A
$GPGGA,090613.00,5629.4659,N,08456.8885,E,1,13,0.8,70.8,M,,M,,*4E
$GPGSA,A,3,32,23,25,20,31,01,14,12,,,,,1.3,0.8,1.1*38
$GPGSA,A,3,65,75,66,72,74,,,,,,,,1.3,0.8,1.1*3F

$GPRMC,090614.00,A,5629.4725,N,08456.8885,E,20.442,001.0,260214,,,A*68
$GPGGA,090614.00,5629.4725,N,08456.8885,E,1,13,0.8,70.3,M,,M,,*48
$GPGSA,A,3,32,23,25,20,31,01,14,12,,,,,1.3,0.8,1.1*38
$GPGSA,A,3,65,75,66,72,74,,,,,,,,1.3,0.8,1.1*3F

$GPRMC,090615.00,A,5629.4790,N,08456.8886,E,20.672,001.3,260214,,,A*66
$GPGGA,090615.00,5629.4790,N,08456.8886,E,1,13,0.8,69.8,M,,M,,*47
$GPGSA,A,3,32,23,25,20,31,01,14,12,,,,,1.3,0.8,1.1*38
$GPGSA,A,3,65,75,66,72,74,,,,,,,,1.3,0.8,1.1*3F

$GPRMC,090616.00,A,5629.4855,N,08456.8886,E,21.046,001.1,260214,,,A*61
$GPGGA,090616.00,5629.4855,N,08456.8886,E,1,13,0.8,69.4,M,,M,,*4E
$GPGSA,A,3,32,23,25,20,31,01,14,12,,,,,1.3,0.8,1.1*38
$GPGSA,A,3,65,75,66,72,74,,,,,,,,1.3,0.8,1.1*3F
$GPGSV,5,1,10
,01,12,244,28,04,08,341,28,12,07,025,29,14,23,103,42*7E
$GPGSV,5,2,10,20,49,277,31,23,23,282,34,25,32,052,31,29,02,081,*7C
$GPGSV,5,3,10,31,78,110,43,32,58,204,48*72
$GPGSV,5,4,8,65,79,237,35,66,32,316,39,72,32,151,35,73,02,040,*47
$GPGSV,5,5,8,74,51,0
46,32,75,68,205,31,76,13,216,23,83,11,041,*45

$GPRMC,090618.00,A,5629.4978,N,08456.8883,E,19.834,000.9,260214,,,A*6B
$GPGGA,090618.00,5629.4978,N,08456.8883,E,1,13,0.7,67.4,M,,M,,*4A
$GPGSA,A,3,32,23,25,20,31,01,14,12,,,,,1.3,0.7,1.1*37
$GPGSA,A,3,65,75,66,72,74,,,,,,,,1.3,0.7,1.1*30

$GPRMC,090619.00,A,5629.5036,N,08456.8881,E,18.921,001.4,260214,,,A*62
$GPGGA,090619.00,5629.5036,N,08456.8881,E,1,13,0.7,66.3,M,,M,,*4D
$GPGSA,A,3,32,23,25,20,31,01,14,12,,,,,1.3,0.7,1.1*37
$GPGSA,A,3,65,75,66,72,74,,,,,,,,1.3,0.7,1.1*30

$GPRMC,090620.00,A,5629.5094,N,08456.8882,E,19.158,002.7,260214,,,A*64
$GPGGA,090620.00,5629.5094,N,08456.8882,E,1,13,0.7,65.4,M,,M,,*48
$GPGSA,A,3,32,23,25,20,31,01,14,12,,,,,1.3,0.7,1.1*37
$GPGSA,A,3,65,75,66,72,74,,,,,,,,1.3,0.7,1.1*30

$GPRMC,090621.00,A,5629.5151,N,08456.8883,E,18.393,003.4,260214,,,A*6A
$GPGGA,090621.00,5629.5151,N,08456.8883,E,1,13,0.7,64.9,M,,M,,*4C
$GPGSA,A,3,32,23,25,20,31,01,14,12,,,,,1.3,0.7,1.1*37
$GPGSA,A,3,65,75,66,72,74,,,,,,,,1.3,0.7,1.1*30
$GPGSV,5,1,10
,01,12,244,23,04,08,341,32,12,07,025,18,14,23,103,30*79
$GPGSV,5,2,10,20,49,277,31,23,23,282,28,25,32,052,36,29,02,081,*76
$GPGSV,5,3,10,31,78,110,43,32,58,204,48*72
$GPGSV,5,4,8,65,79,237,34,66,32,316,40,72,32,151,33,73,02,040,*4E
$GPGSV,5,5,8,74,51,0
46,29,75,68,205,29,76,13,216,23,83,11,041,*46

$GPRMC,090623.00,A,5629.5254,N,08456.8890,E,16.780,002.2,260214,,,A*63
$GPGGA,090623.00,5629.5254,N,08456.8890,E,1,13,0.7,63.9,M,,M,,*4D
$GPGSA,A,3,32,23,25,20,31,01,14,12,,,,,1.3,0.7,1.1*37
$GPGSA,A,3,65,75,66,72,74,,,,,,,,1.3,0.7,1.1*30

$GPRMC,090624.00,A,5629.5301,N,08456.8891,E,15.862,002.0,260214,,,A*66
$GPGGA,090624.00,5629.5301,N,08456.8891,E,1,13,0.7,63.4,M,,M,,*47
$GPGSA,A,3,32,23,25,20,31,01,14,12,,,,,1.3,0.7,1.1*37
$GPGSA,A,3,65,75,66,72,74,,,,,,,,1.3,0.7,1.1*30

$GPRMC,090625.00,A,5629.5345,N,08456.8892,E,15.219,001.3,260214,,,A*62
$GPGGA,090625.00,5629.5345,N,08456.8892,E,1,13,0.7,62.9,M,,M,,*49
$GPGSA,A,3,32,23,25,20,31,01,14,12,,,,,1.3,0.7,1.1*37
$GPGSA,A,3,65,75,66,72,74,,,,,,,,1.3,0.7,1.1*30

$GPRMC,090626.00,A,5629.5388,N,08456.8892,E,14.566,001.2,260214,,,A*6F
$GPGGA,090626.00,5629.5388,N,08456.8892,E,1,13,0.7,62.4,M,,M,,*46
$GPGSA,A,3,32,23,25,20,31,01,14,12,,,,,1.3,0.7,1.1*37
$GPGSA,A,3,65,75,66,72,74,,,,,,,,1.3,0.7,1.1*30
$GPGSV,5,1,10
,01,12,244,43,04,08,341,31,12,07,025,16,14,23,103,29*7A
$GPGSV,5,2,10,20,49,277,37,23,23,282,37,25,32,052,33,29,02,081,*7B
$GPGSV,5,3,10,31,78,109,47,32,57,204,45*7C
$GPGSV,5,4,8,65,79,237,36,66,32,316,41,72,32,151,36,73,02,040,*48
$GPGSV,5,5,8,74,51,0
46,32,75,68,205,36,76,13,216,19,83,11,041,*4B

$GPRMC,090628.00,A,5629.5464,N,08456.8892,E,12.333,001.1,260214,,,A*67
$GPGGA,090628.00,5629.5464,N,08456.8892,E,1,12,0.8,62.1,M,,M,,*46
$GPGSA,A,3,32,23,25,20,31,01,14,,,,,,1.5,0.8,1.2*3E
$GPGSA,A,3,65,75,66,72,74,,,,,,,,1.5,0.8,1.2*3A

$GPRMC,090629.00,A,5629.5497,N,08456.8893,E,11.488,000.9,260214,,,A*66
$GPGGA,090629.00,5629.5497,N,08456.8893,E,1,12,0.8,61.9,M,,M,,*41
$GPGSA,A,3,32,23,25,20,31,01,14,,,,,,1.5,0.8,1.2*3E
$GPGSA,A,3,65,75,66,72,74,,,,,,,,1.5,0.8,1.2*3A

$GPRMC,090630.00,A,5629.5528,N,08456.8895,E,10.973,001.3,260214,,,A*6E
$GPGGA,090630.00,5629.5528,N,08456.8895,E,1,12,0.8,61.6,M,,M,,*45
$GPGSA,A,3,32,23,25,20,31,01,14,,,,,,1.5,0.8,1.2*3E
$GPGSA,A,3,65,75,66,72,74,,,,,,,,1.5,0.8,1.2*3A

$GPRMC,090631.00,A,5629.5557,N,08456.8896,E,10.618,001.1,260214,,,A*64
$GPGGA,090631.00,5629.5557,N,08456.8896,E,1,12,0.8,61.4,M,,M,,*4D
$GPGSA,A,3,32,23,25,20,31,01,14,,,,,,1.5,0.8,1.2*3E
$GPGSA,A,3,65,75,66,72,74,,,,,,,,1.5,0.8,1.2*3A
$GPGSV,5,1,10,0
1,12,244,35,04,08,341,32,12,07,025,15,14,23,103,41*75
$GPGSV,5,2,10,20,49,277,40,23,23,282,35,25,32,052,26,29,02,081,*7D
$GPGSV,5,3,10,31,78,109,44,32,57,204,48*72
$GPGSV,5,4,8,65,79,237,34,66,32,316,36,72,32,151,31,73,02,040,*4D
$GPGSV,5,5,8,74,51,046
,33,75,68,205,37,76,13,216,25,83,11,041,*44

$GPRMC,090633.00,A,5629.5607,N,08456.8900,E,08.764,002.9,260214,,,A*66
$GPGGA,090633.00,5629.5607,N,08456.8900,E,1,12,0.8,60.8,M,,M,,*4A
$GPGSA,A,3,32,23,25,20,31,01,14,,,,,,1.5,0.8,1.2*3E
$GPGSA,A,3,65,75,66,72,74,,,,,,,,1.5,0.8,1.2*3A

$GPRMC,090634.00,A,5629.5629,N,08456.8900,E,08.064,001.1,260214,,,A*61
$GPGGA,090634.00,5629.5629,N,08456.8900,E,1,12,0.8,60.7,M,,M,,*4E
$GPGSA,A,3,32,23,25,20,31,01,14,,,,,,1.5,0.8,1.2*3E
$GPGSA,A,3,65,75,66,72,74,,,,,,,,1.5,0.8,1.2*3A

$GPRMC,090635.00,A,5629.5648,N,08456.8902,E,07.305,001.1,260214,,,A*6E
$GPGGA,090635.00,5629.5648,N,08456.8902,E,1,12,0.8,60.4,M,,M,,*49
$GPGSA,A,3,32,23,25,20,31,01,14,,,,,,1.5,0.8,1.2*3E
$GPGSA,A,3,65,75,66,72,74,,,,,,,,1.5,0.8,1.2*3A

$GPRMC,090636.00,A,5629.5667,N,08456.8900,E,07.120,359.3,260214,,,A*6B
$GPGGA,090636.00,5629.5667,N,08456.8900,E,1,12,0.8,60.6,M,,M,,*47
$GPGSA,A,3,32,23,25,20,31,01,14,,,,,,1.5,0.8,1.2*3E
$GPGSA,A,3,65,75,66,72,74,,,,,,,,1.5,0.8,1.2*3A
$GPGSV,5,1,10,0
1,12,244,35,04,08,341,32,12,07,025,15,14,23,103,21*73
$GPGSV,5,2,10,20,50,277,37,23,23,282,41,25,32,052,29,29,03,081,*78
$GPGSV,5,3,10,31,78,109,48,32,57,204,43*75
$GPGSV,5,4,8,65,79,236,37,66,32,316,39,72,31,151,31,73,02,040,*43
$GPGSV,5,5,8,74,51,046
,35,75,68,205,37,76,13,216,31,83,11,041,*47

$GPRMC,090638.00,A,5629.5709,N,08456.8889,E,07.856,352.9,260214,,,A*65
$GPGGA,090638.00,5629.5709,N,08456.8889,E,1,12,0.8,60.9,M,,M,,*4F
$GPGSA,A,3,32,23,25,20,31,01,14,,,,,,1.5,0.8,1.2*3E
$GPGSA,A,3,65,75,66,72,74,,,,,,,,1.5,0.8,1.2*3A

$GPRMC,090639.00,A,5629.5732,N,08456.8883,E,08.666,353.6,260214,,,A*6A
$GPGGA,090639.00,5629.5732,N,08456.8883,E,1,12,0.8,61.5,M,,M,,*41
$GPGSA,A,3,32,23,25,20,31,01,14,,,,,,1.5,0.8,1.2*3E
$GPGSA,A,3,65,75,66,72,74,,,,,,,,1.5,0.8,1.2*3A

$GPRMC,090640.00,A,5629.5758,N,08456.8881,E,09.479,358.9,260214,,,A*63
$GPGGA,090640.00,5629.5758,N,08456.8881,E,1,13,0.7,61.0,M,,M,,*4A
$GPGSA,A,3,32,23,25,20,31,01,14,12,,,,,1.3,0.7,1.1*37
$GPGSA,A,3,65,75,66,72,74,,,,,,,,1.3,0.7,1.1*30

$GPRMC,090641.00,A,5629.5784,N,08456.8877,E,09.205,357.5,260214,,,A*64
$GPGGA,090641.00,5629.5784,N,08456.8877,E,1,13,0.7,61.3,M,,M,,*40
$GPGSA,A,3,32,23,25,20,31,01,14,12,,,,,1.3,0.7,1.1*37
$GPGSA,A,3,65,75,66,72,74,,,,,,,,1.3,0.7,1.1*30
$GPGSV,5,1,10
,01,12,244,44,04,08,341,24,12,07,025,23,14,23,103,25*73
$GPGSV,5,2,10,20,50,277,36,23,23,282,36,25,32,052,24,29,03,081,*74
$GPGSV,5,3,10,31,78,109,46,32,57,204,46*7E
$GPGSV,5,4,8,65,79,236,37,66,32,316,37,72,31,151,32,73,02,040,*4E
$GPGSV,5,5,8,74,51,0
46,30,75,68,205,38,76,13,216,34,83,11,041,*48

$GPRMC,090643.00,A,5629.5837,N,08456.8875,E,09.922,359.0,260214,,,A*66
$GPGGA,090643.00,5629.5837,N,08456.8875,E,1,13,0.7,62.0,M,,M,,*47
$GPGSA,A,3,32,23,25,20,31,01,14,12,,,,,1.3,0.7,1.1*37
$GPGSA,A,3,65,75,66,72,74,,,,,,,,1.3,0.7,1.1*30

$GPRMC,090644.00,A,5629.5865,N,08456.8874,E,10.302,001.0,260214,,,A*69
$GPGGA,090644.00,5629.5865,N,08456.8874,E,1,13,0.7,62.5,M,,M,,*43
$GPGSA,A,3,32,23,25,20,31,01,14,12,,,,,1.3,0.7,1.1*37
$GPGSA,A,3,65,75,66,72,74,,,,,,,,1.3,0.7,1.1*30

$GPRMC,090645.00,A,5629.5892,N,08456.8873,E,10.011,000.2,260214,,,A*65
$GPGGA,090645.00,5629.5892,N,08456.8873,E,1,13,0.7,63.0,M,,M,,*49
$GPGSA,A,3,32,23,25,20,31,01,14,12,,,,,1.3,0.7,1.1*37
$GPGSA,A,3,65,75,66,72,74,,,,,,,,1.3,0.7,1.1*30

$GPRMC,090646.00,A,5629.5922,N,08456.8872,E,10.917,000.8,260214,,,A*68
$GPGGA,090646.00,5629.5922,N,08456.8872,E,1,12,0.8,63.8,M,,M,,*47
$GPGSA,A,3,32,23,25,20,31,01,14,,,,,,1.5,0.8,1.2*3E
$GPGSA,A,3,65,75,66,72,74,,,,,,,,1.5,0.8,1.2*3A
$GPGSV,5,1,10,0
1,12,244,42,04,08,341,24,12,07,025,15,14,23,103,21*74
$GPGSV,5,2,10,20,50,277,36,23,23,282,38,25,32,052,31,29,03,081,*7E
$GPGSV,5,3,10,31,78,109,43,32,57,204,46*7B
$GPGSV,5,4,8,65,79,236,34,66,33,316,37,72,31,151,35,73,02,040,*4B
$GPGSV,5,5,8,74,51,046
,35,75,68,205,36,76,13,216,29,83,11,041,*4F

$GPRMC,090648.00,A,5629.5989,N,08456.8874,E,12.677,003.0,260214,,,A*61
$GPGGA,090648.00,5629.5989,N,08456.8874,E,1,12,0.8,65.0,M,,M,,*40
$GPGSA,A,3,32,23,25,20,31,01,14,,,,,,1.5,0.8,1.2*3E
$GPGSA,A,3,65,75,66,72,74,,,,,,,,1.5,0.8,1.2*3A

$GPRMC,090649.00,A,5629.6027,N,08456.8873,E,13.595,001.5,260214,,,A*60
$GPGGA,090649.00,5629.6027,N,08456.8873,E,1,12,0.8,64.9,M,,M,,*40
$GPGSA,A,3,32,23,25,20,31,01,14,,,,,,1.5,0.8,1.2*3E
$GPGSA,A,3,65,75,66,72,74,,,,,,,,1.5,0.8,1.2*3A

$GPRMC,090650.00,A,5629.6066,N,08456.8873,E,13.826,002.0,260214,,,A*6E
$GPGGA,090650.00,5629.6066,N,08456.8873,E,1,12,0.8,64.8,M,,M,,*4C
$GPGSA,A,3,32,23,25,20,31,01,14,,,,,,1.5,0.8,1.2*3E
$GPGSA,A,3,65,75,66,72,74,,,,,,,,1.5,0.8,1.2*3A

$GPRMC,090651.00,A,5629.6107,N,08456.8872,E,14.461,000.2,260214,,,A*60
$GPGGA,090651.00,5629.6107,N,08456.8872,E,1,12,0.8,64.6,M,,M,,*44
$GPGSA,A,3,32,23,25,20,31,01,14,,,,,,1.5,0.8,1.2*3E
$GPGSA,A,3,65,75,66,72,74,,,,,,,,1.5,0.8,1.2*3A
$GPGSV,5,1,10,0
1,12,244,36,04,08,341,29,12,07,025,15,14,23,103,33*79
$GPGSV,5,2,10,20,50,277,35,23,23,282,39,25,32,052,32,29,03,081,*7F
$GPGSV,5,3,10,31,78,109,45,32,57,204,43*78
$GPGSV,5,4,8,65,79,236,35,66,33,316,35,72,31,151,32,73,02,041,*4E
$GPGSV,5,5,8,74,51,046
,35,75,68,205,37,76,13,216,37,83,11,041,*41

$GPRMC,090653.00,A,5629.6193,N,08456.8876,E,15.865,001.1,260214,,,A*60
$GPGGA,090653.00,5629.6193,N,08456.8876,E,1,12,0.8,64.7,M,,M,,*4E
$GPGSA,A,3,32,23,25,20,31,01,14,,,,,,1.5,0.8,1.2*3E
$GPGSA,A,3,65,75,66,72,74,,,,,,,,1.5,0.8,1.2*3A

$GPRMC,090654.00,A,5629.6239,N,08456.8877,E,17.093,359.2,260214,,,A*6B
$GPGGA,090654.00,5629.6239,N,08456.8877,E,1,13,0.7,64.2,M,,M,,*40
$GPGSA,A,3,32,23,25,20,31,01,14,12,,,,,1.3,0.7,1.1*37
$GPGSA,A,3,65,75,66,72,74,,,,,,,,1.3,0.7,1.1*30

$GPRMC,090655.00,A,5629.6284,N,08456.8879,E,16.313,001.4,260214,,,A*60
$GPGGA,090655.00,5629.6284,N,08456.8879,E,1,13,0.7,64.3,M,,M,,*48
$GPGSA,A,3,32,23,25,20,31,01,14,12,,,,,1.3,0.7,1.1*37
$GPGSA,A,3,65,75,66,72,74,,,,,,,,1.3,0.7,1.1*30

$GPRMC,090656.00,A,5629.6334,N,08456.8879,E,17.868,359.1,260214,,,A*64
$GPGGA,090656.00,5629.6334,N,08456.8879,E,1,13,0.7,63.4,M,,M,,*41
$GPGSA,A,3,32,23,25,20,31,01,14,12,,,,,1.3,0.7,1.1*37
$GPGSA,A,3,65,75,66,72,74,,,,,,,,1.3,0.7,1.1*30
$GPGSV,5,1,10
,01,12,244,31,04,08,341,18,12,06,025,23,14,23,103,31*7A
$GPGSV,5,2,10,20,50,277,37,23,23,282,29,25,32,052,32,29,03,081,*7C
$GPGSV,5,3,10,31,78,108,42,32,57,204,47*7A
$GPGSV,5,4,8,65,79,235,32,66,33,316,31,72,31,151,36,73,02,041,*4A
$GPGSV,5,5,8,74,51,0
46,31,75,68,205,33,76,13,216,34,83,11,041,*42

$GPRMC,090658.00,A,5629.6431,N,08456.8887,E,18.511,000.3,260214,,,A*68
$GPGGA,090658.00,5629.6431,N,08456.8887,E,1,13,0.7,63.6,M,,M,,*4E
$GPGSA,A,3,32,23,25,20,31,01,14,12,,,,,1.3,0.7,1.1*37
$GPGSA,A,3,65,75,66,72,74,,,,,,,,1.3,0.7,1.1*30

$GPRMC,090659.00,A,5629.6480,N,08456.8892,E,17.719,001.7,260214,,,A*67
$GPGGA,090659.00,5629.6480,N,08456.8892,E,1,13,0.7,64.0,M,,M,,*40
$GPGSA,A,3,32,23,25,20,31,01,14,12,,,,,1.3,0.7,1.1*37
$GPGSA,A,3,65,75,66,72,74,,,,,,,,1.3,0.7,1.1*30

$GPRMC,090700.00,A,5629.6531,N,08456.8894,E,18.281,000.5,260214,,,A*6F
$GPGGA,090700.00,5629.6531,N,08456.8894,E,1,13,0.7,63.6,M,,M,,*41
$GPGSA,A,3,32,23,25,20,31,01,14,12,,,,,1.3,0.7,1.1*37
$GPGSA,A,3,65,75,66,72,74,,,,,,,,1.3,0.7,1.1*30

$GPRMC,090701.00,A,5629.6582,N,08456.8897,E,18.064,001.1,260214,,,A*69
$GPGGA,090701.00,5629.6582,N,08456.8897,E,1,13,0.7,63.5,M,,M,,*48
$GPGSA,A,3,32,23,25,20,31,01,14,12,,,,,1.3,0.7,1.1*37
$GPGSA,A,3,65,75,66,72,74,,,,,,,,1.3,0.7,1.1*30
$GPGSV,5,1,10
,01,12,244,18,04,08,341,15,12,06,025,26,14,23,103,31*79
$GPGSV,5,2,10,20,50,277,33,23,23,282,34,25,32,052,28,29,03,081,*7F
$GPGSV,5,3,10,31,78,108,44,32,57,204,45*7E
$GPGSV,5,4,8,65,79,235,34,66,33,316,37,72,31,151,35,73,02,041,*49
$GPGSV,5,5,8,74,51,0
46,32,75,68,205,34,76,13,217,16,83,11,041,22*47

$GPRMC,090703.00,A,5629.6684,N,08456.8902,E,18.212,001.9,260214,,,A*68
$GPGGA,090703.00,5629.6684,N,08456.8902,E,1,13,0.7,62.8,M,,M,,*4E
$GPGSA,A,3,32,23,25,20,31,01,14,12,,,,,1.3,0.7,1.1*37
$GPGSA,A,3,65,75,66,72,74,,,,,,,,1.3,0.7,1.1*30

$GPRMC,090704.00,A,5629.6735,N,08456.8907,E,18.338,001.9,260214,,,A*68
$GPGGA,090704.00,5629.6735,N,08456.8907,E,1,13,0.7,62.7,M,,M,,*48
$GPGSA,A,3,32,23,25,20,31,01,14,12,,,,,1.3,0.7,1.1*37
$GPGSA,A,3,65,75,66,72,74,,,,,,,,1.3,0.7,1.1*30

$GPRMC,090705.00,A,5629.6785,N,08456.8912,E,18.010,002.2,260214,,,A*67
$GPGGA,090705.00,5629.6785,N,08456.8912,E,1,13,0.7,62.8,M,,M,,*49
$GPGSA,A,3,32,23,25,20,31,01,14,12,,,,,1.3,0.7,1.1*37
$GPGSA,A,3,65,75,66,72,74,,,,,,,,1.3,0.7,1.1*30

$GPRMC,090706.00,A,5629.6835,N,08456.8916,E,17.980,001.5,260214,,,A*6F
$GPGGA,090706.00,5629.6835,N,08456.8916,E,1,12,0.8,62.9,M,,M,,*45
$GPGSA,A,3,32,23,25,20,31,01,14,,,,,,1.5,0.8,1.2*3E
$GPGSA,A,3,65,75,66,72,74,,,,,,,,1.5,0.8,1.2*3A
$GPGSV,5,1,10,0
1,12,244,26,04,08,341,19,12,06,025,16,14,23,103,41*7C
$GPGSV,5,2,10,20,50,276,32,23,23,282,31,25,32,052,37,29,03,081,19*7C
$GPGSV,5,3,10,31,78,108,45,32,57,204,46*7C
$GPGSV,5,4,8,65,79,235,36,66,33,316,26,72,31,151,35,73,02,041,*4B
$GPGSV,5,5,8,74,51,0
46,33,75,68,205,35,76,13,217,34,83,11,041,*47

$GPRMC,090708.00,A,5629.6934,N,08456.8923,E,17.839,001.2,260214,,,A*63
$GPGGA,090708.00,5629.6934,N,08456.8923,E,1,12,0.8,62.8,M,,M,,*4C
$GPGSA,A,3,32,23,25,20,31,01,14,,,,,,1.5,0.8,1.2*3E
$GPGSA,A,3,65,75,66,72,74,,,,,,,,1.5,0.8,1.2*3A

$GPRMC,090709.00,A,5629.6984,N,08456.8924,E,17.711,000.7,260214,,,A*6F
$GPGGA,090709.00,5629.6984,N,08456.8924,E,1,12,0.8,62.6,M,,M,,*4F
$GPGSA,A,3,32,23,25,20,31,01,14,,,,,,1.5,0.8,1.2*3E
$GPGSA,A,3,65,75,66,72,74,,,,,,,,1.5,0.8,1.2*3A

$GPRMC,090710.00,A,5629.7035,N,08456.8925,E,17.905,001.0,260214,,,A*69
$GPGGA,090710.00,5629.7035,N,08456.8925,E,1,12,0.8,62.3,M,,M,,*41
$GPGSA,A,3,32,23,25,20,31,01,14,,,,,,1.5,0.8,1.2*3E
$GPGSA,A,3,65,75,66,72,74,,,,,,,,1.5,0.8,1.2*3A

$GPRMC,090711.00,A,5629.7087,N,08456.8926,E,18.152,000.8,260214,,,A*6E
$GPGGA,090711.00,5629.7087,N,08456.8926,E,1,12,0.8,62.0,M,,M,,*49
$GPGSA,A,3,32,23,25,20,31,01,14,,,,,,1.5,0.8,1.2*3E
$GPGSA,A,3,65,75,66,72,74,,,,,,,,1.5,0.8,1.2*3A
$GPGSV,5,1,10,0
1,12,244,21,04,08,341,19,12,06,025,15,14,23,103,37*79
$GPGSV,5,2,10,20,50,276,36,23,23,282,31,25,32,052,35,29,03,081,*72
$GPGSV,5,3,10,31,78,108,44,32,57,204,47*7C
$GPGSV,5,4,8,65,79,235,35,66,33,316,37,72,31,151,32,73,02,041,*4F
$GPGSV,5,5,8,74,51,046
,32,75,68,205,34,76,13,217,16,83,11,041,20*45

$GPRMC,090713.00,A,5629.7189,N,08456.8928,E,18.208,000.6,260214,,,A*6F
$GPGGA,090713.00,5629.7189,N,08456.8928,E,1,12,0.8,61.7,M,,M,,*4E
$GPGSA,A,3,32,23,25,20,31,01,14,,,,,,1.5,0.8,1.2*3E
$GPGSA,A,3,65,75,66,72,74,,,,,,,,1.5,0.8,1.2*3A

$GPRMC,090714.00,A,5629.7239,N,08456.8930,E,17.755,000.9,260214,,,A*64
$GPGGA,090714.00,5629.7239,N,08456.8930,E,1,12,0.8,61.8,M,,M,,*47
$GPGSA,A,3,32,23,25,20,31,01,14,,,,,,1.5,0.8,1.2*3E
$GPGSA,A,3,65,75,66,72,74,,,,,,,,1.5,0.8,1.2*3A

$GPRMC,090715.00,A,5629.7288,N,08456.8931,E,17.388,000.9,260214,,,A*6A
$GPGGA,090715.00,5629.7288,N,08456.8931,E,1,12,0.8,61.6,M,,M,,*43
$GPGSA,A,3,32,23,25,20,31,01,14,,,,,,1.5,0.8,1.2*3E
$GPGSA,A,3,65,75,66,72,74,,,,,,,,1.5,0.8,1.2*3A

$GPRMC,090716.00,A,5629.7338,N,08456.8933,E,17.379,001.2,260214,,,A*65
$GPGGA,090716.00,5629.7338,N,08456.8933,E,1,12,0.8,61.3,M,,M,,*4D
$GPGSA,A,3,32,23,25,20,31,01,14,,,,,,1.5,0.8,1.2*3E
$GPGSA,A,3,65,75,66,72,74,,,,,,,,1.5,0.8,1.2*3A
$GPGSV,5,1,10,0
1,12,244,27,04,08,341,29,12,06,025,14,14,23,103,30*7A
$GPGSV,5,2,10,20,50,276,34,23,24,282,33,25,32,052,32,29,03,081,*72
$GPGSV,5,3,10,31,78,108,42,32,57,204,48*75
$GPGSV,5,4,8,65,79,234,35,66,33,316,35,72,31,151,34,73,02,041,*4A
$GPGSV,5,5,8,74,51,046
,33,75,68,205,33,76,13,217,15,83,11,041,*42

$GPRMC,090718.00,A,5629.7435,N,08456.8934,E,16.769,001.2,260214,,,A*62
$GPGGA,090718.00,5629.7435,N,08456.8934,E,1,12,0.8,60.9,M,,M,,*45
$GPGSA,A,3,32,23,25,20,31,01,14,,,,,,1.5,0.8,1.2*3E
$GPGSA,A,3,65,75,66,72,74,,,,,,,,1.5,0.8,1.2*3A

$GPRMC,090719.00,A,5629.7484,N,08456.8935,E,17.048,000.9,260214,,,A*67
$GPGGA,090719.00,5629.7484,N,08456.8935,E,1,12,0.8,60.8,M,,M,,*4E
$GPGSA,A,3,32,23,25,20,31,01,14,,,,,,1.5,0.8,1.2*3E
$GPGSA,A,3,65,75,66,72,74,,,,,,,,1.5,0.8,1.2*3A

$GPRMC,090720.00,A,5629.7533,N,08456.8936,E,17.267,001.3,260214,,,A*67
$GPGGA,090720.00,5629.7533,N,08456.8936,E,1,12,0.8,60.7,M,,M,,*45
$GPGSA,A,3,32,23,25,20,31,01,14,,,,,,1.5,0.8,1.2*3E
$GPGSA,A,3,65,75,66,72,74,,,,,,,,1.5,0.8,1.2*3A

$GPRMC,090721.00,A,5629.7582,N,08456.8937,E,17.230,001.5,260214,,,A*69
$GPGGA,090721.00,5629.7582,N,08456.8937,E,1,12,0.8,60.5,M,,M,,*4D
$GPGSA,A,3,32,23,25,20,31,01,14,,,,,,1.5,0.8,1.2*3E
$GPGSA,A,3,65,75,66,72,74,,,,,,,,1.5,0.8,1.2*3A
$GPGSV,5,1,10,0
1,12,244,39,04,08,341,20,12,06,025,14,14,23,103,33*7F
$GPGSV,5,2,10,20,50,276,38,23,24,282,38,25,32,052,39,29,03,081,*7E
$GPGSV,5,3,10,31,78,108,45,32,57,204,48*72
$GPGSV,5,4,8,65,79,234,37,66,33,316,38,72,31,151,35,73,02,041,*44
$GPGSV,5,5,8,74,51,046
,34,75,68,205,34,76,14,217,15,83,11,041,*45

$GPRMC,090723.00,A,5629.7676,N,08456.8939,E,16.313,001.7,260214,,,A*6E
$GPGGA,090723.00,5629.7676,N,08456.8939,E,1,12,0.8,60.3,M,,M,,*4F
$GPGSA,A,3,32,23,25,20,31,01,14,,,,,,1.5,0.8,1.2*3E
$GPGSA,A,3,65,75,66,72,74,,,,,,,,1.5,0.8,1.2*3A

$GPRMC,090724.00,A,5629.7720,N,08456.8943,E,16.064,001.7,260214,,,A*65
$GPGGA,090724.00,5629.7720,N,08456.8943,E,1,12,0.8,60.4,M,,M,,*40
$GPGSA,A,3,32,23,25,20,31,01,14,,,,,,1.5,0.8,1.2*3E
$GPGSA,A,3,65,75,66,72,74,,,,,,,,1.5,0.8,1.2*3A

$GPRMC,090725.00,A,5629.7763,N,08456.8945,E,15.793,001.6,260214,,,A*68
$GPGGA,090725.00,5629.7763,N,08456.8945,E,1,12,0.8,60.4,M,,M,,*40
$GPGSA,A,3,32,23,25,20,31,01,14,,,,,,1.5,0.8,1.2*3E
$GPGSA,A,3,65,75,66,72,74,,,,,,,,1.5,0.8,1.2*3A

$GPRMC,090726.00,A,5629.7804,N,08456.8949,E,15.135,001.7,260214,,,A*62
$GPGGA,090726.00,5629.7804,N,08456.8949,E,1,12,0.8,60.4,M,,M,,*41
$GPGSA,A,3,32,23,25,20,31,01,14,,,,,,1.5,0.8,1.2*3E
$GPGSA,A,3,65,75,66,72,74,,,,,,,,1.5,0.8,1.2*3A
$GPGSV,5,1,10,0
1,12,244,30,04,08,341,19,12,06,025,14,14,23,103,31*7E
$GPGSV,5,2,10,20,50,276,32,23,24,282,30,25,32,052,31,29,03,081,*74
$GPGSV,5,3,10,31,78,107,43,32,57,204,48*7B
$GPGSV,5,4,8,65,79,234,36,66,33,316,27,72,31,151,32,73,02,041,*4C
$GPGSV,5,5,8,74,51,046
,37,75,68,205,34,76,14,217,31,83,11,041,26*44

$GPRMC,090728.00,A,5629.7884,N,08456.8956,E,14.794,001.0,260214,,,A*61
$GPGGA,090728.00,5629.7884,N,08456.8956,E,1,12,0.8,61.0,M,,M,,*4C
$GPGSA,A,3,32,23,25,20,31,01,14,,,,,,1.5,0.8,1.2*3E
$GPGSA,A,3,65,75,66,72,74,,,,,,,,1.5,0.8,1.2*3A

$GPRMC,090729.00,A,5629.7925,N,08456.8960,E,14.953,001.4,260214,,,A*6E
$GPGGA,090729.00,5629.7925,N,08456.8960,E,1,12,0.8,61.2,M,,M,,*40
$GPGSA,A,3,32,23,25,20,31,01,14,,,,,,1.5,0.8,1.2*3E
$GPGSA,A,3,65,75,66,72,74,,,,,,,,1.5,0.8,1.2*3A

$GPRMC,090730.00,A,5629.7966,N,08456.8962,E,15.125,001.2,260214,,,A*6D
$GPGGA,090730.00,5629.7966,N,08456.8962,E,1,12,0.8,61.5,M,,M,,*4A
$GPGSA,A,3,32,23,25,20,31,01,14,,,,,,1.5,0.8,1.2*3E
$GPGSA,A,3,65,75,66,72,74,,,,,,,,1.5,0.8,1.2*3A

$GPRMC,090731.00,A,5629.8006,N,08456.8966,E,14.836,001.8,260214,,,A*68
$GPGGA,090731.00,5629.8006,N,08456.8966,E,1,12,0.8,61.8,M,,M,,*42
$GPGSA,A,3,32,23,25,20,31,01,14,,,,,,1.5,0.8,1.2*3E
$GPGSA,A,3,65,75,66,72,74,,,,,,,,1.5,0.8,1.2*3A
$GPGSV,5,1,10,0
1,12,244,19,04,08,341,18,12,06,025,10,14,23,103,32*73
$GPGSV,5,2,10,20,50,276,29,23,24,282,20,25,32,052,34,29,03,081,*7A
$GPGSV,5,3,10,31,78,107,44,32,57,204,47*73
$GPGSV,5,4,8,65,79,234,35,66,33,316,38,72,31,151,37,73,02,041,*44
$GPGSV,5,5,8,74,51,046
,34,75,68,205,35,76,14,217,16,83,11,040,19*4E

$GPRMC,090733.00,A,5629.8082,N,08456.8969,E,13.673,001.4,260214,,,A*6D
$GPGGA,090733.00,5629.8082,N,08456.8969,E,1,12,0.8,62.0,M,,M,,*48
$GPGSA,A,3,32,23,25,20,31,01,14,,,,,,1.5,0.8,1.2*3E
$GPGSA,A,3,65,75,66,72,74,,,,,,,,1.5,0.8,1.2*3A

$GPRMC,090734.00,A,5629.8118,N,08456.8969,E,12.726,000.7,260214,,,A*6A
$GPGGA,090734.00,5629.8118,N,08456.8969,E,1,12,0.8,61.7,M,,M,,*49
$GPGSA,A,3,32,23,25,20,31,01,14,,,,,,1.5,0.8,1.2*3E
$GPGSA,A,3,65,75,66,72,74,,,,,,,,1.5,0.8,1.2*3A

$GPRMC,090735.00,A,5629.8149,N,08456.8970,E,11.129,002.9,260214,,,A*61
$GPGGA,090735.00,5629.8149,N,08456.8970,E,1,12,0.8,61.6,M,,M,,*45
$GPGSA,A,3,32,23,25,20,31,01,14,,,,,,1.5,0.8,1.2*3E
$GPGSA,A,3,65,75,66,72,74,,,,,,,,1.5,0.8,1.2*3A

$GPRMC,090736.00,A,5629.8178,N,08456.8971,E,10.082,001.4,260214,,,A*6E
$GPGGA,090736.00,5629.8178,N,08456.8971,E,1,12,0.8,61.4,M,,M,,*47
$GPGSA,A,3,32,23,25,20,31,01,14,,,,,,1.5,0.8,1.2*3E
$GPGSA,A,3,65,75,66,72,74,,,,,,,,1.5,0.8,1.2*3A
$GPGSV,5,1,10,0
1,12,244,29,04,08,341,19,12,06,025,11,14,23,103,30*72
$GPGSV,5,2,10,20,50,276,35,23,24,282,43,25,32,052,30,29,03,081,*76
$GPGSV,5,3,10,31,78,107,43,32,57,204,47*74
$GPGSV,5,4,8,65,79,234,35,66,33,316,39,72,31,151,33,73,02,041,*41
$GPGSV,5,5,8,74,51,046
,32,75,68,205,34,76,14,217,17,83,11,040,27*45

$GPRMC,090738.00,A,5629.8228,N,08456.8972,E,08.567,001.1,260214,,,A*67
$GPGGA,090738.00,5629.8228,N,08456.8972,E,1,12,0.8,61.2,M,,M,,*4A
$GPGSA,A,3,32,23,25,20,31,01,14,,,,,,1.5,0.8,1.2*3E
$GPGSA,A,3,65,75,66,72,74,,,,,,,,1.5,0.8,1.2*3A

$GPRMC,090739.00,A,5629.8250,N,08456.8971,E,07.774,001.3,260214,,,A*67
$GPGGA,090739.00,5629.8250,N,08456.8971,E,1,13,0.7,60.9,M,,M,,*43
$GPGSA,A,3,32,23,25,20,31,01,14,12,,,,,1.3,0.7,1.1*37
$GPGSA,A,3,65,75,66,72,74,,,,,,,,1.3,0.7,1.1*30

$GPRMC,090740.00,A,5629.8270,N,08456.8971,E,07.679,001.1,260214,,,A*65
$GPGGA,090740.00,5629.8270,N,08456.8971,E,1,13,0.7,60.5,M,,M,,*43
$GPGSA,A,3,32,23,25,20,31,01,14,12,,,,,1.3,0.7,1.1*37
$GPGSA,A,3,65,75,66,72,74,,,,,,,,1.3,0.7,1.1*30

$GPRMC,090741.00,A,5629.8291,N,08456.8970,E,07.697,001.1,260214,,,A*6A
$GPGGA,090741.00,5629.8291,N,08456.8970,E,1,13,0.7,60.1,M,,M,,*48
$GPGSA,A,3,32,23,25,20,31,01,14,12,,,,,1.3,0.7,1.1*37
$GPGSA,A,3,65,75,66,72,74,,,,,,,,1.3,0.7,1.1*30
$GPGSV,5,1,10
,01,12,244,29,04,08,341,19,12,06,025,28,14,23,103,40*7F
$GPGSV,5,2,10,20,50,276,38,23,24,282,33,25,32,052,23,29,03,081,*7E
$GPGSV,5,3,10,31,78,107,40,32,57,204,48*78
$GPGSV,5,4,8,65,79,233,33,66,33,316,37,72,31,151,35,73,02,041,*48
$GPGSV,5,5,8,74,50,0
46,30,75,69,205,32,76,14,217,16,83,11,040,27*40

$GPRMC,090743.00,A,5629.8330,N,08456.8972,E,06.914,000.9,260214,,,A*6C
$GPGGA,090743.00,5629.8330,N,08456.8972,E,1,13,0.7,59.4,M,,M,,*4D
$GPGSA,A,3,32,23,25,20,31,01,14,12,,,,,1.3,0.7,1.1*37
$GPGSA,A,3,65,75,66,72,74,,,,,,,,1.3,0.7,1.1*30

$GPRMC,090744.00,A,5629.8348,N,08456.8973,E,06.432,001.2,260214,,,A*66
$GPGGA,090744.00,5629.8348,N,08456.8973,E,1,13,0.7,59.0,M,,M,,*40
$GPGSA,A,3,32,23,25,20,31,01,14,12,,,,,1.3,0.7,1.1*37
$GPGSA,A,3,65,75,66,72,74,,,,,,,,1.3,0.7,1.1*30

$GPRMC,090745.00,A,5629.8365,N,08456.8975,E,06.396,001.1,260214,,,A*64
$GPGGA,090745.00,5629.8365,N,08456.8975,E,1,13,0.7,58.8,M,,M,,*41
$GPGSA,A,3,32,23,25,20,31,01,14,12,,,,,1.3,0.7,1.1*37
$GPGSA,A,3,65,75,66,72,74,,,,,,,,1.3,0.7,1.1*30

$GPRMC,090746.00,A,5629.8383,N,08456.8977,E,06.998,001.8,260214,,,A*60
$GPGGA,090746.00,5629.8383,N,08456.8977,E,1,13,0.7,58.8,M,,M,,*48
$GPGSA,A,3,32,23,25,20,31,01,14,12,,,,,1.3,0.7,1.1*37
$GPGSA,A,3,65,75,66,72,74,,,,,,,,1.3,0.7,1.1*30
$GPGSV,5,1,10
,01,12,244,33,04,08,341,16,12,06,025,26,14,23,103,32*70
$GPGSV,5,2,10,20,50,276,31,23,24,282,33,25,32,052,29,29,03,081,*7D
$GPGSV,5,3,10,31,78,107,43,32,57,204,47*74
$GPGSV,5,4,8,65,79,233,36,66,33,316,35,72,31,151,34,73,02,041,*4E
$GPGSV,5,5,8,74,50,0
46,26,75,69,205,34,76,14,217,37,83,11,040,24*41

$GPRMC,090748.00,A,5629.8424,N,08456.8980,E,07.789,001.5,260214,,,A*6E
$GPGGA,090748.00,5629.8424,N,08456.8980,E,1,13,0.7,59.5,M,,M,,*48
$GPGSA,A,3,32,23,25,20,31,01,14,12,,,,,1.3,0.7,1.1*37
$GPGSA,A,3,65,75,66,72,74,,,,,,,,1.3,0.7,1.1*30

$GPRMC,090749.00,A,5629.8446,N,08456.8981,E,08.495,000.7,260214,,,A*68
$GPGGA,090749.00,5629.8446,N,08456.8981,E,1,13,0.7,60.2,M,,M,,*41
$GPGSA,A,3,32,23,25,20,31,01,14,12,,,,,1.3,0.7,1.1*37
$GPGSA,A,3,65,75,66,72,74,,,,,,,,1.3,0.7,1.1*30

$GPRMC,090750.00,A,5629.8471,N,08456.8981,E,09.381,000.5,260214,,,A*65
$GPGGA,090750.00,5629.8471,N,08456.8981,E,1,13,0.7,60.5,M,,M,,*4A
$GPGSA,A,3,32,23,25,20,31,01,14,12,,,,,1.3,0.7,1.1*37
$GPGSA,A,3,65,75,66,72,74,,,,,,,,1.3,0.7,1.1*30

$GPRMC,090751.00,A,5629.8499,N,08456.8982,E,10.164,000.4,260214,,,A*61
$GPGGA,090751.00,5629.8499,N,08456.8982,E,1,13,0.7,60.9,M,,M,,*42
$GPGSA,A,3,32,23,25,20,31,01,14,12,,,,,1.3,0.7,1.1*37
$GPGSA,A,3,65,75,66,72,74,,,,,,,,1.3,0.7,1.1*30
$GPGSV,5,1,10
,01,12,244,35,04,08,341,27,12,06,025,28,14,23,103,17*7D
$GPGSV,5,2,10,20,50,276,33,23,24,282,34,25,32,052,32,29,03,081,*72
$GPGSV,5,3,10,31,77,107,41,32,57,203,46*7F
$GPGSV,5,4,8,65,79,232,35,66,33,316,32,72,31,151,27,73,02,041,*49
$GPGSV,5,5,8,74,50,0
46,28,75,69,205,37,76,14,217,29,83,11,040,28*4F

$GPRMC,090753.00,A,5629.8560,N,08456.8983,E,11.275,000.7,260214,,,A*64
$GPGGA,090753.00,5629.8560,N,08456.8983,E,1,13,0.7,62.0,M,,M,,*4D
$GPGSA,A,3,32,23,25,20,31,01,14,12,,,,,1.3,0.7,1.1*37
$GPGSA,A,3,65,75,66,72,74,,,,,,,,1.3,0.7,1.1*30

$GPRMC,090754.00,A,5629.8592,N,08456.8984,E,11.629,001.2,260214,,,A*60
$GPGGA,090754.00,5629.8592,N,08456.8984,E,1,13,0.7,62.8,M,,M,,*48
$GPGSA,A,3,32,23,25,20,31,01,14,12,,,,,1.3,0.7,1.1*37
$GPGSA,A,3,65,75,66,72,74,,,,,,,,1.3,0.7,1.1*30

$GPRMC,090755.00,A,5629.8625,N,08456.8985,E,11.822,001.3,260214,,,A*6B
$GPGGA,090755.00,5629.8625,N,08456.8985,E,1,13,0.7,63.5,M,,M,,*4B
$GPGSA,A,3,32,23,25,20,31,01,14,12,,,,,1.3,0.7,1.1*37
$GPGSA,A,3,65,75,66,72,74,,,,,,,,1.3,0.7,1.1*30

$GPRMC,090756.00,A,5629.8657,N,08456.8987,E,11.697,001.6,260214,,,A*6A
$GPGGA,090756.00,5629.8657,N,08456.8987,E,1,13,0.7,63.7,M,,M,,*4D
$GPGSA,A,3,32,23,25,20,31,01,14,12,,,,,1.3,0.7,1.1*37
$GPGSA,A,3,65,75,66,72,74,,,,,,,,1.3,0.7,1.1*30
$GPGSV,5,1,10
,01,12,244,32,04,08,341,29,12,06,025,27,14,22,103,27*79
$GPGSV,5,2,10,20,50,276,30,23,24,282,30,25,32,052,29,29,03,081,*7F
$GPGSV,5,3,10,31,77,107,40,32,57,203,48*70
$GPGSV,5,4,8,65,79,232,37,66,33,316,25,72,31,151,24,73,02,041,*4E
$GPGSV,5,5,8,74,50,0
46,33,75,69,205,33,76,14,217,28,83,11,040,19*42

$GPRMC,090758.00,A,5629.8714,N,08456.9003,E,10.420,009.0,260214,,,A*67
$GPGGA,090758.00,5629.8714,N,08456.9003,E,1,13,0.7,64.9,M,,M,,*48
$GPGSA,A,3,32,23,25,20,31,01,14,12,,,,,1.3,0.7,1.1*37
$GPGSA,A,3,65,75,66,72,74,,,,,,,,1.3,0.7,1.1*30

$GPRMC,090759.00,A,5629.8739,N,08456.9015,E,10.132,011.9,260214,,,A*68
$GPGGA,090759.00,5629.8739,N,08456.9015,E,1,13,0.7,68.4,M,,M,,*40
$GPGSA,A,3,32,23,25,20,31,01,14,12,,,,,1.3,0.7,1.1*37
$GPGSA,A,3,65,75,66,72,74,,,,,,,,1.3,0.7,1.1*30

$GPRMC,090800.00,A,5629.8759,N,08456.9040,E,09.543,019.3,260214,,,A*65
$GPGGA,090800.00,5629.8759,N,08456.9040,E,1,13,0.7,69.9,M,,M,,*49
$GPGSA,A,3,32,23,25,20,31,01,14,12,,,,,1.3,0.7,1.1*37
$GPGSA,A,3,65,75,66,72,74,,,,,,,,1.3,0.7,1.1*30

$GPRMC,090801.00,A,5629.8777,N,08456.9066,E,08.906,022.5,260214,,,A*6E
$GPGGA,090801.00,5629.8777,N,08456.9066,E,1,13,0.7,71.7,M,,M,,*47
$GPGSA,A,3,32,23,25,20,31,01,14,12,,,,,1.3,0.7,1.1*37
$GPGSA,A,3,65,75,66,72,74,,,,,,,,1.3,0.7,1.1*30
$GPGSV,5,1,10
,01,12,244,29,04,08,341,32,12,06,025,33,14,22,103,31*7B
$GPGSV,5,2,10,20,50,276,34,23,24,282,25,25,32,051,30,29,03,081,*74
$GPGSV,5,3,10,31,77,106,43,32,57,203,46*7C
$GPGSV,5,4,8,65,79,232,36,66,33,316,28,72,31,151,36,73,02,041,*41
$GPGSV,5,5,8,74,50,0
46,34,75,69,205,33,76,14,217,30,83,11,040,27*41

$GPRMC,090803.00,A,5629.8831,N,08456.9077,E,08.981,013.2,260214,,,A*6B
$GPGGA,090803.00,5629.8831,N,08456.9077,E,1,13,0.7,73.0,M,,M,,*4D
$GPGSA,A,3,32,23,25,20,31,01,14,12,,,,,1.3,0.7,1.1*37
$GPGSA,A,3,65,75,66,72,74,,,,,,,,1.3,0.7,1.1*30

$GPRMC,090804.00,A,5629.8862,N,08456.9079,E,10.148,007.5,260214,,,A*62
$GPGGA,090804.00,5629.8862,N,08456.9079,E,1,13,0.7,73.5,M,,M,,*47
$GPGSA,A,3,32,23,25,20,31,01,14,12,,,,,1.3,0.7,1.1*37
$GPGSA,A,3,65,75,66,72,74,,,,,,,,1.3,0.7,1.1*30

$GPRMC,090805.00,A,5629.8891,N,08456.9084,E,10.596,006.6,260214,,,A*68
$GPGGA,090805.00,5629.8891,N,08456.9084,E,1,13,0.7,74.7,M,,M,,*4D
$GPGSA,A,3,32,23,25,20,31,01,14,12,,,,,1.3,0.7,1.1*37
$GPGSA,A,3,65,75,66,72,74,,,,,,,,1.3,0.7,1.1*30

$GPRMC,090806.00,A,5629.8922,N,08456.9089,E,11.135,004.8,260214,,,A*6F
$GPGGA,090806.00,5629.8922,N,08456.9089,E,1,13,0.7,75.7,M,,M,,*4B
$GPGSA,A,3,32,23,25,20,31,01,14,12,,,,,1.3,0.7,1.1*37
$GPGSA,A,3,65,75,66,72,74,,,,,,,,1.3,0.7,1.1*30
$GPGSV,5,1,10
,01,12,244,17,04,08,341,31,12,06,025,23,14,22,103,30*75
$GPGSV,5,2,10,20,50,276,35,23,24,282,29,25,32,051,34,29,03,081,*7D
$GPGSV,5,3,10,31,77,106,44,32,57,203,47*7A
$GPGSV,5,4,8,65,79,232,36,66,33,316,38,72,31,151,37,73,02,041,*41
$GPGSV,5,5,8,74,50,0
46,32,75,69,205,38,76,14,217,28,83,11,040,31*42

$GPRMC,090808.00,A,5629.8993,N,08456.9086,E,11.727,002.8,260214,,,A*67
$GPGGA,090808.00,5629.8993,N,08456.9086,E,1,13,0.7,75.2,M,,M,,*45
$GPGSA,A,3,32,23,25,20,31,01,14,12,,,,,1.3,0.7,1.1*37
$GPGSA,A,3,65,75,66,72,74,,,,,,,,1.3,0.7,1.1*30

$GPRMC,090809.00,A,5629.9030,N,08456.9082,E,11.656,002.2,260214,,,A*6E
$GPGGA,090809.00,5629.9030,N,08456.9082,E,1,13,0.7,75.1,M,,M,,*42
$GPGSA,A,3,32,23,25,20,31,01,14,12,,,,,1.3,0.7,1.1*37
$GPGSA,A,3,65,75,66,72,74,,,,,,,,1.3,0.7,1.1*30

$GPRMC,090810.00,A,5629.9068,N,08456.9077,E,11.760,001.7,260214,,,A*63
$GPGGA,090810.00,5629.9068,N,08456.9077,E,1,13,0.7,74.9,M,,M,,*44
$GPGSA,A,3,32,23,25,20,31,01,14,12,,,,,1.3,0.7,1.1*37
$GPGSA,A,3,65,75,66,72,74,,,,,,,,1.3,0.7,1.1*30

$GPRMC,090811.00,A,5629.9107,N,08456.9070,E,12.057,001.6,260214,,,A*6C
$GPGGA,090811.00,5629.9107,N,08456.9070,E,1,13,0.7,74.6,M,,M,,*45
$GPGSA,A,3,32,23,25,20,31,01,14,12,,,,,1.3,0.7,1.1*37
$GPGSA,A,3,65,75,66,72,74,,,,,,,,1.3,0.7,1.1*30
$GPGSV,5,1,10
,01,12,244,19,04,08,341,37,12,06,025,17,14,22,103,31*7B
$GPGSV,5,2,10,20,50,276,36,23,24,282,41,25,32,051,40,29,03,081,*73
$GPGSV,5,3,10,31,77,106,41,32,57,203,48*70
$GPGSV,5,4,8,65,79,231,36,66,33,316,36,72,31,151,37,73,02,041,*4C
$GPGSV,5,5,8,74,50,0
46,34,75,69,205,34,76,14,217,18,83,11,040,34*4E

$GPRMC,090813.00,A,5629.9188,N,08456.9061,E,13.080,001.6,260214,,,A*62
$GPGGA,090813.00,5629.9188,N,08456.9061,E,1,13,0.7,73.4,M,,M,,*45
$GPGSA,A,3,32,23,25,20,31,01,14,12,,,,,1.3,0.7,1.1*37
$GPGSA,A,3,65,75,66,72,74,,,,,,,,1.3,0.7,1.1*30

$GPRMC,090814.00,A,5629.9227,N,08456.9059,E,13.313,001.3,260214,,,A*64
$GPGGA,090814.00,5629.9227,N,08456.9059,E,1,13,0.7,72.9,M,,M,,*43
$GPGSA,A,3,32,23,25,20,31,01,14,12,,,,,1.3,0.7,1.1*37
$GPGSA,A,3,65,75,66,72,74,,,,,,,,1.3,0.7,1.1*30

$GPRMC,090815.00,A,5629.9267,N,08456.9058,E,13.483,001.3,260214,,,A*6E
$GPGGA,090815.00,5629.9267,N,08456.9058,E,1,13,0.7,72.3,M,,M,,*4D
$GPGSA,A,3,32,23,25,20,31,01,14,12,,,,,1.3,0.7,1.1*37
$GPGSA,A,3,65,75,66,72,74,,,,,,,,1.3,0.7,1.1*30

$GPRMC,090816.00,A,5629.9309,N,08456.9057,E,13.757,001.5,260214,,,A*67
$GPGGA,090816.00,5629.9309,N,08456.9057,E,1,13,0.7,71.6,M,,M,,*4E
$GPGSA,A,3,32,23,25,20,31,01,14,12,,,,,1.3,0.7,1.1*37
$GPGSA,A,3,65,75,66,72,74,,,,,,,,1.3,0.7,1.1*30
$GPGSV,5,1,10
,01,12,244,37,04,08,341,35,12,06,025,19,14,22,103,42*7F
$GPGSV,5,2,10,20,50,276,35,23,24,282,35,25,32,051,35,29,03,081,*71
$GPGSV,5,3,10,31,77,106,41,32,57,203,47*7F
$GPGSV,5,4,8,65,79,231,35,66,33,316,38,72,31,151,33,73,02,041,*45
$GPGSV,5,5,8,74,50,0
46,33,75,69,205,34,76,14,217,16,83,11,040,17*46

$GPRMC,090818.00,A,5629.9396,N,08456.9054,E,14.403,001.5,260214,,,A*69
$GPGGA,090818.00,5629.9396,N,08456.9054,E,1,13,0.7,70.0,M,,M,,*42
$GPGSA,A,3,32,23,25,20,31,01,14,12,,,,,1.3,0.7,1.1*37
$GPGSA,A,3,65,75,66,72,74,,,,,,,,1.3,0.7,1.1*30

$GPRMC,090819.00,A,5629.9439,N,08456.9053,E,14.621,002.2,260214,,,A*6B
$GPGGA,090819.00,5629.9439,N,08456.9053,E,1,13,0.7,69.4,M,,M,,*4A
$GPGSA,A,3,32,23,25,20,31,01,14,12,,,,,1.3,0.7,1.1*37
$GPGSA,A,3,65,75,66,72,74,,,,,,,,1.3,0.7,1.1*30

$GPRMC,090820.00,A,5629.9483,N,08456.9054,E,14.989,003.3,260214,,,A*6A
$GPGGA,090820.00,5629.9483,N,08456.9054,E,1,13,0.7,68.9,M,,M,,*4A
$GPGSA,A,3,32,23,25,20,31,01,14,12,,,,,1.3,0.7,1.1*37
$GPGSA,A,3,65,75,66,72,74,,,,,,,,1.3,0.7,1.1*30

$GPRMC,090821.00,A,5629.9528,N,08456.9059,E,15.389,004.8,260214,,,A*61
$GPGGA,090821.00,5629.9528,N,08456.9059,E,1,13,0.7,68.5,M,,M,,*4A
$GPGSA,A,3,32,23,25,20,31,01,14,12,,,,,1.3,0.7,1.1*37
$GPGSA,A,3,65,75,66,72,74,,,,,,,,1.3,0.7,1.1*30
$GPGSV,5,1,10
,01,12,244,41,04,08,341,34,12,06,025,19,14,22,103,24*7F
$GPGSV,5,2,10,20,50,276,37,23,24,282,36,25,31,051,37,29,03,081,*71
$GPGSV,5,3,10,31,77,106,40,32,57,203,47*7E
$GPGSV,5,4,8,65,79,231,38,66,33,316,43,72,31,151,30,73,02,041,*47
$GPGSV,5,5,8,74,50,0
46,35,75,69,205,33,76,14,217,35,83,11,040,15*44

$GPRMC,090823.00,A,5629.9625,N,08456.9067,E,17.092,003.7,260214,,,A*63
$GPGGA,090823.00,5629.9625,N,08456.9067,E,1,13,0.7,67.0,M,,M,,*41
$GPGSA,A,3,32,23,25,20,31,01,14,12,,,,,1.3,0.7,1.1*37
$GPGSA,A,3,65,75,66,72,74,,,,,,,,1.3,0.7,1.1*30

$GPRMC,090824.00,A,5629.9677,N,08456.9071,E,17.754,003.1,260214,,,A*6F
$GPGGA,090824.00,5629.9677,N,08456.9071,E,1,13,0.7,66.3,M,,M,,*44
$GPGSA,A,3,32,23,25,20,31,01,14,12,,,,,1.3,0.7,1.1*37
$GPGSA,A,3,65,75,66,72,74,,,,,,,,1.3,0.7,1.1*30

$GPRMC,090825.00,A,5629.9731,N,08456.9073,E,17.964,002.8,260214,,,A*6A
$GPGGA,090825.00,5629.9731,N,08456.9073,E,1,12,0.8,65.2,M,,M,,*48
$GPGSA,A,3,32,23,25,20,31,01,14,,,,,,1.5,0.8,1.2*3E
$GPGSA,A,3,65,75,66,72,74,,,,,,,,1.5,0.8,1.2*3A

$GPRMC,090826.00,A,5629.9788,N,08456.9074,E,19.354,002.3,260214,,,A*60
$GPGGA,090826.00,5629.9788,N,08456.9074,E,1,12,0.8,64.2,M,,M,,*4F
$GPGSA,A,3,32,23,25,20,31,01,14,,,,,,1.5,0.8,1.2*3E
$GPGSA,A,3,65,75,66,72,74,,,,,,,,1.5,0.8,1.2*3A
$GPGSV,5,1,10,0
1,12,244,31,04,08,341,37,12,06,025,14,14,22,103,43*77
$GPGSV,5,2,10,20,50,276,35,23,24,282,39,25,31,051,27,29,03,081,*7D
$GPGSV,5,3,10,31,77,106,43,32,57,203,47*7D
$GPGSV,5,4,8,65,79,231,37,66,33,316,36,72,31,151,34,73,02,041,*4E
$GPGSV,5,5,8,74,50,046
,35,75,69,205,36,76,14,217,37,83,11,040,12*44

$GPRMC,090828.00,A,5629.9908,N,08456.9078,E,21.725,001.7,260214,,,A*6A
$GPGGA,090828.00,5629.9908,N,08456.9078,E,1,12,0.8,63.2,M,,M,,*4C
$GPGSA,A,3,32,23,25,20,31,01,14,,,,,,1.5,0.8,1.2*3E
$GPGSA,A,3,65,75,66,72,74,,,,,,,,1.5,0.8,1.2*3A

$GPRMC,090829.00,A,5629.9972,N,08456.9081,E,22.714,001.9,260214,,,A*6F
$GPGGA,090829.00,5629.9972,N,08456.9081,E,1,12,0.8,63.1,M,,M,,*45
$GPGSA,A,3,32,23,25,20,31,01,14,,,,,,1.5,0.8,1.2*3E
$GPGSA,A,3,65,75,66,72,74,,,,,,,,1.5,0.8,1.2*3A

$GPRMC,090830.00,A,5630.0040,N,08456.9084,E,23.730,001.8,260214,,,A*6D
$GPGGA,090830.00,5630.0040,N,08456.9084,E,1,12,0.8,63.0,M,,M,,*40
$GPGSA,A,3,32,23,25,20,31,01,14,,,,,,1.5,0.8,1.2*3E
$GPGSA,A,3,65,75,66,72,74,,,,,,,,1.5,0.8,1.2*3A

$GPRMC,090831.00,A,5630.0109,N,08456.9087,E,23.882,001.9,260214,,,A*64
$GPGGA,090831.00,5630.0109,N,08456.9087,E,1,12,0.8,62.9,M,,M,,*46
$GPGSA,A,3,32,23,25,20,31,01,14,,,,,,1.5,0.8,1.2*3E
$GPGSA,A,3,65,75,66,72,74,,,,,,,,1.5,0.8,1.2*3A
$GPGSV,5,1,10,0
1,12,244,39,04,08,341,32,12,06,024,12,14,22,103,18*73
$GPGSV,5,2,10,20,50,275,38,23,24,282,39,25,31,051,29,29,03,081,*7D
$GPGSV,5,3,10,31,77,105,41,32,57,203,48*73
$GPGSV,5,4,8,65,79,230,37,66,33,316,36,72,30,151,31,73,01,041,*48
$GPGSV,5,5,8,74,50,046
,33,75,69,205,34,76,14,217,32,83,11,040,15*42

$GPRMC,090833.00,A,5630.0241,N,08456.9093,E,22.396,002.0,260214,,,A*69
$GPGGA,090833.00,5630.0241,N,08456.9093,E,1,12,0.8,62.8,M,,M,,*4F
$GPGSA,A,3,32,23,25,20,31,01,14,,,,,,1.5,0.8,1.2*3E
$GPGSA,A,3,65,75,66,72,74,,,,,,,,1.5,0.8,1.2*3A

$GPRMC,090834.00,A,5630.0302,N,08456.9094,E,21.282,001.6,260214,,,A*6D
$GPGGA,090834.00,5630.0302,N,08456.9094,E,1,12,0.8,63.0,M,,M,,*40
$GPGSA,A,3,32,23,25,20,31,01,14,,,,,,1.5,0.8,1.2*3E
$GPGSA,A,3,65,75,66,72,74,,,,,,,,1.5,0.8,1.2*3A

$GPRMC,090835.00,A,5630.0361,N,08456.9095,E,20.186,001.5,260214,,,A*6D
$GPGGA,090835.00,5630.0361,N,08456.9095,E,1,12,0.8,63.1,M,,M,,*44
$GPGSA,A,3,32,23,25,20,31,01,14,,,,,,1.5,0.8,1.2*3E
$GPGSA,A,3,65,75,66,72,74,,,,,,,,1.5,0.8,1.2*3A

$GPRMC,090836.00,A,5630.0420,N,08456.9095,E,20.242,001.8,260214,,,A*6A
$GPGGA,090836.00,5630.0420,N,08456.9095,E,1,12,0.8,63.2,M,,M,,*46
$GPGSA,A,3,32,23,25,20,31,01,14,,,,,,1.5,0.8,1.2*3E
$GPGSA,A,3,65,75,66,72,74,,,,,,,,1.5,0.8,1.2*3A
$GPGSV,5,1,10,0
1,11,244,45,04,08,341,34,12,06,024,15,14,22,103,25*74
$GPGSV,5,2,10,20,50,275,34,23,24,282,39,25,31,051,24,29,03,081,*7C
$GPGSV,5,3,10,31,77,105,42,32,57,203,47*7F
$GPGSV,5,4,8,65,79,230,36,66,33,316,37,72,30,151,30,73,01,041,*49
$GPGSV,5,5,8,74,50,046
,32,75,69,205,35,76,14,217,35,83,11,040,13*43

$GPRMC,090838.00,A,5630.0537,N,08456.9100,E,20.672,001.9,260214,,,A*68
$GPGGA,090838.00,5630.0537,N,08456.9100,E,1,12,0.8,62.9,M,,M,,*48
$GPGSA,A,3,32,23,25,20,31,01,14,,,,,,1.5,0.8,1.2*3E
$GPGSA,A,3,65,75,66,72,74,,,,,,,,1.5,0.8,1.2*3A

$GPRMC,090839.00,A,5630.0595,N,08456.9101,E,20.583,002.0,260214,,,A*67
$GPGGA,090839.00,5630.0595,N,08456.9101,E,1,12,0.8,63.2,M,,M,,*4A
$GPGSA,A,3,32,23,25,20,31,01,14,,,,,,1.5,0.8,1.2*3E
$GPGSA,A,3,65,75,66,72,74,,,,,,,,1.5,0.8,1.2*3A

$GPRMC,090840.00,A,5630.0653,N,08456.9103,E,20.471,001.9,260214,,,A*64
$GPGGA,090840.00,5630.0653,N,08456.9103,E,1,11,0.9,63.2,M,,M,,*4D
$GPGSA,A,3,32,23,25,20,31,01,,,,,,,1.6,0.9,1.3*38
$GPGSA,A,3,65,75,66,72,74,,,,,,,,1.6,0.9,1.3*39

$GPRMC,090841.00,A,5630.0712,N,08456.9105,E,20.466,001.7,260214,,,A*6F
$GPGGA,090841.00,5630.0712,N,08456.9105,E,1,11,0.9,63.2,M,,M,,*4E
$GPGSA,A,3,32,23,25,20,31,01,,,,,,,1.6,0.9,1.3*38
$GPGSA,A,3,65,75,66,72,74,,,,,,,,1.6,0.9,1.3*39
$GPGSV,5,1,10,01,
11,244,38,04,08,341,33,12,06,024,14,14,22,103,16*78
$GPGSV,5,2,10,20,50,275,38,23,24,282,37,25,31,051,27,29,03,081,*7D
$GPGSV,5,3,10,31,77,105,41,32,57,203,47*7C
$GPGSV,5,4,8,65,79,230,36,66,33,316,34,72,30,151,25,73,01,041,*4E
$GPGSV,5,5,8,74,50,046,2
8,75,69,205,34,76,14,217,37,83,11,040,13*4B

$GPRMC,090843.00,A,5630.0825,N,08456.9109,E,19.829,002.0,260214,,,A*63
$GPGGA,090843.00,5630.0825,N,08456.9109,E,1,12,0.8,62.8,M,,M,,*42
$GPGSA,A,3,32,23,25,20,31,01,14,,,,,,1.5,0.8,1.2*3E
$GPGSA,A,3,65,75,66,72,74,,,,,,,,1.5,0.8,1.2*3A

$GPRMC,090844.00,A,5630.0883,N,08456.9110,E,20.323,002.0,260214,,,A*6B
$GPGGA,090844.00,5630.0883,N,08456.9110,E,1,12,0.8,62.8,M,,M,,*41
$GPGSA,A,3,32,23,25,20,31,01,14,,,,,,1.5,0.8,1.2*3E
$GPGSA,A,3,65,75,66,72,74,,,,,,,,1.5,0.8,1.2*3A

$GPRMC,090845.00,A,5630.0941,N,08456.9115,E,20.462,001.8,260214,,,A*69
$GPGGA,090845.00,5630.0941,N,08456.9115,E,1,12,0.8,62.1,M,,M,,*43
$GPGSA,A,3,32,23,25,20,31,01,14,,,,,,1.5,0.8,1.2*3E
$GPGSA,A,3,65,75,66,72,74,,,,,,,,1.5,0.8,1.2*3A

$GPRMC,090846.00,A,5630.0998,N,08456.9120,E,20.444,002.1,260214,,,A*66
$GPGGA,090846.00,5630.0998,N,08456.9120,E,1,12,0.8,61.5,M,,M,,*45
$GPGSA,A,3,32,23,25,20,31,01,14,,,,,,1.5,0.8,1.2*3E
$GPGSA,A,3,65,75,66,72,74,,,,,,,,1.5,0.8,1.2*3A
$GPGSV,5,1,10,0
1,11,244,27,04,08,341,25,12,06,024,14,14,22,103,25*71
$GPGSV,5,2,10,20,50,275,37,23,24,282,38,25,31,051,25,29,03,081,*7F
$GPGSV,5,3,10,31,77,105,45,32,57,203,46*79
$GPGSV,5,4,8,65,79,230,36,66,33,316,36,72,30,151,32,73,01,041,*4A
$GPGSV,5,5,8,74,50,046
,34,75,69,205,36,76,14,217,35,83,11,040,12*47

$GPRMC,090848.00,A,5630.1109,N,08456.9129,E,19.593,001.9,260214,,,A*6A
$GPGGA,090848.00,5630.1109,N,08456.9129,E,1,12,0.8,60.2,M,,M,,*45
$GPGSA,A,3,32,23,25,20,31,01,14,,,,,,1.5,0.8,1.2*3E
$GPGSA,A,3,65,75,66,72,74,,,,,,,,1.5,0.8,1.2*3A

$GPRMC,090849.00,A,5630.1158,N,08456.9133,E,17.845,001.8,260214,,,A*6D
$GPGGA,090849.00,5630.1158,N,08456.9133,E,1,12,0.8,59.6,M,,M,,*45
$GPGSA,A,3,32,23,25,20,31,01,14,,,,,,1.5,0.8,1.2*3E
$GPGSA,A,3,65,75,66,72,74,,,,,,,,1.5,0.8,1.2*3A

$GPRMC,090850.00,A,5630.1202,N,08456.9135,E,16.020,001.7,260214,,,A*6A
$GPGGA,090850.00,5630.1202,N,08456.9135,E,1,13,0.7,59.5,M,,M,,*4A
$GPGSA,A,3,32,23,25,20,31,01,14,12,,,,,1.3,0.7,1.1*37
$GPGSA,A,3,65,75,66,72,74,,,,,,,,1.3,0.7,1.1*30

$GPRMC,090851.00,A,5630.1240,N,08456.9138,E,14.196,001.7,260214,,,A*6E
$GPGGA,090851.00,5630.1240,N,08456.9138,E,1,13,0.7,59.2,M,,M,,*47
$GPGSA,A,3,32,23,25,20,31,01,14,12,,,,,1.3,0.7,1.1*37
$GPGSA,A,3,65,75,66,72,74,,,,,,,,1.3,0.7,1.1*30
$GPGSV,5,1,10
,01,11,244,30,04,08,340,16,12,06,024,17,14,22,103,17*74
$GPGSV,5,2,10,20,50,275,41,23,24,282,38,25,31,051,32,29,03,081,*78
$GPGSV,5,3,10,31,77,105,43,32,57,203,47*7E
$GPGSV,5,4,8,65,79,229,36,66,34,316,33,72,30,151,30,73,01,041,*42
$GPGSV,5,5,8,74,50,0
46,34,75,69,205,35,76,14,217,34,83,11,040,11*46

$GPRMC,090853.00,A,5630.1299,N,08456.9140,E,10.074,001.7,260214,,,A*6E
$GPGGA,090853.00,5630.1299,N,08456.9140,E,1,13,0.7,59.0,M,,M,,*4C
$GPGSA,A,3,32,23,25,20,31,01,14,12,,,,,1.3,0.7,1.1*37
$GPGSA,A,3,65,75,66,72,74,,,,,,,,1.3,0.7,1.1*30

$GPRMC,090854.00,A,5630.1318,N,08456.9141,E,08.201,002.2,260214,,,A*6F
$GPGGA,090854.00,5630.1318,N,08456.9141,E,1,13,0.7,59.0,M,,M,,*42
$GPGSA,A,3,32,23,25,20,31,01,14,12,,,,,1.3,0.7,1.1*37
$GPGSA,A,3,65,75,66,72,74,,,,,,,,1.3,0.7,1.1*30

$GPRMC,090855.00,A,5630.1332,N,08456.9140,E,06.557,001.8,260214,,,A*64
$GPGGA,090855.00,5630.1332,N,08456.9140,E,1,13,0.7,59.2,M,,M,,*48
$GPGSA,A,3,32,23,25,20,31,01,14,12,,,,,1.3,0.7,1.1*37
$GPGSA,A,3,65,75,66,72,74,,,,,,,,1.3,0.7,1.1*30

$GPRMC,090856.00,A,5630.1343,N,08456.9139,E,05.333,003.4,260214,,,A*66
$GPGGA,090856.00,5630.1343,N,08456.9139,E,1,13,0.7,59.5,M,,M,,*44
$GPGSA,A,3,32,23,25,20,31,01,14,12,,,,,1.3,0.7,1.1*37
$GPGSA,A,3,65,75,66,72,74,,,,,,,,1.3,0.7,1.1*30
$GPGSV,5,1,10
,01,11,244,32,04,08,340,14,12,06,024,17,14,22,103,31*70
$GPGSV,5,2,10,20,50,275,37,23,24,282,38,25,31,051,28,29,03,081,*72
$GPGSV,5,3,10,31,77,105,44,32,57,203,47*79
$GPGSV,5,4,8,65,79,229,37,66,34,316,39,72,30,151,32,73,01,041,*4B
$GPGSV,5,5,8,74,50,0
46,37,75,69,205,37,76,14,217,36,83,12,040,11*46

$GPRMC,090858.00,A,5630.1367,N,08456.9139,E,06.523,003.5,260214,,,A*6B
$GPGGA,090858.00,5630.1367,N,08456.9139,E,1,13,0.7,59.1,M,,M,,*48
$GPGSA,A,3,32,23,25,20,31,01,14,12,,,,,1.3,0.7,1.1*37
$GPGSA,A,3,65,75,66,72,74,,,,,,,,1.3,0.7,1.1*30

$GPRMC,090859.00,A,5630.1382,N,08456.9141,E,07.065,003.7,260214,,,A*6A
$GPGGA,090859.00,5630.1382,N,08456.9141,E,1,13,0.7,58.8,M,,M,,*45
$GPGSA,A,3,32,23,25,20,31,01,14,12,,,,,1.3,0.7,1.1*37
$GPGSA,A,3,65,75,66,72,74,,,,,,,,1.3,0.7,1.1*30

$GPRMC,090900.00,A,5630.1399,N,08456.9141,E,07.398,001.8,260214,,,A*61
$GPGGA,090900.00,5630.1399,N,08456.9141,E,1,13,0.7,58.7,M,,M,,*4D
$GPGSA,A,3,32,23,25,20,31,01,14,12,,,,,1.3,0.7,1.1*37
$GPGSA,A,3,65,75,66,72,74,,,,,,,,1.3,0.7,1.1*30

$GPRMC,090901.00,A,5630.1419,N,08456.9140,E,08.784,000.6,260214,,,A*67
$GPGGA,090901.00,5630.1419,N,08456.9140,E,1,13,0.7,58.7,M,,M,,*42
$GPGSA,A,3,32,23,25,20,31,01,14,12,,,,,1.3,0.7,1.1*37
$GPGSA,A,3,65,75,66,72,74,,,,,,,,1.3,0.7,1.1*30
$GPGSV,5,1,10
,01,11,244,36,04,08,340,14,12,06,024,35,14,22,103,40*72
$GPGSV,5,2,10,20,50,275,33,23,24,282,36,25,31,051,28,29,03,081,*78
$GPGSV,5,3,10,31,77,104,44,32,56,203,46*78
$GPGSV,5,4,8,65,79,229,36,66,34,316,37,72,30,151,33,73,01,041,*45
$GPGSV,5,5,8,74,50,0
46,34,75,69,205,37,76,14,217,36,83,12,040,*45

$GPRMC,090903.00,A,5630.1469,N,08456.9145,E,11.248,003.6,260214,,,A*69
$GPGGA,090903.00,5630.1469,N,08456.9145,E,1,13,0.7,58.8,M,,M,,*4D
$GPGSA,A,3,32,23,25,20,31,01,14,12,,,,,1.3,0.7,1.1*37
$GPGSA,A,3,65,75,66,72,74,,,,,,,,1.3,0.7,1.1*30

$GPRMC,090904.00,A,5630.1500,N,08456.9147,E,12.483,001.2,260214,,,A*66
$GPGGA,090904.00,5630.1500,N,08456.9147,E,1,13,0.7,59.2,M,,M,,*4D
$GPGSA,A,3,32,23,25,20,31,01,14,12,,,,,1.3,0.7,1.1*37
$GPGSA,A,3,65,75,66,72,74,,,,,,,,1.3,0.7,1.1*30

$GPRMC,090905.00,A,5630.1535,N,08456.9149,E,12.791,002.0,260214,,,A*6E
$GPGGA,090905.00,5630.1535,N,08456.9149,E,1,13,0.7,59.5,M,,M,,*43
$GPGSA,A,3,32,23,25,20,31,01,14,12,,,,,1.3,0.7,1.1*37
$GPGSA,A,3,65,75,66,72,74,,,,,,,,1.3,0.7,1.1*30

$GPRMC,090906.00,A,5630.1570,N,08456.9150,E,12.677,001.7,260214,,,A*69
