18,37,244,,20,78,107,*79
$GPGSV,4,3,13,21,64,278,,26,11,275,,27,12,326,,29,29,186,*7A
$GPGSV,4,4,13,30,14,039,,,,,,,,,,,,,*47
$GLGSV,3,1,12,73,23,251,,82,02,122,,81,24,079,20,70,23,251,*6D
$GLGSV,3,2,12,70,53,228,,80,78,290,,79,36,059,14,69,11,182,*64

$GLGSV,3,3,12,88,22,021,,87,00,341,,71,43,314,,72,01,343,*6B
$GPGLL,5628.10742,N,08458.92177,E,030914.000,V*2E
$GPRMC,030915.000,V,5628.10742,N,08458.92177,E,0.8,37.7,010616,,,N*41
$GPGGA,030915.000,5628.10742,N,08458.92177,E,0,00,99.0,0107.7,M,-33.9,M
,,*74
$GPVTG,37.7,T,,M,0.8,N,1.5,K,N*3D
$GNGSA,A,1,,,,,,,,,,,,,99.0,99.0,99.0*1E
$GNGSA,A,1,,,,,,,,,,,,,99.0,99.0,99.0*1E
$GPGSV,4,1,13,05,31,072,,07,09,012,,10,03,247,,13,50,093,*7F
$GPGSV,4,2,13,15,49,152,,16,19,303,,18,37,244,,20,78,107,*79
$GPGSV
,4,3,13,21,64,278,,26,11,275,,27,12,326,,29,29,186,*7A
$GPGSV,4,4,13,30,14,039,,,,,,,,,,,,,*47
$GLGSV,3,1,12,73,23,251,,82,02,122,,81,24,079,20,70,24,251,*6A
$GLGSV,3,2,12,70,53,228,,80,78,290,,79,36,059,14,69,11,182,*64
$GLGSV,3,3,12,88,22,021,,87,00,
341,,71,43,314,,72,01,343,*6B
$GPGLL,5628.10742,N,08458.92177,E,030915.000,V*2F
$GPRMC,030917.000,V,5628.10742,N,08458.92177,E,0.8,37.7,010616,,,N*43
$GPGGA,030917.000,5628.10742,N,08458.92177,E,0,00,99.0,0107.7,M,-33.9,M,,*76
$GPVTG,37.7,T,,M,0.8,N,1.
5,K,N*3D
$GNGSA,A,1,,,,,,,,,,,,,99.0,99.0,99.0*1E
$GNGSA,A,1,,,,,,,,,,,,,99.0,99.0,99.0*1E
$GPGSV,4,1,13,05,31,072,,07,09,012,,10,03,247,,13,50,093,*7F
$GPGSV,4,2,13,15,49,152,,16,19,303,,18,37,244,,20,78,107,*79
$GPGSV,4,3,13,21,64,278,,26,11,275,,27
,12,326,,29,28,186,*7B
$GPGSV,4,4,13,30,14,039,,,,,,,,,,,,,*47
$GLGSV,3,1,12,73,23,251,,82,02,122,,81,24,079,18,70,24,251,*61
$GLGSV,3,2,12,70,53,228,,80,78,290,,79,36,059,14,69,11,182,*64
$GLGSV,3,3,12,88,22,021,,87,00,341,,71,43,314,,72,01,343,*6B
$
GPGLL,5628.10742,N,08458.92177,E,030917.000,V*2D
$GPRMC,030918.000,V,5628.10742,N,08458.92177,E,0.8,37.7,010616,,,N*4C
$GPGGA,030918.000,5628.10742,N,08458.92177,E,0,00,99.0,0107.7,M,-33.9,M,,*79
$GPVTG,37.7,T,,M,0.8,N,1.5,K,N*3D
$GNGSA,A,1,,,,,,,,,,,,
,99.0,99.0,99.0*1E
$GNGSA,A,1,,,,,,,,,,,,,99.0,99.0,99.0*1E
$GPGSV,4,1,13,05,31,072,,07,09,012,,10,03,247,,13,50,093,*7F
$GPGSV,4,2,13,15,49,152,,16,19,303,,18,37,244,,20,78,107,*79
$GPGSV,4,3,13,21,64,278,,26,11,275,,27,12,326,,29,28,186,*7B
$GPGSV,4
,4,13,30,14,039,,,,,,,,,,,,,*47
$GLGSV,3,1,12,73,23,251,,82,02,122,,81,24,079,18,70,24,251,*61
$GLGSV,3,2,12,70,53,227,,80,78,290,,79,36,059,14,69,11,182,*6B
$GLGSV,3,3,12,88,22,021,,87,00,341,,71,43,314,,72,01,343,*6B
$GPGLL,5628.10742,N,08458.92177,E
,030918.000,V*22
$GPRMC,030920.000,V,5628.10742,N,08458.92177,E,0.8,37.7,010616,,,N*47
$GPGGA,030920.000,5628.10742,N,08458.92177,E,0,00,99.0,0107.7,M,-33.9,M,,*72
$GPVTG,37.7,T,,M,0.8,N,1.5,K,N*3D
$GNGSA,A,1,,,,,,,,,,,,,99.0,99.0,99.0*1E
$GNGSA,A,1,,
,,,,,,,,,,,99.0,99.0,99.0*1E
$GPGSV,4,1,13,05,31,072,,07,09,012,,10,03,247,,13,50,093,*7F
$GPGSV,4,2,13,15,49,152,,16,19,303,,18,37,244,,20,78,107,*79
$GPGSV,4,3,13,21,64,278,,26,11,275,,27,12,326,,29,28,186,*7B
$GPGSV,4,4,13,30,14,038,,,,,,,,,,,,,*46

$GLGSV,3,1,12,73,23,251,,82,02,122,,81,24,079,19,70,24,251,*60
$GLGSV,3,2,12,70,53,227,,80,78,290,,79,36,059,14,69,11,182,*6B
$GLGSV,3,3,12,88,22,021,,87,00,341,,71,43,314,,72,01,343,*6B
$GPGLL,5628.10742,N,08458.92177,E,030920.000,V*29
$GPRMC,030921.
000,V,5628.10742,N,08458.92177,E,0.8,37.7,010616,,,N*46
$GPGGA,030921.000,5628.10742,N,08458.92177,E,0,00,99.0,0107.7,M,-33.9,M,,*73
$GPVTG,37.7,T,,M,0.8,N,1.5,K,N*3D
$GNGSA,A,1,,,,,,,,,,,,,99.0,99.0,99.0*1E
$GNGSA,A,1,,,,,,,,,,,,,99.0,99.0,99.0*1E
$G
PGSV,4,1,13,05,31,072,,07,09,012,,10,03,247,,13,50,093,*7F
$GPGSV,4,2,13,15,49,152,,16,19,303,,18,37,244,,20,78,107,*79
$GPGSV,4,3,13,21,64,278,,26,11,275,,27,12,326,,29,28,186,*7B
$GPGSV,4,4,13,30,14,038,,,,,,,,,,,,,*46
$GLGSV,3,1,12,73,23,251,,82,02,
122,,81,24,079,19,70,24,251,*60
$GLGSV,3,2,12,70,53,227,,80,78,290,,79,36,059,14,69,11,182,*6B
$GLGSV,3,3,12,88,22,021,,87,00,341,,71,43,314,,72,01,343,*6B
$GPGLL,5628.10742,N,08458.92177,E,030921.000,V*28
$GPRMC,030923.000,V,5628.10742,N,08458.92177,E
,0.8,37.7,010616,,,N*44
$GPGGA,030923.000,5628.10742,N,08458.92177,E,0,00,99.0,0107.7,M,-33.9,M,,*71
$GPVTG,37.7,T,,M,0.8,N,1.5,K,N*3D
$GNGSA,A,1,,,,,,,,,,,,,99.0,99.0,99.0*1E
$GNGSA,A,1,,,,,,,,,,,,,99.0,99.0,99.0*1E
$GPGSV,4,1,13,05,31,072,,07,09,012
,,10,03,247,,13,50,093,*7F
$GPGSV,4,2,13,15,49,152,,16,19,303,,18,37,244,,20,78,107,*79
$GPGSV,4,3,13,21,64,278,,26,11,275,,27,12,326,,29,28,186,*7B
$GPGSV,4,4,13,30,14,038,,,,,,,,,,,,,*46
$GLGSV,3,1,12,73,23,251,,82,02,122,,81,24,079,22,70,24,251,*68

$GLGSV,3,2,12,70,53,227,,80,78,290,,79,36,059,,69,11,182,*6E
$GLGSV,3,3,12,88,22,021,,87,00,341,,71,43,314,,72,01,343,*6B
$GPGLL,5628.10742,N,08458.92177,E,030923.000,V*2A
$GPRMC,030924.000,V,5628.10742,N,08458.92177,E,0.8,37.7,010616,,,N*43
$GPGGA,03
0924.000,5628.10742,N,08458.92177,E,0,00,99.0,0107.7,M,-33.9,M,,*76
$GPVTG,37.7,T,,M,0.8,N,1.5,K,N*3D
$GNGSA,A,1,,,,,,,,,,,,,99.0,99.0,99.0*1E
$GNGSA,A,1,,,,,,,,,,,,,99.0,99.0,99.0*1E
$GPGSV,4,1,13,05,31,072,,07,09,012,,10,03,247,,13,50,093,*7F
$GPGSV
,4,2,13,15,49,152,,16,19,303,,18,37,244,,20,78,107,*79
$GPGSV,4,3,13,21,64,278,,26,11,275,,27,12,326,,29,28,186,*7B
$GPGSV,4,4,13,30,14,038,,,,,,,,,,,,,*46
$GLGSV,3,1,12,73,23,251,,82,02,122,,81,24,079,23,70,24,251,*69
$GLGSV,3,2,12,70,53,227,,80,79,29
2,,79,36,059,,69,11,182,*6D
$GLGSV,3,3,12,88,22,021,,87,00,341,,71,43,314,,72,01,343,*6B
$GPGLL,5628.10742,N,08458.92177,E,030924.000,V*2D
$GPRMC,030926.000,V,5628.10742,N,08458.92177,E,0.8,37.7,010616,,,N*41
$GPGGA,030926.000,5628.10742,N,08458.92177,
E,0,01,99.0,0107.7,M,-33.9,M,,*75
$GPVTG,37.7,T,,M,0.8,N,1.5,K,N*3D
$GNGSA,A,1,,,,,,,,,,,,,99.0,99.0,99.0*1E
$GNGSA,A,1,81,,,,,,,,,,,,99.0,99.0,99.0*17
$GPGSV,4,1,13,05,31,072,,07,09,012,,10,03,247,,13,50,093,*7F
$GPGSV,4,2,13,15,49,152,,16,19,303,,18
,37,244,,20,78,107,*79
$GPGSV,4,3,13,21,64,278,,26,11,275,,27,12,326,,29,28,186,*7B
$GPGSV,4,4,13,30,14,038,,,,,,,,,,,,,*46
$GLGSV,3,1,12,73,23,251,,82,02,122,,81,24,079,24,70,24,251,*6E
$GLGSV,3,2,12,70,53,227,,80,79,292,,79,36,059,,69,11,182,*6D
$GL
GSV,3,3,12,88,22,021,,87,00,341,,71,43,314,,72,01,343,*6B
$GPGLL,5628.10742,N,08458.92177,E,030926.000,V*2F
$GPRMC,030927.000,V,5628.10742,N,08458.92177,E,0.8,37.7,010616,,,N*40
$GPGGA,030927.000,5628.10742,N,08458.92177,E,0,01,99.0,0107.7,M,-33.9,M,,*7
4
$GPVTG,37.7,T,,M,0.8,N,1.5,K,N*3D
$GNGSA,A,1,,,,,,,,,,,,,99.0,99.0,99.0*1E
$GNGSA,A,1,81,,,,,,,,,,,,99.0,99.0,99.0*17
$GPGSV,4,1,13,05,31,072,,07,09,012,,10,03,247,,13,50,093,*7F
$GPGSV,4,2,13,15,49,152,,16,19,303,,18,37,244,,20,78,107,*79
$GPGSV,4
,3,13,21,64,278,,26,11,275,,27,12,326,,29,28,186,*7B
$GPGSV,4,4,13,30,14,038,,,,,,,,,,,,,*46
$GLGSV,3,1,12,73,23,251,,82,02,122,,81,24,079,24,70,24,251,*6E
$GLGSV,3,2,12,70,53,227,,80,79,292,,79,36,059,,69,11,182,*6D
$GLGSV,3,3,12,88,22,021,,87,00,341,
,71,43,314,,72,01,343,*6B
$GPGLL,5628.10742,N,08458.92177,E,030927.000,V*2E
$GPRMC,030929.000,V,5628.10742,N,08458.92177,E,0.8,37.7,010616,,,N*4E
$GPGGA,030929.000,5628.10742,N,08458.92177,E,0,01,99.0,0107.7,M,-33.9,M,,*7A
$GPVTG,37.7,T,,M,0.8,N,1.5,K,
N*3D
$GNGSA,A,1,,,,,,,,,,,,,99.0,99.0,99.0*1E
$GNGSA,A,1,81,,,,,,,,,,,,99.0,99.0,99.0*17
$GPGSV,4,1,13,05,31,072,,07,09,012,,10,03,247,,13,50,093,*7F
$GPGSV,4,2,13,15,49,152,,16,19,303,,18,37,244,,20,78,107,*79
$GPGSV,4,3,13,21,64,278,,26,11,275,,27,1
2,326,,29,28,186,*7B
$GPGSV,4,4,13,30,14,038,,,,,,,,,,,,,*46
$GLGSV,3,1,12,73,23,251,,82,02,122,,81,24,079,25,70,24,251,*6F
$GLGSV,3,2,12,70,53,227,,80,79,292,,79,36,059,,69,11,182,*6D
$GLGSV,3,3,12,88,22,021,,87,00,341,,71,43,314,,72,01,343,*6B
$GPGL
L,5628.10742,N,08458.92177,E,030929.000,V*20
$GPRMC,030931.000,V,5628.10742,N,08458.92177,E,0.8,37.7,010616,,,N*47
$GPGGA,030931.000,5628.10742,N,08458.92177,E,0,01,99.0,0107.7,M,-33.9,M,,*73
$GPVTG,37.7,T,,M,0.8,N,1.5,K,N*3D
$GNGSA,A,1,,,,,,,,,,,,,99.
0,99.0,99.0*1E
$GNGSA,A,1,81,,,,,,,,,,,,99.0,99.0,99.0*17
$GPGSV,4,1,13,05,31,072,,07,09,012,,10,03,247,,13,50,093,*7F
$GPGSV,4,2,13,15,49,152,,16,19,303,,18,37,244,,20,78,107,*79
$GPGSV,4,3,13,21,64,278,,26,11,275,,27,12,326,,29,28,186,*7B
$GPGSV,4,4
,13,30,14,038,,,,,,,,,,,,,*46
$GLGSV,3,1,12,73,23,251,,82,02,122,,81,24,079,25,70,24,251,*6F
$GLGSV,3,2,12,70,53,227,,80,79,292,,79,36,059,,69,11,182,*6D
$GLGSV,3,3,12,88,22,020,,87,00,341,,71,43,314,,72,01,343,*6A
$GPGLL,5628.10742,N,08458.92177,E,030
931.000,V*29
$GPRMC,030932.000,V,5628.10742,N,08458.92177,E,0.8,37.7,010616,,,N*44
$GPGGA,030932.000,5628.10742,N,08458.92177,E,0,01,99.0,0107.7,M,-33.9,M,,*70
$GPVTG,37.7,T,,M,0.8,N,1.5,K,N*3D
$GNGSA,A,1,,,,,,,,,,,,,99.0,99.0,99.0*1E
$GNGSA,A,1,81,,,
,,,,,,,,,99.0,99.0,99.0*17
$GPGSV,4,1,13,05,31,072,,07,09,012,,10,03,247,,13,50,093,*7F
$GPGSV,4,2,13,15,49,152,,16,19,303,,18,37,244,,20,78,107,*79
$GPGSV,4,3,13,21,64,278,,26,11,275,,27,12,326,,29,28,186,*7B
$GPGSV,4,4,13,30,14,038,,,,,,,,,,,,,*46
$
GLGSV,3,1,12,73,23,251,,82,02,122,,81,24,079,25,70,24,251,*6F
$GLGSV,3,2,12,70,53,227,,80,79,292,,79,36,059,,69,11,182,*6D
$GLGSV,3,3,12,88,22,020,,87,00,341,,71,43,314,,72,01,343,*6A
$GPGLL,5628.10742,N,08458.92177,E,030932.000,V*2A
$GPRMC,030934.000,
V,5628.10742,N,08458.92177,E,0.8,37.7,010616,,,N*42
$GPGGA,030934.000,5628.10742,N,08458.92177,E,0,01,99.0,0107.7,M,-33.9,M,,*76
$GPVTG,37.7,T,,M,0.8,N,1.5,K,N*3D
$GNGSA,A,1,,,,,,,,,,,,,99.0,99.0,99.0*1E
$GNGSA,A,1,81,,,,,,,,,,,,99.0,99.0,99.0*17
$GPG
SV,4,1,13,05,30,072,,07,09,012,,10,03,247,,13,50,093,*7E
$GPGSV,4,2,13,15,49,152,,16,19,303,,18,37,244,,20,78,107,*79
$GPGSV,4,3,13,21,64,278,,26,11,275,,27,12,326,,29,28,186,*7B
$GPGSV,4,4,13,30,14,038,,,,,,,,,,,,,*46
$GLGSV,3,1,12,73,23,251,,82,02,12
2,,81,24,079,25,70,24,251,*6F
$GLGSV,3,2,12,70,53,227,,80,79,292,,79,36,059,,69,11,182,*6D
$GLGSV,3,3,12,88,22,020,,87,00,341,,71,43,314,,72,01,343,*6A
$GPGLL,5628.10742,N,08458.92177,E,030934.000,V*2C
$GPRMC,030935.000,V,5628.10742,N,08458.92177,E,0.8
,37.7,010616,,,N*43
$GPGGA,030935.000,5628.10742,N,08458.92177,E,0,01,99.0,0107.7,M,-33.9,M,,*77
$GPVTG,37.7,T,,M,0.8,N,1.5,K,N*3D
$GNGSA,A,1,,,,,,,,,,,,,99.0,99.0,99.0*1E
$GNGSA,A,1,81,,,,,,,,,,,,99.0,99.0,99.0*17
$GPGSV,4,1,13,05,30,072,,07,09,012,,
10,03,247,,13,50,093,*7E
$GPGSV,4,2,13,15,49,152,,16,19,303,,18,37,244,,20,78,107,*79
$GPGSV,4,3,13,21,64,278,,26,11,275,,27,12,326,,29,28,186,*7B
$GPGSV,4,4,13,30,14,038,,,,,,,,,,,,,*46
$GLGSV,3,1,12,73,23,251,,82,02,122,,81,24,079,25,70,24,251,*6F
$
GLGSV,3,2,12,70,53,227,,80,79,292,,79,36,059,,69,11,182,*6D
$GLGSV,3,3,12,88,22,020,,87,00,341,,71,43,314,,72,01,343,*6A
$GPGLL,5628.10742,N,08458.92177,E,030935.000,V*2D
$GPRMC,030937.000,V,5628.10742,N,08458.92177,E,0.8,37.7,010616,,,N*41
$GPGGA,0309
37.000,5628.10742,N,08458.92177,E,0,01,99.0,0107.7,M,-33.9,M,,*75
$GPVTG,37.7,T,,M,0.8,N,1.5,K,N*3D
$GNGSA,A,1,,,,,,,,,,,,,99.0,99.0,99.0*1E
$GNGSA,A,1,81,,,,,,,,,,,,99.0,99.0,99.0*17
$GPGSV,4,1,13,05,30,072,,07,09,012,,10,03,247,,13,50,093,*7E
$GPGSV
,4,2,13,15,49,152,,16,19,303,,18,37,244,,20,78,107,*79
$GPGSV,4,3,13,21,64,278,16,26,11,275,,27,12,326,,29,28,186,*7C
$GPGSV,4,4,13,30,14,038,,,,,,,,,,,,,*46
$GLGSV,3,1,12,73,23,251,,82,02,122,,81,24,079,26,70,24,251,*6C
$GLGSV,3,2,12,70,53,227,,80,79,
292,,79,36,059,,69,11,182,*6D
$GLGSV,3,3,12,88,22,020,,87,00,341,,71,43,313,,72,01,343,*6D
$GPGLL,5628.10742,N,08458.92177,E,030937.000,V*2F
$GPRMC,030938.000,V,5628.10742,N,08458.92177,E,0.8,37.7,010616,,,N*4E
$GPGGA,030938.000,5628.10742,N,08458.9217
7,E,0,01,99.0,0107.7,M,-33.9,M,,*7A
$GPVTG,37.7,T,,M,0.8,N,1.5,K,N*3D
$GNGSA,A,1,,,,,,,,,,,,,99.0,99.0,99.0*1E
$GNGSA,A,1,81,,,,,,,,,,,,99.0,99.0,99.0*17
$GPGSV,4,1,13,05,30,072,,07,09,012,,10,03,247,,13,50,093,*7E
$GPGSV,4,2,13,15,49,152,,16,19,303,,
18,37,244,,20,78,107,*79
$GPGSV,4,3,13,21,64,278,,26,11,275,,27,12,326,,29,28,186,*7B
$GPGSV,4,4,13,30,14,038,,,,,,,,,,,,,*46
$GLGSV,3,1,12,73,23,251,,82,02,122,,81,24,079,26,70,24,251,*6C
$GLGSV,3,2,12,70,53,227,,80,79,292,,79,36,059,,69,11,182,*6D
$
GLGSV,3,3,12,88,22,020,,87,00,341,,71,43,313,,72,02,343,*6E
$GPGLL,5628.10742,N,08458.92177,E,030938.000,V*20
$GPRMC,030940.000,V,5628.10742,N,08458.92177,E,0.8,37.7,010616,,,N*41
$GPGGA,030940.000,5628.10742,N,08458.92177,E,0,01,99.0,0107.7,M,-33.9,M,,
*75
$GPVTG,37.7,T,,M,0.8,N,1.5,K,N*3D
$GNGSA,A,1,,,,,,,,,,,,,99.0,99.0,99.0*1E
$GNGSA,A,1,81,,,,,,,,,,,,99.0,99.0,99.0*17
$GPGSV,4,1,13,05,30,072,,07,09,012,,10,03,247,,13,50,093,*7E
$GPGSV,4,2,13,15,49,152,,16,19,303,,18,37,244,,20,78,107,*79
$GPGSV
,4,3,13,21,64,278,,26,11,275,,27,12,326,,29,28,186,*7B
$GPGSV,4,4,13,30,14,038,,,,,,,,,,,,,*46
$GLGSV,3,1,12,73,23,251,,82,02,122,,81,24,079,26,70,24,251,*6C
$GLGSV,3,2,12,70,53,227,,80,79,292,,79,36,059,,69,11,182,*6D
$GLGSV,3,3,12,88,22,020,,87,00,34
1,,71,43,313,,72,02,343,*6E
$GPGLL,5628.10742,N,08458.92177,E,030940.000,V*2F
$GPRMC,030941.000,V,5628.10742,N,08458.92177,E,0.8,37.7,010616,,,N*40
$GPGGA,030941.000,5628.10742,N,08458.92177,E,0,01,99.0,0107.7,M,-33.9,M,,*74
$GPVTG,37.7,T,,M,0.8,N,1.5,
K,N*3D
$GNGSA,A,1,,,,,,,,,,,,,99.0,99.0,99.0*1E
$GNGSA,A,1,81,,,,,,,,,,,,99.0,99.0,99.0*17
$GPGSV,4,1,13,05,30,072,,07,09,012,,10,03,247,,13,50,093,*7E
$GPGSV,4,2,13,15,49,152,,16,19,303,,18,37,244,,20,78,107,*79
$GPGSV,4,3,13,21,64,278,,26,11,275,,27
,12,326,,29,28,186,*7B
$GPGSV,4,4,13,30,14,038,,,,,,,,,,,,,*46
$GLGSV,3,1,12,73,23,251,,82,02,122,,81,24,079,26,70,24,251,*6C
$GLGSV,3,2,12,70,53,227,,80,79,292,,79,36,059,,69,11,182,*6D
$GLGSV,3,3,12,88,22,020,,87,00,341,,71,43,313,,72,02,343,*6E
$GP
GLL,5628.10742,N,08458.92177,E,030941.000,V*2E
$GPRMC,030943.000,V,5628.10742,N,08458.92177,E,0.8,37.7,010616,,,N*42
$GPGGA,030943.000,5628.10742,N,08458.92177,E,0,01,99.0,0107.7,M,-33.9,M,,*76
$GPVTG,37.7,T,,M,0.8,N,1.5,K,N*3D
$GNGSA,A,1,,,,,,,,,,,,,9
9.0,99.0,99.0*1E
$GNGSA,A,1,81,,,,,,,,,,,,99.0,99.0,99.0*17
$GPGSV,4,1,13,05,30,072,,07,09,012,,10,03,247,,13,50,093,*7E
$GPGSV,4,2,13,15,49,152,,16,19,303,,18,37,244,,20,78,107,*79
$GPGSV,4,3,13,21,64,278,,26,11,275,,27,12,326,,29,28,186,*7B
$GPGSV,4
,4,13,30,14,038,,,,,,,,,,,,,*46
$GLGSV,3,1,12,73,24,251,,82,02,122,,81,24,079,26,70,24,251,*6B
$GLGSV,3,2,12,70,53,227,,80,79,292,,79,36,059,,69,11,182,*6D
$GLGSV,3,3,12,88,22,020,,87,00,341,,71,43,313,,72,02,343,*6E
$GPGLL,5628.10742,N,08458.92177,E,0
30943.000,V*2C
$GPRMC,030944.000,V,5628.10742,N,08458.92177,E,0.8,37.7,010616,,,N*45
$GPGGA,030944.000,5628.10742,N,08458.92177,E,0,01,99.0,0107.7,M,-33.9,M,,*71
$GPVTG,37.7,T,,M,0.8,N,1.5,K,N*3D
$GNGSA,A,1,,,,,,,,,,,,,99.0,99.0,99.0*1E
$GNGSA,A,1,81,
,,,,,,,,,,,99.0,99.0,99.0*17
$GPGSV,4,1,13,05,30,072,,07,09,012,,10,03,247,,13,50,093,*7E
$GPGSV,4,2,13,15,49,152,,16,19,303,,18,37,244,,20,78,107,*79
$GPGSV,4,3,13,21,64,278,,26,11,275,,27,12,326,,29,28,186,*7B
$GPGSV,4,4,13,30,14,038,,,,,,,,,,,,,*46

$GLGSV,3,1,12,73,24,251,,82,02,122,,81,24,079,26,70,24,251,*6B
$GLGSV,3,2,12,70,53,227,,80,79,292,,79,36,059,,69,11,182,*6D
$GLGSV,3,3,12,88,22,020,,87,00,341,,71,43,313,,72,02,343,*6E
$GPGLL,5628.10742,N,08458.92177,E,030944.000,V*2B
$GPRMC,030946.00
0,V,5628.10742,N,08458.92177,E,0.8,37.7,010616,,,N*47
$GPGGA,030946.000,5628.10742,N,08458.92177,E,0,01,99.0,0107.7,M,-33.9,M,,*73
$GPVTG,37.7,T,,M,0.8,N,1.5,K,N*3D
$GNGSA,A,1,,,,,,,,,,,,,99.0,99.0,99.0*1E
$GNGSA,A,1,81,,,,,,,,,,,,99.0,99.0,99.0*17
$G
PGSV,4,1,13,05,30,072,,07,09,012,,10,03,247,,13,50,093,*7E
$GPGSV,4,2,13,15,49,152,,16,19,303,,18,37,244,,20,78,107,*79
$GPGSV,4,3,13,21,64,278,,26,11,275,,27,12,326,,29,28,186,*7B
$GPGSV,4,4,13,30,14,038,,,,,,,,,,,,,*46
$GLGSV,3,1,12,73,24,251,,82,02,
122,,81,24,079,27,70,24,251,*6A
$GLGSV,3,2,12,70,53,227,,80,79,292,,79,36,059,,69,11,182,*6D
$GLGSV,3,3,12,88,22,020,,87,00,341,,71,43,313,,72,02,343,*6E
$GPGLL,5628.10742,N,08458.92177,E,030946.000,V*29
$GPRMC,030947.000,V,5628.10742,N,08458.92177,E,0
.8,37.7,010616,,,N*46
$GPGGA,030947.000,5628.10742,N,08458.92177,E,0,01,99.0,0107.7,M,-33.9,M,,*72
$GPVTG,37.7,T,,M,0.8,N,1.5,K,N*3D
$GNGSA,A,1,,,,,,,,,,,,,99.0,99.0,99.0*1E
$GNGSA,A,1,81,,,,,,,,,,,,99.0,99.0,99.0*17
$GPGSV,4,1,13,05,30,072,,07,09,012
,,10,03,247,,13,50,093,*7E
$GPGSV,4,2,13,15,49,152,,16,19,303,,18,37,244,,20,78,107,*79
$GPGSV,4,3,13,21,64,278,,26,11,275,,27,12,326,,29,28,186,*7B
$GPGSV,4,4,13,30,14,038,,,,,,,,,,,,,*46
$GLGSV,3,1,12,73,24,251,,82,02,122,,81,24,079,27,70,24,251,*6A

$GLGSV,3,2,12,70,53,227,,80,79,292,,79,36,059,,69,11,182,*6D
$GLGSV,3,3,12,88,22,020,,87,00,341,,71,43,313,,72,02,343,*6E
$GPGLL,5628.10742,N,08458.92177,E,030947.000,V*28
$GPRMC,030949.000,V,5628.10742,N,08458.92177,E,0.8,37.7,010616,,,N*48
$GPGGA,03
0949.000,5628.10742,N,08458.92177,E,0,01,99.0,0107.7,M,-33.9,M,,*7C
$GPVTG,37.7,T,,M,0.8,N,1.5,K,N*3D
$GNGSA,A,1,,,,,,,,,,,,,99.0,99.0,99.0*1E
$GNGSA,A,1,81,,,,,,,,,,,,99.0,99.0,99.0*17
$GPGSV,4,1,13,05,30,072,,07,09,012,,10,03,247,,13,50,092,*7F
$GPG
SV,4,2,13,15,49,152,,16,19,303,,18,37,244,,20,78,107,*79
$GPGSV,4,3,13,21,64,278,,26,11,275,,27,12,326,,29,28,186,*7B
$GPGSV,4,4,13,30,14,038,,,,,,,,,,,,,*46
$GLGSV,3,1,12,73,24,251,,82,03,121,,81,24,079,27,70,24,251,*68
$GLGSV,3,2,12,70,53,227,,80,79,
292,,79,36,059,,69,11,182,*6D
$GLGSV,3,3,12,88,22,020,,87,00,341,,71,43,313,,72,02,343,*6E
$GPGLL,5628.10742,N,08458.92177,E,030949.000,V*26
$GPRMC,030950.000,V,5628.10742,N,08458.92177,E,0.8,37.7,010616,,,N*40
$GPGGA,030950.000,5628.10742,N,08458.9217
7,E,0,01,99.0,0107.7,M,-33.9,M,,*74
$GPVTG,37.7,T,,M,0.8,N,1.5,K,N*3D
$GNGSA,A,1,,,,,,,,,,,,,99.0,99.0,99.0*1E
$GNGSA,A,1,81,,,,,,,,,,,,99.0,99.0,99.0*17
$GPGSV,4,1,13,05,30,072,,07,09,012,,10,03,247,,13,50,092,*7F
$GPGSV,4,2,13,15,49,152,,16,19,303,,
18,37,244,,20,78,107,*79
$GPGSV,4,3,13,21,64,278,,26,11,275,,27,12,326,,29,28,186,*7B
$GPGSV,4,4,13,30,14,038,,,,,,,,,,,,,*46
$GLGSV,3,1,12,73,24,251,,82,03,121,,81,24,079,27,70,24,251,*68
$GLGSV,3,2,12,70,53,227,,80,79,292,,79,36,059,,69,11,182,*6D
$
GLGSV,3,3,12,88,22,020,,87,00,341,,71,43,313,,72,02,343,*6E
$GPGLL,5628.10742,N,08458.92177,E,030950.000,V*2E
$GPRMC,030952.000,V,5628.10742,N,08458.92177,E,0.8,37.7,010616,,,N*42
$GPGGA,030952.000,5628.10742,N,08458.92177,E,0,01,99.0,0107.7,M,-33.9,M,,
*76
$GPVTG,37.7,T,,M,0.8,N,1.5,K,N*3D
$GNGSA,A,1,,,,,,,,,,,,,99.0,99.0,99.0*1E
$GNGSA,A,1,81,,,,,,,,,,,,99.0,99.0,99.0*17
$GPGSV,4,1,13,05,30,072,,07,09,012,,10,03,247,,13,50,092,*7F
$GPGSV,4,2,13,15,49,152,,16,19,303,,18,37,244,,20,78,107,*79
$GPGSV
,4,3,13,21,64,278,,26,11,275,,27,12,326,,29,28,186,*7B
$GPGSV,4,4,13,30,14,038,,,,,,,,,,,,,*46
$GLGSV,3,1,12,73,24,251,,82,03,121,,81,24,079,26,70,24,251,*69
$GLGSV,3,2,12,70,53,227,,80,79,292,,79,36,059,,69,11,182,*6D
$GLGSV,3,3,12,88,22,020,,87,00,34
1,,71,43,313,,72,02,343,*6E
$GPGLL,5628.10742,N,08458.92177,E,030952.000,V*2C
$GPRMC,030954.000,V,5628.10742,N,08458.92177,E,0.8,37.7,010616,,,N*44
$GPGGA,030954.000,5628.10742,N,08458.92177,E,0,01,99.0,0107.7,M,-33.9,M,,*70
$GPVTG,37.7,T,,M,0.8,N,1.5,
K,N*3D
$GNGSA,A,1,,,,,,,,,,,,,99.0,99.0,99.0*1E
$GNGSA,A,1,81,,,,,,,,,,,,99.0,99.0,99.0*17
$GPGSV,4,1,13,05,30,072,,07,09,012,,10,03,247,,13,50,092,*7F
$GPGSV,4,2,13,15,49,152,,16,19,303,,18,37,244,,20,78,107,*79
$GPGSV,4,3,13,21,64,278,,26,11,275,,27
,12,326,,29,28,186,*7B
$GPGSV,4,4,13,30,14,038,,,,,,,,,,,,,*46
$GLGSV,3,1,12,73,24,251,,82,03,121,,81,24,079,27,70,24,251,*68
$GLGSV,3,2,12,70,53,227,,80,79,292,,79,36,059,,69,11,182,*6D
$GLGSV,3,3,12,88,22,020,,87,00,341,,71,43,313,,72,02,343,*6E
$GP
GLL,5628.10742,N,08458.92177,E,030954.000,V*2A
$GPRMC,030955.000,V,5628.10742,N,08458.92177,E,0.8,37.7,010616,,,N*45
$GPGGA,030955.000,5628.10742,N,08458.92177,E,0,02,99.0,0107.7,M,-33.9,M,,*72
$GPVTG,37.7,T,,M,0.8,N,1.5,K,N*3D
$GNGSA,A,1,,,,,,,,,,,,,9
9.0,99.0,99.0*1E
$GNGSA,A,1,79,81,,,,,,,,,,,99.0,99.0,99.0*19
$GPGSV,4,1,13,05,30,072,,07,09,012,,10,03,247,,13,50,092,*7F
$GPGSV,4,2,13,15,49,152,,16,18,302,,18,37,244,,20,78,107,*79
$GPGSV,4,3,13,21,64,278,,26,11,275,,27,12,326,,29,28,186,*7B
$GPGSV
,4,4,13,30,14,038,,,,,,,,,,,,,*46
$GLGSV,3,1,12,73,24,251,,82,03,121,,81,24,079,26,70,24,251,*69
$GLGSV,3,2,12,70,53,227,,80,79,292,,79,36,059,27,69,11,182,*68
$GLGSV,3,3,12,88,22,020,,87,00,341,,71,43,313,,72,02,343,*6E
$GPGLL,5628.10742,N,08458.92177
,E,030955.000,V*2B
$GPRMC,030957.000,V,5628.10742,N,08458.92177,E,0.8,37.7,010616,,,N*47
$GPGGA,030957.000,5628.10742,N,08458.92177,E,0,02,99.0,0107.7,M,-33.9,M,,*70
$GPVTG,37.7,T,,M,0.8,N,1.5,K,N*3D
$GNGSA,A,1,,,,,,,,,,,,,99.0,99.0,99.0*1E
$GNGSA,A,1
,79,81,,,,,,,,,,,99.0,99.0,99.0*19
$GPGSV,4,1,13,05,30,072,,07,09,012,,10,03,247,,13,50,092,*7F
$GPGSV,4,2,13,15,49,152,,16,18,302,,18,37,244,,20,78,107,*79
$GPGSV,4,3,13,21,64,278,,26,11,275,,27,12,326,,29,28,186,*7B
$GPGSV,4,4,13,30,14,038,,,,,,,,,,,
,,*46
$GLGSV,3,1,12,73,24,251,,82,03,121,,81,24,079,25,70,24,251,*6A
$GLGSV,3,2,12,70,53,227,,80,79,292,,79,36,059,27,69,11,182,*68
$GLGSV,3,3,12,88,22,020,,87,00,341,,71,43,313,,72,02,343,*6E
$GPGLL,5628.10742,N,08458.92177,E,030957.000,V*29
$GPRMC,0
30958.000,V,5628.10742,N,08458.92177,E,0.8,37.7,010616,,,N*48
$GPGGA,030958.000,5628.10742,N,08458.92177,E,0,02,99.0,0107.7,M,-33.9,M,,*7F
$GPVTG,37.7,T,,M,0.8,N,1.5,K,N*3D
$GNGSA,A,1,,,,,,,,,,,,,99.0,99.0,99.0*1E
$GNGSA,A,1,79,81,,,,,,,,,,,99.0,99.0,9
9.0*19
$GPGSV,4,1,13,05,30,072,,07,09,012,,10,03,247,,13,50,092,*7F
$GPGSV,4,2,13,15,49,152,,16,18,302,,18,37,244,,20,78,107,*79
$GPGSV,4,3,13,21,64,278,,26,11,275,,27,12,326,,29,28,186,*7B
$GPGSV,4,4,13,30,14,038,,,,,,,,,,,,,*46
$GLGSV,3,1,12,73,24,2
51,,82,03,121,,81,24,079,25,70,24,251,*6A
$GLGSV,3,2,12,70,53,227,,80,79,292,,79,36,059,27,69,11,182,*68
$GLGSV,3,3,12,88,22,020,,87,00,341,,71,43,313,,72,02,343,*6E
$GPGLL,5628.10742,N,08458.92177,E,030958.000,V*26
$GPRMC,031000.000,V,5628.10742,N,084
58.92177,E,0.8,37.7,010616,,,N*4D
$GPGGA,031000.000,5628.10742,N,08458.92177,E,0,02,99.0,0107.7,M,-33.9,M,,*7A
$GPVTG,37.7,T,,M,0.8,N,1.5,K,N*3D
$GNGSA,A,1,,,,,,,,,,,,,99.0,99.0,99.0*1E
$GNGSA,A,1,79,81,,,,,,,,,,,99.0,99.0,99.0*19
$GPGSV,4,1,13,05,30,
072,,07,09,012,,10,03,247,,13,50,092,*7F
$GPGSV,4,2,13,15,49,152,,16,18,302,,18,38,244,,20,78,107,*76
$GPGSV,4,3,13,21,64,278,,26,11,275,,27,12,326,,29,28,186,*7B
$GPGSV,4,4,13,30,14,038,,,,,,,,,,,,,*46
$GLGSV,3,1,12,73,24,251,,82,03,121,,81,24,079,26,
70,24,251,*69
$GLGSV,3,2,12,70,53,227,,80,79,292,,79,36,059,27,69,11,182,*68
$GLGSV,3,3,12,88,22,020,,87,00,341,,71,43,313,,72,02,343,*6E
$GPGLL,5628.10742,N,08458.92177,E,031000.000,V*23
$GPRMC,031001.000,V,5628.10742,N,08458.92177,E,0.8,37.7,010616,,
,N*4C
$GPGGA,031001.000,5628.10742,N,08458.92177,E,0,02,99.0,0107.7,M,-33.9,M,,*7B
$GPVTG,37.7,T,,M,0.8,N,1.5,K,N*3D
$GNGSA,A,1,,,,,,,,,,,,,99.0,99.0,99.0*1E
$GNGSA,A,1,79,81,,,,,,,,,,,99.0,99.0,99.0*19
$GPGSV,4,1,13,05,30,072,,07,09,012,,10,03,247,,1
3,50,092,*7F
$GPGSV,4,2,13,15,49,152,,16,18,302,,18,38,244,,20,78,107,*76
$GPGSV,4,3,13,21,64,278,,26,11,275,,27,12,326,,29,28,186,*7B
$GPGSV,4,4,13,30,14,038,,,,,,,,,,,,,*46
$GLGSV,3,1,12,73,24,251,,82,03,121,,81,24,079,26,70,24,251,*69
$GLGSV,3,2,12
,70,53,227,,80,79,292,,79,36,059,27,69,11,182,*68
$GLGSV,3,3,12,88,22,020,,87,00,341,,71,43,313,,72,02,343,*6E
$GPGLL,5628.10742,N,08458.92177,E,031001.000,V*22
$GPRMC,031003.000,V,5628.10742,N,08458.92177,E,0.8,37.7,010616,,,N*4E
$GPGGA,031003.000,562
8.10742,N,08458.92177,E,0,02,99.0,0107.7,M,-33.9,M,,*79
$GPVTG,37.7,T,,M,0.8,N,1.5,K,N*3D
$GNGSA,A,1,,,,,,,,,,,,,99.0,99.0,99.0*1E
$GNGSA,A,1,79,81,,,,,,,,,,,99.0,99.0,99.0*19
$GPGSV,4,1,13,05,30,072,,07,09,012,,10,03,247,,13,50,092,*7F
$GPGSV,4,2,13,
15,49,152,,16,18,302,,18,38,244,,20,78,105,*74
$GPGSV,4,3,13,21,64,278,,26,11,275,,27,12,326,,29,28,186,*7B
$GPGSV,4,4,13,30,14,038,,,,,,,,,,,,,*46
$GLGSV,3,1,12,73,24,251,,82,03,121,,81,24,078,26,70,24,251,*68
$GLGSV,3,2,12,70,53,227,,80,79,292,,79,36
,059,27,69,11,182,*68
$GLGSV,3,3,12,88,22,020,,87,00,341,,71,43,313,,72,02,343,*6E
$GPGLL,5628.10742,N,08458.92177,E,031003.000,V*20
$GPRMC,031004.000,V,5628.10742,N,08458.92177,E,0.8,37.7,010616,,,N*49
$GPGGA,031004.000,5628.10742,N,08458.92177,E,0,02
,99.0,0107.7,M,-33.9,M,,*7E
$GPVTG,37.7,T,,M,0.8,N,1.5,K,N*3D
$GNGSA,A,1,,,,,,,,,,,,,99.0,99.0,99.0*1E
$GNGSA,A,1,79,81,,,,,,,,,,,99.0,99.0,99.0*19
$GPGSV,4,1,13,05,30,072,,07,09,012,,10,03,247,,13,50,092,*7F
$GPGSV,4,2,13,15,49,152,,16,18,302,,18,38,
244,,20,78,105,*74
$GPGSV,4,3,13,21,64,278,,26,11,275,,27,12,326,,29,28,186,*7B
$GPGSV,4,4,13,30,14,038,,,,,,,,,,,,,*46
$GLGSV,3,1,12,73,24,251,,82,03,121,,81,24,078,26,70,24,251,*68
$GLGSV,3,2,12,70,53,227,,80,79,292,,79,36,059,27,69,11,182,*68
$GLGS
V,3,3,12,88,22,020,,87,00,341,,71,43,313,,72,02,343,*6E
$GPGLL,5628.10742,N,08458.92177,E,031004.000,V*27
$GPRMC,031006.000,V,5628.10742,N,08458.92177,E,0.8,37.7,010616,,,N*4B
$GPGGA,031006.000,5628.10742,N,08458.92177,E,0,02,99.0,0107.7,M,-33.9,M,,*7C

$GPVTG,37.7,T,,M,0.8,N,1.5,K,N*3D
$GNGSA,A,1,,,,,,,,,,,,,99.0,99.0,99.0*1E
$GNGSA,A,1,79,81,,,,,,,,,,,99.0,99.0,99.0*19
$GPGSV,4,1,13,05,30,072,,07,09,012,,10,03,247,,13,50,092,*7F
$GPGSV,4,2,13,15,49,152,,16,18,302,,18,38,244,,20,78,105,*74
$GPGSV,4
,3,13,21,64,278,,26,11,275,,27,12,326,,29,28,186,*7B
$GPGSV,4,4,13,30,14,038,,,,,,,,,,,,,*46
$GLGSV,3,1,12,73,24,251,,82,03,121,,81,24,078,25,70,24,251,*6B
$GLGSV,3,2,12,70,53,227,,80,79,292,,79,36,059,26,69,11,182,*69
$GLGSV,3,3,12,88,22,020,,87,00,34
1,,71,43,313,,72,02,343,*6E
$GPGLL,5628.10742,N,08458.92177,E,031006.000,V*25
$GPRMC,031007.000,V,5628.10742,N,08458.92177,E,0.8,37.7,010616,,,N*4A
$GPGGA,031007.000,5628.10742,N,08458.92177,E,0,02,99.0,0107.7,M,-33.9,M,,*7D
$GPVTG,37.7,T,,M,0.8,N,1.5,
K,N*3D
$GNGSA,A,1,,,,,,,,,,,,,99.0,99.0,99.0*1E
$GNGSA,A,1,79,81,,,,,,,,,,,99.0,99.0,99.0*19
$GPGSV,4,1,13,05,30,072,,07,09,012,,10,03,247,,13,50,092,*7F
$GPGSV,4,2,13,15,49,152,,16,18,302,,18,38,244,,20,78,105,*74
$GPGSV,4,3,13,21,64,278,,26,11,275,,
27,12,326,,29,28,186,*7B
$GPGSV,4,4,13,30,14,038,,,,,,,,,,,,,*46
$GLGSV,3,1,12,73,24,251,,82,03,121,,81,24,078,25,70,24,251,*6B
$GLGSV,3,2,12,70,53,227,,80,79,292,,79,36,059,26,69,11,182,*69
$GLGSV,3,3,12,88,22,020,,87,00,341,,71,43,313,,72,02,343,*6E

$GPGLL,5628.10742,N,08458.92177,E,031007.000,V*24
$GPRMC,031009.000,V,5628.10742,N,08458.92177,E,0.8,37.7,010616,,,N*44
$GPGGA,031009.000,5628.10742,N,08458.92177,E,0,02,99.0,0107.7,M,-33.9,M,,*73
$GPVTG,37.7,T,,M,0.8,N,1.5,K,N*3D
$GNGSA,A,1,,,,,,,,,,
,,,99.0,99.0,99.0*1E
$GNGSA,A,1,79,81,,,,,,,,,,,99.0,99.0,99.0*19
$GPGSV,4,1,13,05,30,072,,07,09,012,,10,03,247,,13,50,092,*7F
$GPGSV,4,2,13,15,49,152,,16,18,302,,18,38,244,,20,78,105,*74
$GPGSV,4,3,13,21,64,278,,26,11,275,,27,12,326,,29,28,186,*7B
$G
PGSV,4,4,13,30,14,038,,,,,,,,,,,,,*46
$GLGSV,3,1,12,73,24,251,,82,03,121,,81,24,078,24,70,24,251,*6A
$GLGSV,3,2,12,70,53,227,,80,79,292,,79,35,060,26,69,11,182,*60
$GLGSV,3,3,12,88,22,020,,87,00,341,,71,43,313,,72,02,343,*6E
$GPGLL,5628.10742,N,08458.9
2177,E,031009.000,V*2A
$GPRMC,031011.000,V,5628.10742,N,08458.92177,E,0.8,37.7,010616,,,N*4D
$GPGGA,031011.000,5628.10742,N,08458.92177,E,0,01,99.0,0107.7,M,-33.9,M,,*79
$GPVTG,37.7,T,,M,0.8,N,1.5,K,N*3D
$GNGSA,A,1,,,,,,,,,,,,,99.0,99.0,99.0*1E
$GNGSA
,A,1,79,,,,,,,,,,,,99.0,99.0,99.0*10
$GPGSV,4,1,13,05,30,072,,07,09,012,,10,03,247,,13,50,092,*7F
$GPGSV,4,2,13,15,49,152,,16,18,302,,18,38,244,,20,78,105,*74
$GPGSV,4,3,13,21,64,278,,26,11,275,,27,12,326,,29,28,186,*7B
$GPGSV,4,4,13,30,14,038,,,,,,,,,
,,,,*46
$GLGSV,3,1,12,73,24,251,,82,03,121,,81,24,078,23,70,24,251,*6D
$GLGSV,3,2,12,70,53,227,,80,79,292,,79,35,060,26,69,11,182,*60
$GLGSV,3,3,12,88,22,020,,87,00,341,,71,43,313,,72,02,343,*6E
$GPGLL,5628.10742,N,08458.92177,E,031011.000,V*23
$GPRMC
,031012.000,V,5628.10742,N,08458.92177,E,0.8,37.7,010616,,,N*4E
$GPGGA,031012.000,5628.10742,N,08458.92177,E,0,01,99.0,0107.7,M,-33.9,M,,*7A
$GPVTG,37.7,T,,M,0.8,N,1.5,K,N*3D
$GNGSA,A,1,,,,,,,,,,,,,99.0,99.0,99.0*1E
$GNGSA,A,1,79,,,,,,,,,,,,99.0,99.0,9
9.0*10
$GPGSV,4,1,13,05,30,072,,07,09,012,,10,03,247,,13,50,092,*7F
$GPGSV,4,2,13,15,49,152,,16,18,302,,18,38,244,,20,78,105,*74
$GPGSV,4,3,13,21,64,278,,26,11,275,,27,12,326,,29,28,186,*7B
$GPGSV,4,4,13,30,14,038,,,,,,,,,,,,,*46
$GLGSV,3,1,12,73,24,2
51,,82,03,121,,81,24,078,22,70,24,251,*6C
$GLGSV,3,2,12,70,53,227,,80,79,292,,79,35,060,27,69,11,182,*61
$GLGSV,3,3,12,88,22,020,,87,00,341,,71,43,313,,72,02,343,*6E
$GPGLL,5628.10742,N,08458.92177,E,031012.000,V*20
$GPRMC,031014.000,V,5628.10742,N,084
58.92177,E,0.8,37.7,010616,,,N*48
$GPGGA,031014.000,5628.10742,N,08458.92177,E,0,01,99.0,0107.7,M,-33.9,M,,*7C
$GPVTG,37.7,T,,M,0.8,N,1.5,K,N*3D
$GNGSA,A,1,,,,,,,,,,,,,99.0,99.0,99.0*1E
$GNGSA,A,1,79,,,,,,,,,,,,99.0,99.0,99.0*10
$GPGSV,4,1,13,05,30,07
2,,07,09,012,,10,03,247,,13,50,092,*7F
$GPGSV,4,2,13,15,49,152,,16,18,302,,18,38,244,,20,78,105,*74
$GPGSV,4,3,13,21,64,278,,26,11,275,,27,12,326,,29,28,186,*7B
$GPGSV,4,4,13,30,14,038,,,,,,,,,,,,,*46
$GLGSV,3,1,12,73,24,251,,82,03,121,,81,24,078,22,70
,24,251,*6C
$GLGSV,3,2,12,70,53,227,,80,79,292,,79,35,060,26,69,11,182,*60
$GLGSV,3,3,12,88,22,020,,87,00,341,,71,43,313,,72,02,343,*6E
$GPGLL,5628.10742,N,08458.92177,E,031014.000,V*26
$GPRMC,031015.000,V,5628.10742,N,08458.92177,E,0.8,37.7,010616,,,N
*49
$GPGGA,031015.000,5628.10742,N,08458.92177,E,0,01,99.0,0107.7,M,-33.9,M,,*7D
$GPVTG,37.7,T,,M,0.8,N,1.5,K,N*3D
$GNGSA,A,1,,,,,,,,,,,,,99.0,99.0,99.0*1E
$GNGSA,A,1,79,,,,,,,,,,,,99.0,99.0,99.0*10
$GPGSV,4,1,13,05,30,072,,07,09,012,,10,03,247,,13,50
,092,*7F
$GPGSV,4,2,13,15,49,152,,16,18,302,,18,38,244,,20,78,105,*74
$GPGSV,4,3,13,21,64,278,,26,10,275,,27,12,326,,29,28,186,*7A
$GPGSV,4,4,13,30,14,038,,,,,,,,,,,,,*46
$GLGSV,3,1,12,73,24,251,,82,03,121,,81,24,078,22,70,24,251,*6C
$GLGSV,3,2,12,70,
53,227,,80,79,292,,79,35,060,26,69,11,182,*60
$GLGSV,3,3,12,88,22,020,,87,00,341,,71,43,313,,72,02,343,*6E
$GPGLL,5628.10742,N,08458.92177,E,031015.000,V*27
$GPRMC,031017.000,V,5628.10742,N,08458.92177,E,0.8,37.7,010616,,,N*4B
$GPGGA,031017.000,5628.10
742,N,08458.92177,E,0,01,99.0,0107.7,M,-33.9,M,,*7F
$GPVTG,37.7,T,,M,0.8,N,1.5,K,N*3D
$GNGSA,A,1,,,,,,,,,,,,,99.0,99.0,99.0*1E
$GNGSA,A,1,79,,,,,,,,,,,,99.0,99.0,99.0*10
$GPGSV,4,1,13,05,30,072,,07,09,012,,10,03,247,,13,50,092,*7F
$GPGSV,4,2,13,15,49,
152,,16,18,302,,18,38,244,,20,78,105,*74
$GPGSV,4,3,13,21,64,278,,26,10,275,,27,12,326,,29,28,186,*7A
$GPGSV,4,4,13,30,14,038,,,,,,,,,,,,,*46
$GLGSV,3,1,12,73,24,251,,82,03,121,,81,24,078,23,70,24,251,*6D
$GLGSV,3,2,12,70,53,227,,80,79,292,,79,35,060,2
6,69,11,182,*60
$GLGSV,3,3,12,88,22,020,,87,00,341,,71,43,313,,72,02,343,*6E
$GPGLL,5628.10742,N,08458.92177,E,031017.000,V*25
$GPRMC,031018.000,V,5628.10742,N,08458.92177,E,0.8,37.7,010616,,,N*44
$GPGGA,031018.000,5628.10742,N,08458.92177,E,0,01,99.0,
0107.7,M,-33.9,M,,*70
$GPVTG,37.7,T,,M,0.8,N,1.5,K,N*3D
$GNGSA,A,1,,,,,,,,,,,,,99.0,99.0,99.0*1E
$GNGSA,A,1,79,,,,,,,,,,,,99.0,99.0,99.0*10
$GPGSV,4,1,13,05,30,072,,07,09,012,,10,03,247,,13,50,092,*7F
$GPGSV,4,2,13,15,49,152,,16,18,302,,18,38,244,,20,
78,105,*74
$GPGSV,4,3,13,21,64,278,,26,10,275,,27,12,326,,29,28,186,*7A
$GPGSV,4,4,13,30,14,038,,,,,,,,,,,,,*46
$GLGSV,3,1,12,73,24,251,,82,03,121,,81,24,078,23,70,24,251,*6D
$GLGSV,3,2,12,70,53,227,,80,79,292,,79,35,060,26,69,11,182,*60
$GLGSV,3,3,12
,88,22,020,,87,00,341,,71,43,313,,72,02,343,*6E
$GPGLL,5628.10742,N,08458.92177,E,031018.000,V*2A
$GPRMC,031020.000,V,5628.10742,N,08458.92177,E,0.8,37.7,010616,,,N*4F
$GPGGA,031020.000,5628.10742,N,08458.92177,E,0,01,99.0,0107.7,M,-33.9,M,,*7B
$GPVTG,
37.7,T,,M,0.8,N,1.5,K,N*3D
$GNGSA,A,1,,,,,,,,,,,,,99.0,99.0,99.0*1E
$GNGSA,A,1,79,,,,,,,,,,,,99.0,99.0,99.0*10
$GPGSV,4,1,13,05,30,072,,07,09,012,,10,03,247,,13,50,092,*7F
$GPGSV,4,2,13,15,49,152,,16,18,302,,18,38,244,,20,78,105,*74
$GPGSV,4,3,13,21,6
4,278,,26,10,275,,27,12,326,,29,28,186,*7A
$GPGSV,4,4,13,30,14,038,,,,,,,,,,,,,*46
$GLGSV,3,1,12,73,24,251,,82,03,121,,81,24,078,22,70,24,251,*6C
$GLGSV,3,2,12,70,53,227,,80,79,292,,79,35,060,26,69,11,182,*60
$GLGSV,3,3,12,88,22,020,,87,00,341,,71,43,3
13,,72,02,343,*6E
$GPGLL,5628.10742,N,08458.92177,E,031020.000,V*21
$GPRMC,031021.000,V,5628.10742,N,08458.92177,E,0.8,37.7,010616,,,N*4E
$GPGGA,031021.000,5628.10742,N,08458.92177,E,0,01,99.0,0107.7,M,-33.9,M,,*7A
$GPVTG,37.7,T,,M,0.8,N,1.5,K,N*3D
$G
NGSA,A,1,,,,,,,,,,,,,99.0,99.0,99.0*1E
$GNGSA,A,1,79,,,,,,,,,,,,99.0,99.0,99.0*10
$GPGSV,4,1,13,05,30,072,,07,09,012,,10,03,247,,13,50,092,*7F
$GPGSV,4,2,13,15,49,152,,16,18,302,,18,38,244,,20,78,105,*74
$GPGSV,4,3,13,21,64,278,,26,10,275,,27,12,326,,2
9,28,186,*7A
$GPGSV,4,4,13,30,14,038,,,,,,,,,,,,,*46
$GLGSV,3,1,12,73,24,251,,82,03,121,,81,24,078,20,70,24,251,*6E
$GLGSV,3,2,12,70,53,227,,80,79,294,,79,35,060,25,69,11,182,*65
$GLGSV,3,3,12,88,22,020,,87,00,341,,71,43,313,,72,02,343,*6E
$GPGLL,5628
.10742,N,08458.92177,E,031021.000,V*20
$GPRMC,031023.000,V,5628.10742,N,08458.92177,E,0.8,37.7,010616,,,N*4C
$GPGGA,031023.000,5628.10742,N,08458.92177,E,0,01,99.0,0107.7,M,-33.9,M,,*78
$GPVTG,37.7,T,,M,0.8,N,1.5,K,N*3D
$GNGSA,A,1,,,,,,,,,,,,,99.0,99.0
,99.0*1E
$GNGSA,A,1,79,,,,,,,,,,,,99.0,99.0,99.0*10
$GPGSV,4,1,13,05,30,072,,07,09,012,,10,03,247,,13,50,092,*7F
$GPGSV,4,2,13,15,49,152,,16,18,302,,18,38,244,,20,78,105,*74
$GPGSV,4,3,13,21,64,278,,26,10,275,,27,12,326,,29,28,186,*7A
$GPGSV,4,4,13,30
,14,038,,,,,,,,,,,,,*46
$GLGSV,3,1,12,73,24,251,,82,03,121,,81,24,078,20,70,24,251,*6E
$GLGSV,3,2,12,70,53,227,,80,79,294,,79,35,060,25,69,11,182,*65
$GLGSV,3,3,12,88,22,020,,87,00,341,,71,43,313,,72,02,343,*6E
$GPGLL,5628.10742,N,08458.92177,E,031023.
000,V*22
$GPRMC,031024.000,V,5628.10742,N,08458.92177,E,0.8,37.7,010616,,,N*4B
$GPGGA,031024.000,5628.10742,N,08458.92177,E,0,01,99.0,0107.7,M,-33.9,M,,*7F
$GPVTG,37.7,T,,M,0.8,N,1.5,K,N*3D
$GNGSA,A,1,,,,,,,,,,,,,99.0,99.0,99.0*1E
$GNGSA,A,1,79,,,,,,,
,,,,,99.0,99.0,99.0*10
$GPGSV,4,1,13,05,30,072,,07,09,012,,10,03,247,,13,50,092,*7F
$GPGSV,4,2,13,15,49,152,,16,18,302,,18,38,244,,20,78,105,*74
$GPGSV,4,3,13,21,64,278,,26,10,275,,27,12,326,,29,28,186,*7A
$GPGSV,4,4,13,30,14,038,,,,,,,,,,,,,*46
$GLGS
V,3,1,12,73,24,251,,82,03,121,,81,24,078,20,70,24,251,*6E
$GLGSV,3,2,12,70,53,227,,80,79,294,,79,35,060,26,69,10,182,*67
$GLGSV,3,3,12,88,22,020,,87,00,341,,71,43,313,,72,02,343,*6E
$GPGLL,5628.10742,N,08458.92177,E,031024.000,V*25
$GPRMC,031026.000,V,
5628.10742,N,08458.92177,E,0.8,37.7,010616,,,N*49
$GPGGA,031026.000,5628.10742,N,08458.92177,E,0,01,99.0,0107.7,M,-33.9,M,,*7D
$GPVTG,37.7,T,,M,0.8,N,1.5,K,N*3D
$GNGSA,A,1,,,,,,,,,,,,,99.0,99.0,99.0*1E
$GNGSA,A,1,79,,,,,,,,,,,,99.0,99.0,99.0*10
$GPGSV
,4,1,13,05,30,072,,07,09,012,,10,03,247,,13,50,092,*7F
$GPGSV,4,2,13,15,49,152,,16,18,302,,18,38,244,,20,78,105,*74
$GPGSV,4,3,13,21,64,278,,26,10,275,,27,12,326,,29,28,186,*7A
$GPGSV,4,4,13,30,14,038,,,,,,,,,,,,,*46
$GLGSV,3,1,12,73,24,251,,82,03,121,
,81,24,078,20,70,24,251,*6E
$GLGSV,3,2,12,70,53,227,,80,79,294,,79,35,060,26,69,10,182,*67
$GLGSV,3,3,12,88,22,020,,87,00,341,,71,43,313,,72,02,343,*6E
$GPGLL,5628.10742,N,08458.92177,E,031026.000,V*27
$GPRMC,031027.000,V,5628.10742,N,08458.92177,E,0.8
,37.7,010616,,,N*48
$GPGGA,031027.000,5628.10742,N,08458.92177,E,0,01,99.0,0107.7,M,-33.9,M,,*7C
$GPVTG,37.7,T,,M,0.8,N,1.5,K,N*3D
$GNGSA,A,1,,,,,,,,,,,,,99.0,99.0,99.0*1E
$GNGSA,A,1,79,,,,,,,,,,,,99.0,99.0,99.0*10
$GPGSV,4,1,13,05,30,072,,07,09,012,,
10,03,247,,13,50,092,*7F
$GPGSV,4,2,13,15,49,152,,16,18,302,,18,38,244,,20,78,105,*74
$GPGSV,4,3,13,21,64,278,,26,10,275,,27,12,326,,29,28,186,*7A
$GPGSV,4,4,13,30,14,038,,,,,,,,,,,,,*46
$GLGSV,3,1,12,73,24,251,,82,03,121,,81,24,078,20,70,24,251,*6E
$
GLGSV,3,2,12,70,53,227,,80,79,294,,79,35,060,25,69,10,182,*64
$GLGSV,3,3,12,88,22,020,,87,00,341,,71,43,313,,72,02,343,*6E
$GPGLL,5628.10742,N,08458.92177,E,031027.000,V*26
$GPRMC,031029.000,V,5628.10742,N,08458.92177,E,0.8,37.7,010616,,,N*46
$GPGGA,03
1029.000,5628.10742,N,08458.92177,E,0,01,99.0,0107.7,M,-33.9,M,,*72
$GPVTG,37.7,T,,M,0.8,N,1.5,K,N*3D
$GNGSA,A,1,,,,,,,,,,,,,99.0,99.0,99.0*1E
$GNGSA,A,1,79,,,,,,,,,,,,99.0,99.0,99.0*10
$GPGSV,4,1,13,05,30,072,,07,09,012,,10,03,247,,13,50,092,*7F
$GPG
SV,4,2,13,15,49,152,,16,18,302,,18,38,244,,20,78,105,*74
$GPGSV,4,3,13,21,64,278,,26,10,275,,27,12,326,,29,28,186,*7A
$GPGSV,4,4,13,30,14,038,,,,,,,,,,,,,*46
$GLGSV,3,1,12,73,24,251,,82,03,121,,81,24,078,18,70,24,251,*65
$GLGSV,3,2,12,70,53,227,,80,79,
294,,79,35,060,26,69,10,182,*67
$GLGSV,3,3,12,88,22,020,,87,00,341,,71,43,313,,72,02,343,*6E
$GPGLL,5628.10742,N,08458.92177,E,031029.000,V*28
$GPRMC,031030.000,V,5628.10742,N,08458.92177,E,0.8,37.7,010616,,,N*4E
$GPGGA,031030.000,5628.10742,N,08458.92
177,E,0,01,99.0,0107.7,M,-33.9,M,,*7A
$GPVTG,37.7,T,,M,0.8,N,1.5,K,N*3D
$GNGSA,A,1,,,,,,,,,,,,,99.0,99.0,99.0*1E
$GNGSA,A,1,79,,,,,,,,,,,,99.0,99.0,99.0*10
$GPGSV,4,1,13,05,30,072,,07,09,012,,10,03,247,,13,50,092,*7F
$GPGSV,4,2,13,15,49,152,,16,18,302
,,18,38,244,,20,78,105,*74
$GPGSV,4,3,13,21,64,278,,26,10,275,,27,12,326,,29,28,186,*7A
$GPGSV,4,4,13,30,14,038,,,,,,,,,,,,,*46
$GLGSV,3,1,12,73,24,251,,82,03,121,,81,24,078,16,70,24,251,*6B
$GLGSV,3,2,12,70,53,227,,80,79,294,,79,35,060,26,69,10,182,*6
7
$GLGSV,3,3,12,88,22,020,,87,00,341,,71,43,313,,72,02,343,*6E
$GPGLL,5628.10742,N,08458.92177,E,031030.000,V*20
$GPRMC,031032.000,V,5628.10742,N,08458.92177,E,0.8,37.7,010616,,,N*4C
$GPGGA,031032.000,5628.10742,N,08458.92177,E,0,01,99.0,0107.7,M,-33.9
,M,,*78
$GPVTG,37.7,T,,M,0.8,N,1.5,K,N*3D
$GNGSA,A,1,,,,,,,,,,,,,99.0,99.0,99.0*1E
$GNGSA,A,1,79,,,,,,,,,,,,99.0,99.0,99.0*10
$GPGSV,4,1,13,05,30,072,,07,09,012,,10,03,247,,13,50,092,*7F
$GPGSV,4,2,13,15,49,152,,16,18,302,,18,38,244,,20,78,105,*74
$G
PGSV,4,3,13,21,64,278,,26,10,275,,27,12,326,,29,28,186,*7A
$GPGSV,4,4,13,30,14,038,,,,,,,,,,,,,*46
$GLGSV,3,1,12,73,24,251,,82,03,121,,81,24,078,17,70,24,251,*6A
$GLGSV,3,2,12,70,53,227,,80,79,294,,79,35,060,28,69,10,182,*69
$GLGSV,3,3,12,88,22,020,,87
,00,341,,71,43,313,,72,02,343,*6E
$GPGLL,5628.10742,N,08458.92177,E,031032.000,V*22
$GPRMC,031033.000,V,5628.10742,N,08458.92177,E,0.8,37.7,010616,,,N*4D
$GPGGA,031033.000,5628.10742,N,08458.92177,E,0,01,99.0,0107.7,M,-33.9,M,,*79
$GPVTG,37.7,T,,M,0.8,
N,1.5,K,N*3D
$GNGSA,A,1,,,,,,,,,,,,,99.0,99.0,99.0*1E
$GNGSA,A,1,79,,,,,,,,,,,,99.0,99.0,99.0*10
$GPGSV,4,1,13,05,30,072,,07,09,012,,10,03,247,,13,50,092,*7F
$GPGSV,4,2,13,15,49,152,,16,18,302,,18,38,244,,20,78,105,*74
$GPGSV,4,3,13,21,64,278,,26,10,2
75,,27,12,326,,29,28,186,*7A
$GPGSV,4,4,13,30,14,038,,,,,,,,,,,,,*46
$GLGSV,3,1,12,73,24,251,,82,03,121,,81,24,078,18,70,24,251,*65
$GLGSV,3,2,12,70,53,227,,80,79,294,,79,35,060,28,69,10,182,*69
$GLGSV,3,3,12,88,22,020,,87,00,341,,71,43,313,,72,02,343,
*6E
$GPGLL,5628.10742,N,08458.92177,E,031033.000,V*23
$GPRMC,031035.000,V,5628.10742,N,08458.92177,E,0.8,37.7,010616,,,N*4B
$GPGGA,031035.000,5628.10742,N,08458.92177,E,0,01,99.0,0107.7,M,-33.9,M,,*7F
$GPVTG,37.7,T,,M,0.8,N,1.5,K,N*3D
$GNGSA,A,1,,,,,,
,,,,,,,99.0,99.0,99.0*1E
$GNGSA,A,1,79,,,,,,,,,,,,99.0,99.0,99.0*10
$GPGSV,4,1,13,05,30,072,,07,09,012,,10,03,247,,13,50,092,*7F
$GPGSV,4,2,13,15,49,152,,16,18,302,,18,38,244,,20,78,105,*74
$GPGSV,4,3,13,21,64,278,,26,10,275,,27,12,326,,29,28,186,*7A

$GPGSV,4,4,13,30,14,038,,,,,,,,,,,,,*46
$GLGSV,3,1,12,73,24,251,,82,03,121,,81,24,078,18,70,24,251,*65
$GLGSV,3,2,12,70,53,227,,80,79,294,,79,35,060,27,69,10,182,*66
$GLGSV,3,3,12,88,22,020,,87,00,341,,71,43,313,,72,02,342,*6F
$GPGLL,5628.10742,N,08458
.92177,E,031035.000,V*25
$GPRMC,031037.000,V,5628.10742,N,08458.92177,E,0.8,37.7,010616,,,N*49
$GPGGA,031037.000,5628.10742,N,08458.92177,E,0,01,99.0,0107.7,M,-33.9,M,,*7D
$GPVTG,37.7,T,,M,0.8,N,1.5,K,N*3D
$GNGSA,A,1,,,,,,,,,,,,,99.0,99.0,99.0*1E
$GNG
SA,A,1,79,,,,,,,,,,,,99.0,99.0,99.0*10
$GPGSV,4,1,13,05,30,072,,07,09,012,,10,03,247,,13,50,092,*7F
$GPGSV,4,2,13,15,49,152,,16,18,302,,18,38,244,,20,78,105,*74
$GPGSV,4,3,13,21,64,278,,26,10,275,,27,12,326,,29,28,186,*7A
$GPGSV,4,4,13,30,14,038,,,,,,,
,,,,,,*46
$GLGSV,3,1,12,73,24,251,,82,03,121,,81,24,078,19,70,24,251,*64
$GLGSV,3,2,12,70,53,227,,80,79,294,,79,35,060,25,69,10,182,*64
$GLGSV,3,3,12,88,22,020,,87,00,341,,71,43,313,,72,02,342,*6F
$GPGLL,5628.10742,N,08458.92177,E,031037.000,V*27
$GPR
MC,031038.000,V,5628.10742,N,08458.92177,E,0.8,37.7,010616,,,N*46
$GPGGA,031038.000,5628.10742,N,08458.92177,E,0,01,99.0,0107.7,M,-33.9,M,,*72
$GPVTG,37.7,T,,M,0.8,N,1.5,K,N*3D
$GNGSA,A,1,,,,,,,,,,,,,99.0,99.0,99.0*1E
$GNGSA,A,1,79,,,,,,,,,,,,99.0,99.0
,99.0*10
$GPGSV,4,1,13,05,30,072,,07,09,012,,10,03,247,,13,50,092,*7F
$GPGSV,4,2,13,15,49,152,,16,18,302,,18,38,244,,20,78,105,*74
$GPGSV,4,3,13,21,64,278,,26,10,275,,27,12,326,,29,28,186,*7A
$GPGSV,4,4,13,30,14,038,,,,,,,,,,,,,*46
$GLGSV,3,1,12,73,24
,251,,82,03,121,,81,24,078,21,70,24,251,*6F
$GLGSV,3,2,12,70,53,227,,80,79,294,,79,35,060,24,69,10,182,*65
$GLGSV,3,3,12,88,22,020,,87,00,341,,71,43,313,,72,02,342,*6F
$GPGLL,5628.10742,N,08458.92177,E,031038.000,V*28
$GPRMC,031040.000,V,5628.10742,N,0
8458.92177,E,0.8,37.7,010616,,,N*49
$GPGGA,031040.000,5628.10742,N,08458.92177,E,0,01,99.0,0107.7,M,-33.9,M,,*7D
$GPVTG,37.7,T,,M,0.8,N,1.5,K,N*3D
$GNGSA,A,1,,,,,,,,,,,,,99.0,99.0,99.0*1E
$GNGSA,A,1,79,,,,,,,,,,,,99.0,99.0,99.0*10
$GPGSV,4,1,13,05,30,
072,,07,09,012,,10,03,247,,13,50,092,*7F
$GPGSV,4,2,13,15,49,152,,16,18,302,,18,38,244,,20,78,105,*74
$GPGSV,4,3,13,21,64,278,,26,10,275,,27,12,326,,29,28,186,*7A
$GPGSV,4,4,13,30,14,038,,,,,,,,,,,,,*46
$GLGSV,3,1,12,73,24,251,,82,03,121,,81,24,078,23,
70,24,251,*6D
$GLGSV,3,2,12,70,53,227,,80,79,294,,79,35,060,24,69,10,182,*65
$GLGSV,3,3,12,88,22,020,,87,00,341,,71,43,313,,72,02,342,*6F
$GPGLL,5628.10742,N,08458.92177,E,031040.000,V*27
$GPRMC,031041.000,V,5628.10742,N,08458.92177,E,0.8,37.7,010616,,
,N*48
$GPGGA,031041.000,5628.10742,N,08458.92177,E,0,01,99.0,0107.7,M,-33.9,M,,*7C
$GPVTG,37.7,T,,M,0.8,N,1.5,K,N*3D
$GNGSA,A,1,,,,,,,,,,,,,99.0,99.0,99.0*1E
$GNGSA,A,1,79,,,,,,,,,,,,99.0,99.0,99.0*10
$GPGSV,4,1,13,05,30,072,,07,09,012,,10,03,247,,13,
50,092,*7F
$GPGSV,4,2,13,15,49,152,,16,18,302,,18,38,244,,20,78,105,*74
$GPGSV,4,3,13,21,64,278,,26,10,275,,27,12,326,,29,28,186,*7A
$GPGSV,4,4,13,30,14,038,,,,,,,,,,,,,*46
$GLGSV,3,1,12,73,24,251,,82,03,121,,81,24,078,23,70,24,251,*6D
$GLGSV,3,2,12,7
0,53,227,,80,79,294,,79,35,060,24,69,10,182,*65
$GLGSV,3,3,12,88,22,020,,87,00,341,,71,43,313,,72,02,342,*6F
$GPGLL,5628.10742,N,08458.92177,E,031041.000,V*26
$GPRMC,031043.000,V,5628.10742,N,08458.92177,E,0.8,37.7,010616,,,N*4A
$GPGGA,031043.000,5628.
10742,N,08458.92177,E,0,02,99.0,0107.7,M,-33.9,M,,*7D
$GPVTG,37.7,T,,M,0.8,N,1.5,K,N*3D
$GNGSA,A,1,,,,,,,,,,,,,99.0,99.0,99.0*1E
$GNGSA,A,1,79,81,,,,,,,,,,,99.0,99.0,99.0*19
$GPGSV,4,1,13,05,30,072,,07,09,012,,10,03,247,,13,50,092,*7F
$GPGSV,4,2,13,15
,49,152,,16,18,302,,18,38,244,,20,78,105,*74
$GPGSV,4,3,13,21,64,278,,26,10,275,,27,12,326,,29,28,186,*7A
$GPGSV,4,4,13,30,14,038,,,,,,,,,,,,,*46
$GLGSV,3,1,12,73,24,251,,82,03,121,,81,24,078,24,70,24,251,*6A
$GLGSV,3,2,12,70,53,227,,80,79,294,,79,35,0
60,24,69,10,182,*65
$GLGSV,3,3,12,88,22,020,,87,00,341,,71,43,313,,72,02,342,*6F
$GPGLL,5628.10742,N,08458.92177,E,031043.000,V*24
$GPRMC,031044.000,V,5628.10742,N,08458.92177,E,0.8,37.7,010616,,,N*4D
$GPGGA,031044.000,5628.10742,N,08458.92177,E,0,02,9
9.0,0107.7,M,-33.9,M,,*7A
$GPVTG,37.7,T,,M,0.8,N,1.5,K,N*3D
$GNGSA,A,1,,,,,,,,,,,,,99.0,99.0,99.0*1E
$GNGSA,A,1,79,81,,,,,,,,,,,99.0,99.0,99.0*19
$GPGSV,4,1,13,05,30,072,,07,09,012,,10,03,247,,13,50,092,*7F
$GPGSV,4,2,13,15,49,152,,16,18,302,,18,38,24
4,,20,78,105,*74
$GPGSV,4,3,13,21,64,278,,26,10,275,,27,12,326,,29,28,186,*7A
$GPGSV,4,4,13,30,14,038,,,,,,,,,,,,,*46
$GLGSV,3,1,12,73,24,251,,82,03,121,,81,24,078,24,70,24,251,*6A
$GLGSV,3,2,12,70,53,227,,80,79,294,,79,35,060,25,69,10,182,*64
$GLGSV,
3,3,12,88,22,020,,87,00,341,,71,43,313,,72,02,342,*6F
$GPGLL,5628.10742,N,08458.92177,E,031044.000,V*23
$GPRMC,031046.000,V,5628.10742,N,08458.92177,E,0.8,37.7,010616,,,N*4F
$GPGGA,031046.000,5628.10742,N,08458.92177,E,0,02,99.0,0107.7,M,-33.9,M,,*78
$
GPVTG,37.7,T,,M,0.8,N,1.5,K,N*3D
$GNGSA,A,1,,,,,,,,,,,,,99.0,99.0,99.0*1E
$GNGSA,A,1,79,81,,,,,,,,,,,99.0,99.0,99.0*19
$GPGSV,4,1,13,05,30,072,,07,09,012,,10,03,247,,13,50,092,*7F
$GPGSV,4,2,13,15,49,152,,16,18,302,,18,38,244,,20,78,105,*74
$GPGSV,4,3
,13,21,64,278,,26,10,275,,27,12,326,,29,28,186,*7A
$GPGSV,4,4,13,30,14,038,,,,,,,,,,,,,*46
$GLGSV,3,1,12,73,24,251,,82,03,121,,81,24,078,24,70,24,251,*6A
$GLGSV,3,2,12,70,53,227,,80,79,294,,79,35,060,26,69,10,182,*67
$GLGSV,3,3,12,88,22,020,,87,00,341,
,71,43,313,,72,02,342,*6F
$GPGLL,5628.10742,N,08458.92177,E,031046.000,V*21
$GPRMC,031047.000,V,5628.10742,N,08458.92177,E,0.8,37.7,010616,,,N*4E
$GPGGA,031047.000,5628.10742,N,08458.92177,E,0,02,99.0,0107.7,M,-33.9,M,,*79
$GPVTG,37.7,T,,M,0.8,N,1.5,K,
N*3D
$GNGSA,A,1,,,,,,,,,,,,,99.0,99.0,99.0*1E
$GNGSA,A,1,79,81,,,,,,,,,,,99.0,99.0,99.0*19
$GPGSV,4,1,13,05,30,072,,07,09,012,,10,03,247,,13,50,092,*7F
$GPGSV,4,2,13,15,49,152,,16,18,302,,18,38,244,,20,78,105,*74
$GPGSV,4,3,13,21,64,278,,26,10,275,,27
,12,326,,29,28,186,*7A
$GPGSV,4,4,13,30,14,038,,,,,,,,,,,,,*46
$GLGSV,3,1,12,73,24,251,,82,03,121,,81,24,078,24,70,24,251,*6A
$GLGSV,3,2,12,70,53,227,,80,79,294,,79,35,060,26,69,10,182,*67
$GLGSV,3,3,12,88,22,020,,87,00,341,,71,43,313,,72,02,342,*6F
$
GPGLL,5628.10742,N,08458.92177,E,031047.000,V*20
$GPRMC,031049.000,V,5628.10742,N,08458.92177,E,0.8,37.7,010616,,,N*40
$GPGGA,031049.000,5628.10742,N,08458.92177,E,0,02,99.0,0107.7,M,-33.9,M,,*77
$GPVTG,37.7,T,,M,0.8,N,1.5,K,N*3D
$GNGSA,A,1,,,,,,,,,,,,
,99.0,99.0,99.0*1E
$GNGSA,A,1,79,81,,,,,,,,,,,99.0,99.0,99.0*19
$GPGSV,4,1,13,05,30,072,,07,09,012,,10,03,247,,13,50,092,*7F
$GPGSV,4,2,13,15,49,152,,16,18,302,,18,38,244,,20,78,105,*74
$GPGSV,4,3,13,21,64,278,,26,10,275,,27,12,326,,29,28,186,*7A
$GPG
SV,4,4,13,30,14,038,,,,,,,,,,,,,*46
$GLGSV,3,1,12,73,24,251,,82,03,121,,81,24,078,24,70,24,251,*6A
$GLGSV,3,2,12,70,53,227,,80,79,294,,79,35,060,25,69,10,182,*64
$GLGSV,3,3,12,88,22,020,,87,00,341,,71,43,313,,72,02,342,*6F
$GPGLL,5628.10742,N,08458.921
77,E,031049.000,V*2E
$GPRMC,031050.000,V,5628.10742,N,08458.92177,E,0.8,37.7,010616,,,N*48
$GPGGA,031050.000,5628.10742,N,08458.92177,E,0,02,99.0,0107.7,M,-33.9,M,,*7F
$GPVTG,37.7,T,,M,0.8,N,1.5,K,N*3D
$GNGSA,A,1,,,,,,,,,,,,,99.0,99.0,99.0*1E
$GNGSA,A
,1,79,81,,,,,,,,,,,99.0,99.0,99.0*19
$GPGSV,4,1,13,05,30,072,,07,09,012,,10,03,247,,13,50,092,*7F
$GPGSV,4,2,13,15,49,152,,16,18,302,,18,38,244,,20,78,105,*74
$GPGSV,4,3,13,21,64,278,,26,10,275,,27,12,326,,29,28,186,*7A
$GPGSV,4,4,13,30,14,038,,,,,,,,,
,,,,*46
$GLGSV,3,1,12,73,24,251,,82,03,121,,81,24,078,24,70,24,251,*6A
$GLGSV,3,2,12,70,53,227,,80,79,294,,79,35,060,25,69,10,182,*64
$GLGSV,3,3,12,88,22,020,,87,00,341,,71,43,313,,72,02,342,*6F
$GPGLL,5628.10742,N,08458.92177,E,031050.000,V*26
$GPRMC
,031052.000,V,5628.10742,N,08458.92177,E,0.8,37.7,010616,,,N*4A
$GPGGA,031052.000,5628.10742,N,08458.92177,E,0,02,99.0,0107.7,M,-33.9,M,,*7D
$GPVTG,37.7,T,,M,0.8,N,1.5,K,N*3D
$GNGSA,A,1,,,,,,,,,,,,,99.0,99.0,99.0*1E
$GNGSA,A,1,79,81,,,,,,,,,,,99.0,99.0
,99.0*19
$GPGSV,4,1,13,05,30,072,,07,09,012,,10,03,247,,13,50,092,*7F
$GPGSV,4,2,13,15,49,152,,16,18,302,,18,38,244,,20,78,105,*74
$GPGSV,4,3,13,21,64,278,,26,10,275,,27,12,326,,29,28,186,*7A
$GPGSV,4,4,13,30,14,038,,,,,,,,,,,,,*46
$GLGSV,3,1,12,73,24
,251,,82,03,121,,81,24,078,25,70,24,251,*6B
$GLGSV,3,2,12,70,53,227,,80,79,294,,79,35,060,27,69,10,182,*66
$GLGSV,3,3,12,88,22,020,,87,00,341,,71,43,313,,72,02,342,*6F
$GPGLL,5628.10742,N,08458.92177,E,031052.000,V*24
$GPRMC,031054.000,V,5628.10742,N,0
8458.92177,E,0.8,37.7,010616,,,N*4C
$GPGGA,031054.000,5628.10742,N,08458.92177,E,0,02,99.0,0107.7,M,-33.9,M,,*7B
$GPVTG,37.7,T,,M,0.8,N,1.5,K,N*3D
$GNGSA,A,1,,,,,,,,,,,,,99.0,99.0,99.0*1E
$GNGSA,A,1,79,81,,,,,,,,,,,99.0,99.0,99.0*19
$GPGSV,4,1,13,05,3
0,072,,07,09,012,,10,03,247,,13,50,091,*7C
$GPGSV,4,2,13,15,49,152,,16,18,302,,18,38,244,,20,78,105,*74
$GPGSV,4,3,13,21,64,278,,26,10,275,,27,12,326,,29,28,186,*7A
$GPGSV,4,4,13,30,14,038,,,,,,,,,,,,,*46
$GLGSV,3,1,12,73,24,251,,82,03,121,,81,24,078,2
5,70,24,251,*6B
$GLGSV,3,2,12,70,53,227,,80,79,294,,79,35,060,26,69,10,182,*67
$GLGSV,3,3,12,88,22,020,,87,00,341,,71,43,313,,72,02,342,*6F
$GPGLL,5628.10742,N,08458.92177,E,031054.000,V*22
$GPRMC,031055.000,V,5628.10742,N,08458.92177,E,0.8,37.7,010616
,,,N*4D
$GPGGA,031055.000,5628.10742,N,08458.92177,E,0,02,99.0,0107.7,M,-33.9,M,,*7A
$GPVTG,37.7,T,,M,0.8,N,1.5,K,N*3D
$GNGSA,A,1,,,,,,,,,,,,,99.0,99.0,99.0*1E
$GNGSA,A,1,79,81,,,,,,,,,,,99.0,99.0,99.0*19
$GPGSV,4,1,13,05,30,072,,07,09,012,,10,03,247,
,13,50,091,*7C
$GPGSV,4,2,13,15,49,152,,16,18,302,,18,38,244,,20,78,105,*74
$GPGSV,4,3,13,21,64,278,,26,10,275,,27,12,326,,29,28,186,*7A
$GPGSV,4,4,13,30,14,038,,,,,,,,,,,,,*46
$GLGSV,3,1,12,73,24,251,,82,03,121,,81,24,078,25,70,24,251,*6B
$GLGSV,3,2,
12,70,53,227,,80,79,294,,79,35,060,26,69,10,182,*67
$GLGSV,3,3,12,88,22,020,,87,00,341,,71,43,313,,72,02,342,*6F
$GPGLL,5628.10742,N,08458.92177,E,031055.000,V*23
$GPRMC,031057.000,V,5628.10742,N,08458.92177,E,0.8,37.7,010616,,,N*4F
$GPGGA,031057.000,5
628.10742,N,08458.92177,E,0,01,99.0,0107.7,M,-33.9,M,,*7B
$GPVTG,37.7,T,,M,0.8,N,1.5,K,N*3D
$GNGSA,A,1,,,,,,,,,,,,,99.0,99.0,99.0*1E
$GNGSA,A,1,79,,,,,,,,,,,,99.0,99.0,99.0*10
$GPGSV,4,1,13,05,30,072,,07,09,012,,10,03,247,,13,50,091,*7C
$GPGSV,4,2,13,
15,49,152,,16,18,302,,18,38,244,,20,78,105,*74
$GPGSV,4,3,13,21,64,278,,26,10,275,,27,12,326,,29,28,186,*7A
$GPGSV,4,4,13,30,14,038,,,,,,,,,,,,,*46
$GLGSV,3,1,12,73,24,251,,82,03,121,,81,24,078,20,70,24,251,*6E
$GLGSV,3,2,12,70,53,227,,80,79,294,,79,35
,060,26,69,10,182,*67
$GLGSV,3,3,12,88,22,020,,87,00,341,,71,43,313,,72,02,342,*6F
$GPGLL,5628.10742,N,08458.92177,E,031057.000,V*21
$GPRMC,031058.000,V,5628.10742,N,08458.92177,E,0.8,37.7,010616,,,N*40
$GPGGA,031058.000,5628.10742,N,08458.92177,E,0,01
,99.0,0107.7,M,-33.9,M,,*74
$GPVTG,37.7,T,,M,0.8,N,1.5,K,N*3D
$GNGSA,A,1,,,,,,,,,,,,,99.0,99.0,99.0*1E
$GNGSA,A,1,79,,,,,,,,,,,,99.0,99.0,99.0*10
$GPGSV,4,1,13,05,30,072,,07,09,012,,10,03,247,,13,50,091,*7C
$GPGSV,4,2,13,15,50,151,,16,18,302,,18,38,24
4,,20,78,105,*7F
$GPGSV,4,3,13,21,64,278,,26,10,275,,27,12,326,,29,28,186,*7A
$GPGSV,4,4,13,30,14,038,,,,,,,,,,,,,*46
$GLGSV,3,1,12,73,24,251,,82,03,121,,81,24,078,19,70,24,251,*64
$GLGSV,3,2,12,70,53,227,,80,79,294,,79,35,060,25,69,10,182,*64
$GLGSV,
3,3,12,88,22,020,,87,00,341,,71,43,313,,72,02,342,*6F
$GPGLL,5628.10742,N,08458.92177,E,031058.000,V*2E
$GPRMC,031100.000,V,5628.10742,N,08458.92177,E,0.8,37.7,010616,,,N*4C
$GPGGA,031100.000,5628.10742,N,08458.92177,E,0,01,99.0,0107.7,M,-33.9,M,,*78
$
GPVTG,37.7,T,,M,0.8,N,1.5,K,N*3D
$GNGSA,A,1,,,,,,,,,,,,,99.0,99.0,99.0*1E
$GNGSA,A,1,79,,,,,,,,,,,,99.0,99.0,99.0*10
$GPGSV,4,1,13,05,30,072,,07,09,012,,10,03,247,,13,50,091,*7C
$GPGSV,4,2,13,15,50,151,,16,18,302,,18,38,244,,20,78,105,*7F
$GPGSV,4,3,1
3,21,64,278,,26,10,275,,27,12,326,,29,28,186,*7A
$GPGSV,4,4,13,30,14,038,,,,,,,,,,,,,*46
$GLGSV,3,1,12,73,24,251,,82,03,121,,81,24,078,19,70,24,251,*64
$GLGSV,3,2,12,70,53,227,,80,79,294,,79,35,060,25,69,10,182,*64
$GLGSV,3,3,12,88,22,020,,87,00,341,,7
1,43,313,,72,02,342,*6F
$GPGLL,5628.10742,N,08458.92177,E,031100.000,V*22
$GPRMC,031101.000,V,5628.10742,N,08458.92177,E,0.8,37.7,010616,,,N*4D
$GPGGA,031101.000,5628.10742,N,08458.92177,E,0,01,99.0,0107.7,M,-33.9,M,,*79
$GPVTG,37.7,T,,M,0.8,N,1.5,K,N*
3D
$GNGSA,A,1,,,,,,,,,,,,,99.0,99.0,99.0*1E
$GNGSA,A,1,79,,,,,,,,,,,,99.0,99.0,99.0*10
$GPGSV,4,1,13,05,30,072,,07,09,012,,10,03,247,,13,50,091,*7C
$GPGSV,4,2,13,15,50,151,,16,18,302,,18,38,244,,20,78,105,*7F
$GPGSV,4,3,13,21,64,278,,26,10,275,,27,12,
326,,29,28,186,*7A
$GPGSV,4,4,13,30,14,038,,,,,,,,,,,,,*46
$GLGSV,3,1,12,73,24,251,,82,03,121,,81,24,078,19,70,24,251,*64
$GLGSV,3,2,12,70,53,227,,80,79,294,,79,35,060,25,69,10,182,*64
$GLGSV,3,3,12,88,22,020,,87,00,341,,71,43,313,,72,02,342,*6F
$GPGL
L,5628.10742,N,08458.92177,E,031101.000,V*23
$GPRMC,031103.000,V,5628.10742,N,08458.92177,E,0.8,37.7,010616,,,N*4F
$GPGGA,031103.000,5628.10742,N,08458.92177,E,0,01,99.0,0107.7,M,-33.9,M,,*7B
$GPVTG,37.7,T,,M,0.8,N,1.5,K,N*3D
$GNGSA,A,1,,,,,,,,,,,,,99.
0,99.0,99.0*1E
$GNGSA,A,1,79,,,,,,,,,,,,99.0,99.0,99.0*10
$GPGSV,4,1,13,05,30,072,,07,09,012,,10,03,247,,13,50,091,*7C
$GPGSV,4,2,13,15,50,151,,16,18,302,,18,38,244,,20,78,105,*7F
$GPGSV,4,3,13,21,64,278,,26,10,275,,27,12,326,,29,28,186,*7A
$GPGSV,4,4
,13,30,14,038,,,,,,,,,,,,,*46
$GLGSV,3,1,12,73,24,251,,82,03,121,,81,24,078,18,70,24,251,*65
$GLGSV,3,2,12,70,53,227,,80,79,294,,79,35,060,25,69,10,182,*64
$GLGSV,3,3,12,88,22,020,,87,00,341,,71,43,313,,72,02,342,*6F
$GPGLL,5628.10742,N,08458.92177,E,0
31103.000,V*21
$GPRMC,031104.000,V,5628.10742,N,08458.92177,E,0.8,37.7,010616,,,N*48
$GPGGA,031104.000,5628.10742,N,08458.92177,E,0,01,99.0,0107.7,M,-33.9,M,,*7C
$GPVTG,37.7,T,,M,0.8,N,1.5,K,N*3D
$GNGSA,A,1,,,,,,,,,,,,,99.0,99.0,99.0*1E
$GNGSA,A,1,79,
,,,,,,,,,,,99.0,99.0,99.0*10
$GPGSV,4,1,13,05,30,072,,07,09,012,,10,03,247,,13,50,091,*7C
$GPGSV,4,2,13,15,50,151,,16,18,302,,18,38,244,,20,78,105,*7F
$GPGSV,4,3,13,21,64,278,,26,10,275,,27,12,326,,29,28,186,*7A
$GPGSV,4,4,13,30,14,038,,,,,,,,,,,,,*46

$GLGSV,3,1,12,73,24,251,,82,03,121,,81,24,078,18,70,24,251,*65
$GLGSV,3,2,12,70,53,227,,80,79,294,,79,35,060,26,69,10,182,*67
$GLGSV,3,3,12,88,22,020,,87,00,341,,71,43,313,,72,02,342,*6F
$GPGLL,5628.10742,N,08458.92177,E,031104.000,V*26
$GPRMC,031106.
000,V,5628.10742,N,08458.92177,E,0.8,37.7,010616,,,N*4A
$GPGGA,031106.000,5628.10742,N,08458.92177,E,0,01,99.0,0107.7,M,-33.9,M,,*7E
$GPVTG,37.7,T,,M,0.8,N,1.5,K,N*3D
$GNGSA,A,1,,,,,,,,,,,,,99.0,99.0,99.0*1E
$GNGSA,A,1,79,,,,,,,,,,,,99.0,99.0,99.0*10

$GPGSV,4,1,13,05,30,072,,07,09,012,,10,03,247,,13,50,091,*7C
$GPGSV,4,2,13,15,50,151,,16,18,302,,18,38,244,,20,78,105,*7F
$GPGSV,4,3,13,21,64,278,,26,10,275,,27,12,326,,29,28,186,*7A
$GPGSV,4,4,13,30,14,038,,,,,,,,,,,,,*46
$GLGSV,3,1,12,73,24,251,,82,0
3,121,,81,24,078,19,70,24,251,*64
$GLGSV,3,2,12,70,53,227,,80,79,294,,79,35,060,27,69,10,182,*66
$GLGSV,3,3,12,88,22,020,,87,00,341,,71,43,313,,72,02,342,*6F
$GPGLL,5628.10742,N,08458.92177,E,031106.000,V*24
$GPRMC,031107.000,V,5628.10742,N,08458.92177
,E,0.8,37.7,010616,,,N*4B
$GPGGA,031107.000,5628.10742,N,08458.92177,E,0,01,99.0,0107.7,M,-33.9,M,,*7F
$GPVTG,37.7,T,,M,0.8,N,1.5,K,N*3D
$GNGSA,A,1,,,,,,,,,,,,,99.0,99.0,99.0*1E
$GNGSA,A,1,79,,,,,,,,,,,,99.0,99.0,99.0*10
$GPGSV,4,1,13,05,30,072,,07,09
,012,,10,03,247,,13,50,091,*7C
$GPGSV,4,2,13,15,50,151,,16,18,302,,18,38,244,,20,77,104,*71
$GPGSV,4,3,13,21,64,278,,26,10,275,,27,12,326,,29,28,186,*7A
$GPGSV,4,4,13,30,14,038,,,,,,,,,,,,,*46
$GLGSV,3,1,12,73,24,251,,82,03,121,,81,24,078,19,70,24,251,
*64
$GLGSV,3,2,12,70,53,227,,80,79,294,,79,35,060,27,69,10,182,*66
$GLGSV,3,3,12,88,22,020,,87,00,341,,71,43,313,,72,02,342,*6F
$GPGLL,5628.10742,N,08458.92177,E,031107.000,V*25
$GPRMC,031109.000,V,5628.10742,N,08458.92177,E,0.8,37.7,010616,,,N*45
$GP
GGA,031109.000,5628.10742,N,08458.92177,E,0,01,99.0,0107.7,M,-33.9,M,,*71
$GPVTG,37.7,T,,M,0.8,N,1.5,K,N*3D
$GNGSA,A,1,,,,,,,,,,,,,99.0,99.0,99.0*1E
$GNGSA,A,1,79,,,,,,,,,,,,99.0,99.0,99.0*10
$GPGSV,4,1,13,05,30,072,,07,09,012,,10,03,247,,13,50,091,*7C

$GPGSV,4,2,13,15,50,151,,16,18,302,,18,38,244,,20,77,104,*71
$GPGSV,4,3,13,21,64,278,,26,10,275,,27,12,326,,29,28,186,*7A
$GPGSV,4,4,13,30,14,038,,,,,,,,,,,,,*46
$GLGSV,3,1,12,73,24,251,,82,03,121,,81,24,078,20,70,24,251,*6E
$GLGSV,3,2,12,70,53,227,,
80,79,294,,79,35,060,27,69,10,182,*66
$GLGSV,3,3,12,88,22,020,,87,00,341,,71,43,313,,72,02,342,*6F
$GPGLL,5628.10742,N,08458.92177,E,031109.000,V*2B
$GPRMC,031110.000,V,5628.10742,N,08458.92177,E,0.8,37.7,010616,,,N*4D
$GPGGA,031110.000,5628.10742,N,08
458.92177,E,0,01,99.0,0107.7,M,-33.9,M,,*79
$GPVTG,37.7,T,,M,0.8,N,1.5,K,N*3D
$GNGSA,A,1,,,,,,,,,,,,,99.0,99.0,99.0*1E
$GNGSA,A,1,79,,,,,,,,,,,,99.0,99.0,99.0*10
$GPGSV,4,1,13,05,30,072,,07,09,012,,10,03,247,,13,50,091,*7C
$GPGSV,4,2,13,15,50,151,,16,
18,302,,18,38,244,,20,77,104,*71
$GPGSV,4,3,13,21,65,277,,26,10,275,,27,12,326,,29,28,186,*74
$GPGSV,4,4,13,30,14,038,,,,,,,,,,,,,*46
$GLGSV,3,1,12,73,24,251,,82,03,121,,81,24,078,20,70,24,251,*6E
$GLGSV,3,2,12,70,53,227,,80,79,294,,79,35,060,26,69,10,
182,*67
$GLGSV,3,3,12,88,22,020,,87,00,341,,71,43,313,,72,02,342,*6F
$GPGLL,5628.10742,N,08458.92177,E,031110.000,V*23
$GPRMC,031112.000,V,5628.10742,N,08458.92177,E,0.8,37.7,010616,,,N*4F
$GPGGA,031112.000,5628.10742,N,08458.92177,E,0,01,99.0,0107.7,M
,-33.9,M,,*7B
$GPVTG,37.7,T,,M,0.8,N,1.5,K,N*3D
$GNGSA,A,1,,,,,,,,,,,,,99.0,99.0,99.0*1E
$GNGSA,A,1,79,,,,,,,,,,,,99.0,99.0,99.0*10
$GPGSV,4,1,13,05,30,072,,07,09,012,,10,03,247,,13,50,091,*7C
$GPGSV,4,2,13,15,50,151,,16,18,302,,18,38,244,,20,77,104,*
71
$GPGSV,4,3,13,21,65,277,,26,10,275,,27,12,326,,29,28,186,*74
$GPGSV,4,4,13,30,14,038,,,,,,,,,,,,,*46
$GLGSV,3,1,12,73,24,251,,82,03,121,,81,24,078,21,70,24,251,*6F
$GLGSV,3,2,12,70,52,226,,80,79,294,,79,35,060,25,69,10,182,*64
$GLGSV,3,3,12,88,22,0
20,,87,00,341,,71,43,313,,72,02,342,*6F
$GPGLL,5628.10742,N,08458.92177,E,031112.000,V*21
$GPRMC,031114.000,V,5628.10742,N,08458.92177,E,0.8,37.7,010616,,,N*49
$GPGGA,031114.000,5628.10742,N,08458.92177,E,0,01,99.0,0107.7,M,-33.9,M,,*7D
$GPVTG,37.7,T,,
M,0.8,N,1.5,K,N*3D
$GNGSA,A,1,,,,,,,,,,,,,99.0,99.0,99.0*1E
$GNGSA,A,1,79,,,,,,,,,,,,99.0,99.0,99.0*10
$GPGSV,4,1,13,05,30,072,,07,09,012,,10,03,247,,13,50,091,*7C
$GPGSV,4,2,13,15,50,151,,16,18,302,,18,38,244,,20,77,104,*71
$GPGSV,4,3,13,21,65,277,,2
6,10,275,,27,12,326,,29,28,186,*74
$GPGSV,4,4,13,30,14,038,,,,,,,,,,,,,*46
$GLGSV,3,1,12,73,24,251,,82,03,121,,81,24,078,22,70,24,251,*6C
$GLGSV,3,2,12,70,52,226,,80,79,294,,79,35,060,25,69,10,182,*64
$GLGSV,3,3,12,88,22,020,,87,00,341,,71,43,313,,72,0
2,342,*6F
$GPGLL,5628.10742,N,08458.92177,E,031114.000,V*27
$GPRMC,031115.000,V,5628.10742,N,08458.92177,E,0.8,37.7,010616,,,N*48
$GPGGA,031115.000,5628.10742,N,08458.92177,E,0,01,99.0,0107.7,M,-33.9,M,,*7C
$GPVTG,37.7,T,,M,0.8,N,1.5,K,N*3D
$GNGSA,A,1
,,,,,,,,,,,,,99.0,99.0,99.0*1E
$GNGSA,A,1,79,,,,,,,,,,,,99.0,99.0,99.0*10
$GPGSV,4,1,13,05,30,072,,07,09,012,,10,03,247,,13,50,091,*7C
$GPGSV,4,2,13,15,50,151,,16,18,302,,18,38,244,,20,77,104,*71
$GPGSV,4,3,13,21,65,277,,26,10,275,,27,12,326,,29,28,186
,*74
$GPGSV,4,4,13,30,14,038,,,,,,,,,,,,,*46
$GLGSV,3,1,12,73,24,251,,82,03,121,,81,24,078,23,70,24,251,*6D
$GLGSV,3,2,12,70,52,226,,80,79,294,,79,35,060,24,69,10,182,*65
$GLGSV,3,3,12,88,22,020,,87,00,341,,71,43,313,,72,02,342,*6F
$GPGLL,5628.10742,N
,08458.92177,E,031115.000,V*26
$GPRMC,031117.000,V,5628.10742,N,08458.92177,E,0.8,37.7,010616,,,N*4A
$GPGGA,031117.000,5628.10742,N,08458.92177,E,0,00,99.0,0107.7,M,-33.9,M,,*7F
$GPVTG,37.7,T,,M,0.8,N,1.5,K,N*3D
$GNGSA,A,1,,,,,,,,,,,,,99.0,99.0,99.0*1E

$GNGSA,A,1,,,,,,,,,,,,,99.0,99.0,99.0*1E
$GPGSV,4,1,13,05,30,072,,07,09,012,,10,03,247,,13,50,091,*7C
$GPGSV,4,2,13,15,50,151,,16,18,302,,18,38,244,,20,77,104,*71
$GPGSV,4,3,13,21,65,277,,26,10,275,,27,12,326,,29,28,186,*74
$GPGSV,4,4,13,30,14,038,,,
,,,,,,,,,,*46
$GLGSV,3,1,12,73,24,251,,82,03,121,,81,24,078,23,70,24,251,*6D
$GLGSV,3,2,12,70,52,226,,80,79,294,,79,35,060,23,69,10,182,*62
$GLGSV,3,3,12,88,22,020,,87,00,341,,71,43,313,,72,02,342,*6F
$GPGLL,5628.10742,N,08458.92177,E,031117.000,V*24

$GPRMC,031118.000,V,5628.10742,N,08458.92177,E,0.8,37.7,010616,,,N*45
$GPGGA,031118.000,5628.10742,N,08458.92177,E,0,00,99.0,0107.7,M,-33.9,M,,*70
$GPVTG,37.7,T,,M,0.8,N,1.5,K,N*3D
$GNGSA,A,1,,,,,,,,,,,,,99.0,99.0,99.0*1E
$GNGSA,A,1,,,,,,,,,,,,,99.0,99
.0,99.0*1E
$GPGSV,4,1,13,05,30,072,,07,09,012,,10,03,247,,13,50,091,*7C
