0,A,5629.97863,N,08458.88781,E,17.6,197.7,060815,,,A*57
$GPGGA,100916.000,5629.97863,N,08458.88781,E,1,17,0.6,0128.0,M,-33.9,M,,*48
$GPVTG,197.7,T,,M,17.6,N,32.6,K,A*02
$GNGSA,A,3,25,02,06,05,12,29,09,23,31,17,,,1.1,0.6,0.9*21
$GNGSA,A,3,74,73,80,66,67
,83,68,,,,,,1.1,0.6,0.9*28
$GPGSV,3,1,10,02,84,176,38,05,30,178,41,06,49,075,35,09,18,070,27*7F
$GPGSV,3,2,10,12,49,220,39,17,05,117,36,23,14,034,28,25,47,283,36*7D
$GPGSV,3,3,10,29,22,293,38,31,14,329,37,,,,,,,,*7B
$GLGSV,3,1,11,74,25,335,30,76,21,345
,,66,41,047,33,73,31,276,29*6D
$GLGSV,3,2,11,65,01,012,,83,43,294,34,67,45,128,37,68,08,169,29*6D
$GLGSV,3,3,11,71,08,098,,80,09,230,32,81,00,000,30,,,,*51
$GPGLL,5629.97863,N,08458.88781,E,100916.000,A*3F
$GPRMC,100917.000,A,5629.97401,N,08458.88523,E
,17.5,198.0,060815,,,A*5F
$GPGGA,100917.000,5629.97401,N,08458.88523,E,1,17,0.6,0127.9,M,-33.9,M,,*4D
$GPVTG,198.0,T,,M,17.5,N,32.5,K,A*0A
$GNGSA,A,3,25,02,06,05,12,29,09,23,31,17,,,1.1,0.6,0.9*21
$GNGSA,A,3,74,73,80,66,67,83,68,,,,,,1.1,0.6,0.9*28
$G
PGSV,3,1,10,02,84,176,38,05,30,178,41,06,49,075,36,09,18,070,27*7C
$GPGSV,3,2,10,12,49,220,39,17,05,117,35,23,14,034,29,25,47,283,36*7F
$GPGSV,3,3,10,29,22,293,39,31,14,329,37,,,,,,,,*7A
$GLGSV,3,1,11,74,25,335,27,76,21,345,,66,41,047,30,73,31,276,29*68

$GLGSV,3,2,11,65,01,012,,83,43,294,34,67,45,128,37,68,08,169,28*6C
$GLGSV,3,3,11,71,08,098,,80,09,230,32,81,00,000,30,,,,*51
$GPGLL,5629.97401,N,08458.88523,E,100917.000,A*3C
$GPRMC,100919.000,A,5629.96460,N,08458.87918,E,18.0,198.5,060815,,,A*53
$GP
GGA,100919.000,5629.96460,N,08458.87918,E,1,17,0.6,0127.5,M,-33.9,M,,*42
$GPVTG,198.5,T,,M,18.0,N,33.3,K,A*02
$GNGSA,A,3,25,02,06,05,12,29,09,23,31,17,,,1.1,0.6,0.9*21
$GNGSA,A,3,74,73,80,66,67,83,68,,,,,,1.1,0.6,0.9*28
$GPGSV,3,1,10,02,84,176,37,05,30
,178,40,06,49,075,37,09,18,070,29*7D
$GPGSV,3,2,10,12,49,220,39,17,05,117,36,23,14,034,29,25,47,283,35*7F
$GPGSV,3,3,10,29,22,293,39,31,14,329,36,,,,,,,,*7B
$GLGSV,3,1,11,74,25,335,28,76,21,345,,66,41,047,27,73,31,276,29*61
$GLGSV,3,2,11,65,01,012,,83,
43,294,32,67,45,128,37,68,08,169,28*6A
$GLGSV,3,3,11,71,08,098,,80,09,230,31,81,00,000,30,,,,*52
$GPGLL,5629.96460,N,08458.87918,E,100919.000,A*3F
$GPRMC,100921.000,A,5629.95534,N,08458.87429,E,17.4,197.8,060815,,,A*5D
$GPGGA,100921.000,5629.95534,N,08
458.87429,E,1,17,0.6,0127.2,M,-33.9,M,,*42
$GPVTG,197.8,T,,M,17.4,N,32.2,K,A*0B
$GNGSA,A,3,25,02,06,05,12,29,09,23,31,17,,,1.1,0.6,0.9*21
$GNGSA,A,3,74,73,80,66,67,83,68,,,,,,1.1,0.6,0.9*28
$GPGSV,3,1,10,02,84,176,37,05,30,178,40,06,49,075,36,09,18,070
,29*7C
$GPGSV,3,2,10,12,49,220,39,17,05,117,32,23,14,034,29,25,47,283,36*78
$GPGSV,3,3,10,29,22,293,39,31,14,329,35,,,,,,,,*78
$GLGSV,3,1,11,74,25,335,27,76,21,345,,66,41,047,25,73,31,276,29*6C
$GLGSV,3,2,11,65,01,012,,83,43,294,32,67,45,128,37,68,08,1
69,27*65
$GLGSV,3,3,11,71,08,098,,80,09,230,30,81,00,000,30,,,,*53
$GPGLL,5629.95534,N,08458.87429,E,100921.000,A*38
$GPRMC,100922.000,A,5629.95060,N,08458.87154,E,17.6,198.1,060815,,,A*51
$GPGGA,100922.000,5629.95060,N,08458.87154,E,1,17,0.6,0126.5,M,
-33.9,M,,*4C
$GPVTG,198.1,T,,M,17.6,N,32.6,K,A*0B
$GNGSA,A,3,25,02,06,05,12,29,09,23,31,17,,,1.1,0.6,0.9*21
$GNGSA,A,3,74,73,80,66,67,83,68,,,,,,1.1,0.6,0.9*28
$GPGSV,3,1,10,02,84,176,37,05,30,178,40,06,49,075,36,09,18,070,29*7C
$GPGSV,3,2,10,12,49,22
0,39,17,05,117,33,23,14,034,29,25,47,283,37*78
$GPGSV,3,3,10,29,22,293,40,31,14,329,35,,,,,,,,*76
$GLGSV,3,1,11,74,25,335,27,76,21,345,,66,41,047,25,73,31,276,30*64
$GLGSV,3,2,11,65,01,012,,83,43,294,33,67,46,127,37,68,08,169,28*67
$GLGSV,3,3,11,71,08,
098,,80,09,230,30,81,00,000,31,,,,*52
$GPGLL,5629.95060,N,08458.87154,E,100922.000,A*30
$GPRMC,100923.000,A,5629.94589,N,08458.86875,E,17.9,198.0,060815,,,A*56
$GPGGA,100923.000,5629.94589,N,08458.86875,E,1,17,0.6,0125.6,M,-33.9,M,,*45
$GPVTG,198.0,T,,
M,17.9,N,33.2,K,A*00
$GNGSA,A,3,25,02,06,05,12,29,09,23,31,17,,,1.1,0.6,0.9*21
$GNGSA,A,3,74,73,80,66,67,83,68,,,,,,1.1,0.6,0.9*28
$GPGSV,3,1,10,02,84,176,37,05,30,178,40,06,49,075,36,09,18,070,29*7C
$GPGSV,3,2,10,12,49,220,39,17,05,117,33,23,14,034,28
,25,47,283,37*79
$GPGSV,3,3,10,29,22,293,40,31,14,329,35,,,,,,,,*76
$GLGSV,3,1,11,74,25,335,27,76,21,345,,66,41,047,25,73,31,276,30*64
$GLGSV,3,2,11,65,01,012,,83,43,294,33,67,46,127,37,68,08,169,31*6F
$GLGSV,3,3,11,71,08,098,,80,09,230,30,81,00,000,31
,,,,*52
$GPGLL,5629.94589,N,08458.86875,E,100923.000,A*39
$GPRMC,100925.000,A,5629.93620,N,08458.86305,E,17.9,198.2,060815,,,A*59
$GPGGA,100925.000,5629.93620,N,08458.86305,E,1,17,0.6,0124.6,M,-33.9,M,,*49
$GPVTG,198.2,T,,M,17.9,N,33.2,K,A*02
$GNGSA,A
,3,25,02,06,05,12,29,09,23,31,17,,,1.1,0.6,0.9*21
$GNGSA,A,3,74,73,80,66,67,83,68,,,,,,1.1,0.6,0.9*28
$GPGSV,3,1,10,02,84,176,37,05,30,178,39,06,49,075,36,09,18,070,30*7A
$GPGSV,3,2,10,12,49,220,39,17,05,117,33,23,14,034,27,25,47,283,37*76
$GPGSV,3,3,1
0,29,22,293,40,31,14,329,35,,,,,,,,*76
$GLGSV,3,1,11,74,25,335,27,76,21,345,,66,41,047,24,73,31,276,31*64
$GLGSV,3,2,11,65,01,012,,83,43,294,33,67,46,127,37,68,08,169,31*6F
$GLGSV,3,3,11,71,08,098,,80,09,230,27,81,00,000,29,,,,*5D
$GPGLL,5629.93620,N,0
8458.86305,E,100925.000,A*34
$GPRMC,100927.000,A,5629.92665,N,08458.85698,E,17.9,198.6,060815,,,A*5D
$GPGGA,100927.000,5629.92665,N,08458.85698,E,1,17,0.6,0123.4,M,-33.9,M,,*4C
$GPVTG,198.6,T,,M,17.9,N,33.1,K,A*05
$GNGSA,A,3,25,02,06,05,12,29,09,23,31,
17,,,1.1,0.6,0.9*21
$GNGSA,A,3,74,73,80,66,67,83,68,,,,,,1.1,0.6,0.9*28
$GPGSV,3,1,10,02,84,176,36,05,30,178,39,06,49,075,37,09,18,070,29*72
$GPGSV,3,2,10,12,49,220,39,17,05,117,33,23,14,034,27,25,47,283,36*77
$GPGSV,3,3,10,29,22,293,39,31,14,329,34,,,
,,,,,*79
$GLGSV,3,1,11,74,25,335,27,76,21,345,,66,41,047,29,73,31,276,30*68
$GLGSV,3,2,11,65,01,012,,83,43,294,32,67,46,127,36,68,08,169,31*6F
$GLGSV,3,3,11,71,08,098,,80,09,230,28,81,00,000,28,,,,*53
$GPGLL,5629.92665,N,08458.85698,E,100927.000,A*34

$GPRMC,100928.000,A,5629.92197,N,08458.85445,E,18.0,197.9,060815,,,A*5C
$GPGGA,100928.000,5629.92197,N,08458.85445,E,1,17,0.6,0122.8,M,-33.9,M,,*46
$GPVTG,197.9,T,,M,18.0,N,33.3,K,A*01
$GNGSA,A,3,25,02,06,05,12,29,09,23,31,17,,,1.1,0.6,0.9*21
$GNGSA,A,
3,74,73,80,66,67,83,68,,,,,,1.1,0.6,0.9*28
$GPGSV,3,1,10,02,84,176,36,05,30,178,39,06,49,075,36,09,18,070,29*73
$GPGSV,3,2,10,12,49,220,40,17,05,117,28,23,14,034,27,25,47,283,37*72
$GPGSV,3,3,10,29,22,293,40,31,14,329,35,,,,,,,,*76
$GLGSV,3,1,11,74,25,
335,28,76,21,345,,66,41,047,29,73,31,276,31*66
$GLGSV,3,2,11,65,01,012,,83,43,294,32,67,46,127,36,68,08,169,29*66
$GLGSV,3,3,11,71,08,098,,80,09,230,27,81,00,000,28,,,,*5C
$GPGLL,5629.92197,N,08458.85445,E,100928.000,A*33
$GPRMC,100930.000,A,5629.91285
,N,08458.84962,E,17.3,196.0,060815,,,A*5B
$GPGGA,100930.000,5629.91285,N,08458.84962,E,1,17,0.6,0121.8,M,-33.9,M,,*46
$GPVTG,196.0,T,,M,17.3,N,32.0,K,A*07
$GNGSA,A,3,25,02,06,05,12,29,09,23,31,17,,,1.1,0.6,0.9*21
$GNGSA,A,3,74,73,80,66,67,83,68,,,,,,1.
1,0.6,0.9*28
$GPGSV,3,1,10,02,84,176,36,05,30,178,41,06,49,075,37,09,18,070,28*7C
$GPGSV,3,2,10,12,49,220,40,17,05,117,27,23,14,034,28,25,47,283,37*72
$GPGSV,3,3,10,29,22,293,41,31,14,329,36,,,,,,,,*74
$GLGSV,3,1,11,74,25,335,28,76,21,345,,66,41,047,31
,73,31,276,30*6E
$GLGSV,3,2,11,65,01,012,,83,43,294,32,67,46,127,36,68,08,169,27*68
$GLGSV,3,3,11,71,08,098,,80,09,230,27,81,00,000,29,,,,*5D
$GPGLL,5629.91285,N,08458.84962,E,100930.000,A*30
$GPRMC,100931.000,A,5629.90838,N,08458.84753,E,16.9,194.7,06
0815,,,A*55
$GPGGA,100931.000,5629.90838,N,08458.84753,E,1,17,0.6,0121.5,M,-33.9,M,,*4B
$GPVTG,194.7,T,,M,16.9,N,31.3,K,A*09
$GNGSA,A,3,25,02,06,05,12,29,09,23,31,17,,,1.1,0.6,0.9*21
$GNGSA,A,3,74,73,80,66,67,83,68,,,,,,1.1,0.6,0.9*28
$GPGSV,3,1,10,02
,84,176,36,05,30,178,41,06,49,075,37,09,18,070,31*74
$GPGSV,3,2,10,12,49,220,39,17,05,117,27,23,14,034,28,25,47,283,36*7D
$GPGSV,3,3,10,29,22,293,41,31,14,329,37,,,,,,,,*75
$GLGSV,3,1,11,74,25,335,28,76,21,345,,66,41,047,31,73,31,276,29*66
$GLGSV,3,2,1
1,65,01,012,,83,43,294,31,67,46,127,35,68,08,169,27*68
$GLGSV,3,3,11,71,08,098,,80,09,230,28,81,00,000,29,,,,*52
$GPGLL,5629.90838,N,08458.84753,E,100931.000,A*30
$GPRMC,100933.000,A,5629.89940,N,08458.84383,E,16.2,192.4,060815,,,A*56
$GPGGA,100933.000
,5629.89940,N,08458.84383,E,1,17,0.6,0121.2,M,-33.9,M,,*41
$GPVTG,192.4,T,,M,16.2,N,30.0,K,A*05
$GNGSA,A,3,25,02,06,05,12,29,09,23,31,17,,,1.1,0.6,0.9*21
$GNGSA,A,3,74,73,80,66,67,83,68,,,,,,1.1,0.6,0.9*28
$GPGSV,3,1,10,02,84,176,37,05,30,178,37,06,49,
075,36,09,18,070,33*77
$GPGSV,3,2,10,12,49,220,34,17,05,117,25,23,14,034,27,25,47,283,34*7F
$GPGSV,3,3,10,29,22,293,40,31,14,329,30,,,,,,,,*73
$GLGSV,3,1,11,74,25,335,28,76,21,345,,66,41,047,31,73,31,276,22*6D
$GLGSV,3,2,11,65,01,012,,83,43,294,32,67,4
6,127,34,68,08,169,34*68
$GLGSV,3,3,11,71,08,098,,80,09,230,27,81,00,000,28,,,,*5C
$GPGLL,5629.89940,N,08458.84383,E,100933.000,A*3D
$GPRMC,100934.000,A,5629.89477,N,08458.84191,E,16.3,191.4,060815,,,A*5B
$GPGGA,100934.000,5629.89477,N,08458.84191,E,1,
17,0.6,0120.7,M,-33.9,M,,*4A
$GPVTG,191.4,T,,M,16.3,N,30.1,K,A*06
$GNGSA,A,3,25,02,06,05,12,29,09,23,31,17,,,1.1,0.6,0.9*21
$GNGSA,A,3,74,73,80,66,67,83,68,,,,,,1.1,0.6,0.9*28
$GPGSV,3,1,10,02,84,176,37,05,30,178,35,06,49,075,35,09,18,070,36*73
$GPGSV
,3,2,10,12,49,220,34,17,05,117,25,23,14,034,25,25,47,283,33*7A
$GPGSV,3,3,10,29,22,293,40,31,14,329,31,,,,,,,,*72
$GLGSV,3,1,11,74,25,335,28,76,21,345,,66,41,047,32,73,31,276,25*69
$GLGSV,3,2,11,65,01,012,,83,43,294,33,67,46,127,34,68,08,169,35*68
$GLG
SV,3,3,11,71,08,098,,80,09,230,27,81,00,000,28,,,,*5C
$GPGLL,5629.89477,N,08458.84191,E,100934.000,A*32
$GPRMC,100936.000,A,5629.88595,N,08458.83852,E,16.4,188.9,060815,,,A*56
$GPGGA,100936.000,5629.88595,N,08458.83852,E,1,17,0.6,0120.4,M,-33.9,M,,*46

$GPVTG,188.9,T,,M,16.4,N,30.3,K,A*06
$GNGSA,A,3,25,02,06,05,12,29,09,23,31,17,,,1.1,0.6,0.9*21
$GNGSA,A,3,74,73,80,66,67,83,68,,,,,,1.1,0.6,0.9*28
$GPGSV,3,1,10,02,84,176,38,05,30,178,39,06,49,075,36,09,18,070,37*72
$GPGSV,3,2,10,12,49,220,34,17,05,117
,25,23,14,034,24,25,47,283,34*7C
$GPGSV,3,3,10,29,22,293,39,31,14,329,37,,,,,,,,*7A
$GLGSV,3,1,11,74,25,335,24,76,21,345,,66,41,047,26,73,31,276,32*66
$GLGSV,3,2,11,65,01,012,,83,43,294,35,67,46,127,35,68,08,169,31*6B
$GLGSV,3,3,11,71,08,098,,80,09,230
,28,81,00,000,28,,,,*53
$GPGLL,5629.88595,N,08458.83852,E,100936.000,A*3D
$GPRMC,100937.000,A,5629.88171,N,08458.83761,E,16.6,188.3,060815,,,A*5E
$GPGGA,100937.000,5629.88171,N,08458.83761,E,1,17,0.6,0120.2,M,-33.9,M,,*40
$GPVTG,188.3,T,,M,16.6,N,30.7,
K,A*0A
$GNGSA,A,3,25,02,06,05,12,29,09,23,31,17,,,1.1,0.6,0.9*21
$GNGSA,A,3,74,73,80,66,67,83,68,,,,,,1.1,0.6,0.9*28
$GPGSV,3,1,10,02,84,176,38,05,30,178,40,06,49,075,36,09,18,070,38*73
$GPGSV,3,2,10,12,49,220,34,17,05,117,26,23,14,034,25,25,47,283,34*
7E
$GPGSV,3,3,10,29,22,293,39,31,14,329,38,,,,,,,,*75
$GLGSV,3,1,11,74,25,335,24,76,21,345,,66,41,047,30,73,31,276,32*61
$GLGSV,3,2,11,65,01,012,,83,43,294,35,67,46,127,36,68,08,169,31*68
$GLGSV,3,3,11,71,08,098,,80,09,230,27,81,00,000,27,,,,*53
$GPGL
L,5629.88171,N,08458.83761,E,100937.000,A*3D
$GPRMC,100939.000,A,5629.87303,N,08458.83604,E,16.0,186.2,060815,,,A*53
$GPGGA,100939.000,5629.87303,N,08458.83604,E,1,17,0.6,0120.1,M,-33.9,M,,*47
$GPVTG,186.2,T,,M,16.0,N,29.7,K,A*0B
$GNGSA,A,3,25,02,06,05
,12,29,09,23,31,17,,,1.1,0.6,0.9*21
$GNGSA,A,3,74,73,80,66,67,83,68,,,,,,1.1,0.6,0.9*28
$GPGSV,3,1,10,02,84,176,38,05,30,178,41,06,49,075,36,09,18,070,39*73
$GPGSV,3,2,10,12,49,220,32,17,05,117,24,23,14,034,23,25,47,283,35*7D
$GPGSV,3,3,10,29,22,293,38
,31,14,329,38,,,,,,,,*74
$GLGSV,3,1,11,74,25,335,25,76,21,345,,66,41,047,32,73,31,276,32*62
$GLGSV,3,2,11,65,01,012,,83,43,294,35,67,46,127,38,68,08,169,31*66
$GLGSV,3,3,11,71,08,098,,80,09,230,30,81,00,000,26,,,,*54
$GPGLL,5629.87303,N,08458.83604,E,1
00939.000,A*39
$GPRMC,100941.000,A,5629.86434,N,08458.83454,E,14.8,184.8,060815,,,A*5B
$GPGGA,100941.000,5629.86434,N,08458.83454,E,1,17,0.6,0119.7,M,-33.9,M,,*41
$GPVTG,184.8,T,,M,14.8,N,27.3,K,A*03
$GNGSA,A,3,25,02,06,05,12,29,09,23,31,17,,,1.1,0.6,0
.9*21
$GNGSA,A,3,74,73,80,66,67,83,68,,,,,,1.1,0.6,0.9*28
$GPGSV,3,1,10,02,84,176,38,05,30,178,42,06,49,075,36,09,18,070,37*7E
$GPGSV,3,2,10,12,49,220,34,17,05,117,25,23,14,034,28,25,47,283,36*72
$GPGSV,3,3,10,29,22,293,37,31,14,329,38,,,,,,,,*7B
$GLG
SV,3,1,11,74,25,335,28,76,21,345,,66,41,047,34,73,31,276,31*6A
$GLGSV,3,2,11,65,01,012,,83,43,294,34,67,46,127,38,68,08,169,31*67
$GLGSV,3,3,11,71,08,098,,80,09,230,30,81,00,000,25,,,,*57
$GPGLL,5629.86434,N,08458.83454,E,100941.000,A*33
$GPRMC,100942.
000,A,5629.86034,N,08458.83380,E,14.6,182.6,060815,,,A*54
$GPGGA,100942.000,5629.86034,N,08458.83380,E,1,17,0.6,0119.5,M,-33.9,M,,*4A
$GPVTG,182.6,T,,M,14.6,N,27.1,K,A*07
$GNGSA,A,3,25,02,06,05,12,29,09,23,31,17,,,1.1,0.6,0.9*21
$GNGSA,A,3,74,73,80,66,
67,83,68,,,,,,1.1,0.6,0.9*28
$GPGSV,3,1,10,02,84,176,38,05,30,178,41,06,49,075,32,09,18,070,33*7D
$GPGSV,3,2,10,12,49,220,37,17,05,117,25,23,14,034,30,25,47,283,36*78
$GPGSV,3,3,10,29,22,293,35,31,14,329,37,,,,,,,,*76
$GLGSV,3,1,11,74,25,335,29,76,21,3
45,,66,41,047,33,73,31,276,32*6F
$GLGSV,3,2,11,65,01,012,,83,43,294,34,67,46,127,38,68,08,169,32*64
$GLGSV,3,3,11,71,08,098,,80,09,230,30,81,00,000,25,,,,*57
$GPGLL,5629.86034,N,08458.83380,E,100942.000,A*3A
$GPRMC,100943.000,A,5629.85630,N,08458.83342
,E,14.8,182.9,060815,,,A*5B
$GPGGA,100943.000,5629.85630,N,08458.83342,E,1,17,0.6,0119.5,M,-33.9,M,,*44
$GPVTG,182.9,T,,M,14.8,N,27.3,K,A*04
$GNGSA,A,3,25,02,06,05,12,29,09,23,31,17,,,1.1,0.6,0.9*21
$GNGSA,A,3,74,73,80,66,67,83,68,,,,,,1.1,0.6,0.9*28

$GPGSV,3,1,10,02,84,176,38,05,30,178,41,06,49,075,28,09,18,070,32*77
$GPGSV,3,2,10,12,49,220,39,17,05,117,24,23,14,034,31,25,47,283,35*75
$GPGSV,3,3,10,29,22,293,35,31,14,329,37,,,,,,,,*76
$GLGSV,3,1,11,74,25,335,29,76,21,345,,66,41,047,28,73,31,276,33*
64
$GLGSV,3,2,11,65,01,012,,83,43,294,34,67,46,127,38,68,08,169,33*65
$GLGSV,3,3,11,71,08,098,,80,09,230,30,81,00,000,25,,,,*57
$GPGLL,5629.85630,N,08458.83342,E,100943.000,A*34
$GPRMC,100945.000,A,5629.84826,N,08458.83348,E,14.6,181.9,060815,,,A*52
$
GPGGA,100945.000,5629.84826,N,08458.83348,E,1,17,0.6,0118.6,M,-33.9,M,,*42
$GPVTG,181.9,T,,M,14.6,N,27.1,K,A*0B
$GNGSA,A,3,25,02,06,05,12,29,09,23,31,17,,,1.1,0.6,0.9*21
$GNGSA,A,3,74,73,80,66,67,83,68,,,,,,1.1,0.6,0.9*28
$GPGSV,3,1,10,02,84,176,39,05,
30,178,43,06,49,075,29,09,18,070,30*77
$GPGSV,3,2,10,12,49,220,40,17,05,117,24,23,14,034,33,25,47,283,33*7F
$GPGSV,3,3,10,29,22,293,35,31,14,329,35,,,,,,,,*74
$GLGSV,3,1,11,74,25,335,29,76,21,345,,66,41,047,27,73,31,276,32*6A
$GLGSV,3,2,11,65,01,012,,8
3,43,294,33,67,46,127,38,68,08,169,35*64
$GLGSV,3,3,11,71,08,098,,80,09,230,32,81,00,000,31,,,,*50
$GPGLL,5629.84826,N,08458.83348,E,100945.000,A*30
$GPRMC,100947.000,A,5629.84010,N,08458.83367,E,14.0,179.9,060815,,,A*51
$GPGGA,100947.000,5629.84010,N,
08458.83367,E,1,15,0.7,0117.8,M,-33.9,M,,*42
$GPVTG,179.9,T,,M,14.0,N,26.0,K,A*0A
$GNGSA,A,3,25,02,06,05,12,29,09,23,31,,,,1.3,0.7,1.1*2D
$GNGSA,A,3,74,73,66,67,83,68,,,,,,,1.3,0.7,1.1*2A
$GPGSV,3,1,10,02,84,176,40,05,30,178,44,06,49,075,31,09,18,070,2
9*7F
$GPGSV,3,2,10,12,49,220,40,17,05,117,,23,14,034,33,25,47,283,35*7F
$GPGSV,3,3,10,29,22,293,30,31,14,329,34,,,,,,,,*70
$GLGSV,3,1,11,74,25,335,28,76,21,345,,66,41,047,31,73,31,276,31*6F
$GLGSV,3,2,11,65,01,012,,83,43,294,34,67,46,127,38,68,08,169,3
6*60
$GLGSV,3,3,11,71,08,098,,80,09,230,,81,00,000,33,,,,*53
$GPGLL,5629.84010,N,08458.83367,E,100947.000,A*32
$GPRMC,100948.000,A,5629.83694,N,08458.83388,E,11.9,179.8,060815,,,A*5F
$GPGGA,100948.000,5629.83694,N,08458.83388,E,1,15,0.7,0118.2,M,-33.9,
M,,*44
$GPVTG,179.8,T,,M,11.9,N,22.0,K,A*03
$GNGSA,A,3,25,02,06,05,12,29,09,23,31,,,,1.3,0.7,1.1*2D
$GNGSA,A,3,74,73,66,67,83,68,,,,,,,1.3,0.7,1.1*2A
$GPGSV,3,1,10,02,84,176,40,05,30,178,44,06,49,075,31,09,18,070,26*70
$GPGSV,3,2,10,12,49,220,39,17,05
,117,,23,14,034,33,25,47,283,36*72
$GPGSV,3,3,10,29,22,293,33,31,14,329,34,,,,,,,,*73
$GLGSV,3,1,11,74,25,335,26,76,21,345,,66,41,047,33,73,31,276,32*60
$GLGSV,3,2,11,65,01,012,,83,43,294,33,67,46,127,38,68,08,169,36*67
$GLGSV,3,3,11,71,08,098,,80,09,2
30,,81,00,000,34,,,,*54
$GPGLL,5629.83694,N,08458.83388,E,100948.000,A*31
$GPRMC,100950.000,A,5629.83154,N,08458.83355,E,8.1,179.8,060815,,,A*6D
$GPGGA,100950.000,5629.83154,N,08458.83355,E,1,15,0.7,0118.1,M,-33.9,M,,*45
$GPVTG,179.8,T,,M,8.1,N,15.0,K,
A*37
$GNGSA,A,3,25,02,06,05,12,29,09,23,31,,,,1.3,0.7,1.1*2D
$GNGSA,A,3,74,73,66,67,83,68,,,,,,,1.3,0.7,1.1*2A
$GPGSV,3,1,10,02,84,176,39,05,30,178,43,06,49,075,30,09,18,070,29*77
$GPGSV,3,2,10,12,49,220,38,17,05,117,,23,14,034,33,25,47,283,36*73
$GPG
SV,3,3,10,29,22,293,36,31,14,329,29,,,,,,,,*7A
$GLGSV,3,1,11,74,25,335,26,76,21,345,,66,41,047,34,73,31,276,31*64
$GLGSV,3,2,11,65,01,012,,83,43,294,33,67,46,127,37,68,08,169,36*68
$GLGSV,3,3,11,71,08,098,,80,09,230,,81,00,000,33,,,,*53
$GPGLL,5629.831
54,N,08458.83355,E,100950.000,A*33
$GPRMC,100951.000,A,5629.82937,N,08458.83306,E,7.2,179.2,060815,,,A*60
$GPGGA,100951.000,5629.82937,N,08458.83306,E,1,16,0.6,0118.2,M,-33.9,M,,*4F
$GPVTG,179.2,T,,M,7.2,N,13.4,K,A*33
$GNGSA,A,3,25,02,06,05,12,29,09,23
,31,,,,1.2,0.6,1.0*2C
$GNGSA,A,3,74,73,80,66,67,83,68,,,,,,1.2,0.6,1.0*23
$GPGSV,3,1,10,02,84,176,39,05,30,178,43,06,49,075,31,09,18,070,30*7E
$GPGSV,3,2,10,12,49,220,38,17,05,117,,23,14,033,34,25,47,283,36*73
$GPGSV,3,3,10,29,22,293,37,31,14,329,28,,,
,,,,,*7A
$GLGSV,3,1,11,74,25,335,27,76,21,345,,66,41,047,35,73,31,276,31*64
$GLGSV,3,2,11,65,01,012,,83,43,294,33,67,46,127,38,68,08,169,36*67
$GLGSV,3,3,11,71,08,098,,80,09,230,20,81,00,000,33,,,,*51
$GPGLL,5629.82937,N,08458.83306,E,100951.000,A*38

$GPRMC,100953.000,A,5629.82500,N,08458.83258,E,7.2,179.3,060815,,,A*61
$GPGGA,100953.000,5629.82500,N,08458.83258,E,1,15,0.7,0117.6,M,-33.9,M,,*46
$GPVTG,179.3,T,,M,7.2,N,13.3,K,A*35
$GNGSA,A,3,25,02,06,05,12,29,09,23,31,,,,1.3,0.7,1.1*2D
$GNGSA,A,3,74
,73,66,67,83,68,,,,,,,1.3,0.7,1.1*2A
$GPGSV,3,1,10,02,84,176,39,05,30,178,44,06,49,075,32,09,18,070,31*7B
$GPGSV,3,2,10,12,49,220,36,17,05,117,,23,14,033,35,25,47,283,37*7D
$GPGSV,3,3,10,29,22,293,37,31,14,329,28,,,,,,,,*7A
$GLGSV,3,1,11,74,25,335,26,7
6,21,345,,66,41,047,35,73,31,276,31*65
$GLGSV,3,2,11,65,01,012,,83,43,294,34,67,46,127,38,68,08,169,35*63
$GLGSV,3,3,11,71,08,098,,80,09,230,,81,00,000,33,,,,*53
$GPGLL,5629.82500,N,08458.83258,E,100953.000,A*38
$GPRMC,100954.000,A,5629.82269,N,08458.8
3231,E,8.4,177.9,060815,,,A*6C
$GPGGA,100954.000,5629.82269,N,08458.83231,E,1,16,0.6,0117.5,M,-33.9,M,,*47
$GPVTG,177.9,T,,M,8.4,N,15.6,K,A*3B
$GNGSA,A,3,25,02,06,05,12,29,09,23,31,17,,,1.2,0.6,1.0*2A
$GNGSA,A,3,74,73,66,67,83,68,,,,,,,1.2,0.6,1.0*2B

$GPGSV,3,1,10,02,84,176,39,05,30,178,44,06,49,075,33,09,18,070,31*7A
$GPGSV,3,2,10,12,49,220,32,17,05,117,25,23,14,033,34,25,47,282,37*7E
$GPGSV,3,3,10,29,22,293,38,31,14,329,27,,,,,,,,*7A
$GLGSV,3,1,11,74,26,335,26,76,21,345,,66,41,047,35,73,31,276,30*
67
$GLGSV,3,2,11,65,01,012,,83,43,294,33,67,46,127,38,68,08,169,35*64
$GLGSV,3,3,11,71,08,098,,80,09,230,,81,00,000,33,,,,*53
$GPGLL,5629.82269,N,08458.83231,E,100954.000,A*38
$GPRMC,100956.000,A,5629.81654,N,08458.83219,E,13.0,179.2,060815,,,A*56
$GP
GGA,100956.000,5629.81654,N,08458.83219,E,1,16,0.6,0117.3,M,-33.9,M,,*40
$GPVTG,179.2,T,,M,13.0,N,24.1,K,A*05
$GNGSA,A,3,25,02,06,05,12,29,09,23,31,,,,1.2,0.6,1.0*2C
$GNGSA,A,3,74,73,80,66,67,83,68,,,,,,1.2,0.6,1.0*23
$GPGSV,3,1,10,02,84,176,38,05,30,1
78,44,06,49,075,35,09,18,070,30*7C
$GPGSV,3,2,10,12,49,220,32,17,05,117,,23,14,033,35,25,47,282,38*77
$GPGSV,3,3,10,29,22,293,36,31,14,329,34,,,,,,,,*76
$GLGSV,3,1,11,74,26,335,28,76,21,345,,66,41,047,35,73,31,276,23*6B
$GLGSV,3,2,11,65,01,012,,83,43,2
94,33,67,46,127,39,68,08,169,34*64
$GLGSV,3,3,11,71,08,098,,80,09,230,19,81,00,000,32,,,,*5A
$GPGLL,5629.81654,N,08458.83219,E,100956.000,A*39
$GPRMC,100957.000,A,5629.81247,N,08458.83232,E,15.1,179.3,060815,,,A*5E
$GPGGA,100957.000,5629.81247,N,08458.
83232,E,1,15,0.6,0117.2,M,-33.9,M,,*4C
$GPVTG,179.3,T,,M,15.1,N,28.0,K,A*0E
$GNGSA,A,3,25,02,06,05,12,29,09,23,31,,,,1.2,0.6,1.0*2C
$GNGSA,A,3,74,80,66,67,83,68,,,,,,,1.2,0.6,1.0*27
$GPGSV,3,1,10,02,84,176,38,05,30,178,44,06,49,075,34,09,18,070,30*7D

$GPGSV,3,2,10,12,49,220,33,17,05,117,,23,14,033,35,25,47,282,39*77
$GPGSV,3,3,10,29,22,293,33,31,14,329,34,,,,,,,,*73
$GLGSV,3,1,11,74,26,335,28,76,21,345,,66,41,047,34,73,31,276,*6B
$GLGSV,3,2,11,65,01,012,,83,43,294,32,67,46,127,39,68,08,169,34*65
$G
LGSV,3,3,11,71,08,098,,80,09,230,19,81,00,000,31,,,,*59
$GPGLL,5629.81247,N,08458.83232,E,100957.000,A*37
$GPRMC,100959.000,A,5629.80336,N,08458.83184,E,16.1,180.4,060815,,,A*5A
$GPGGA,100959.000,5629.80336,N,08458.83184,E,1,16,0.6,0117.3,M,-33.9,M,,*48

$GPVTG,180.4,T,,M,16.1,N,29.9,K,A*04
$GNGSA,A,3,25,02,06,05,12,29,09,23,31,17,,,1.1,0.6,1.0*29
$GNGSA,A,3,74,73,80,67,83,68,,,,,,,1.1,0.6,1.0*20
$GPGSV,3,1,10,02,84,176,38,05,30,178,44,06,49,075,32,09,18,070,33*78
$GPGSV,3,2,10,12,49,220,33,17,05,117
,28,23,14,033,36,25,47,282,39*7E
$GPGSV,3,3,10,29,22,293,23,31,14,329,33,,,,,,,,*75
$GLGSV,3,1,11,74,26,335,30,76,21,345,,66,41,047,,73,31,276,19*6D
$GLGSV,3,2,11,65,01,012,,83,43,294,30,67,46,127,39,68,08,169,35*66
$GLGSV,3,3,11,71,08,098,,80,09,230,2
0,81,00,000,29,,,,*5A
$GPGLL,5629.80336,N,08458.83184,E,100959.000,A*31
$GPRMC,101000.000,A,5629.79868,N,08458.83181,E,16.2,180.8,060815,,,A*52
$GPGGA,101000.000,5629.79868,N,08458.83181,E,1,16,0.6,0117.2,M,-33.9,M,,*4E
$GPVTG,180.8,T,,M,16.2,N,30.0,K,
A*0A
$GNGSA,A,3,25,02,06,05,12,29,09,23,31,17,,,1.1,0.6,1.0*29
$GNGSA,A,3,74,73,80,67,83,68,,,,,,,1.1,0.6,1.0*20
$GPGSV,3,1,10,02,84,176,38,05,30,178,44,06,49,075,31,09,18,070,34*7C
$GPGSV,3,2,10,12,49,220,32,17,05,117,30,23,14,033,35,25,47,282,39*75

$GPGSV,3,3,10,29,22,293,21,31,14,329,33,,,,,,,,*77
$GLGSV,3,1,11,74,26,335,30,76,21,345,,66,41,047,,73,31,276,18*6C
$GLGSV,3,2,11,65,01,012,,83,43,294,28,67,46,127,39,68,08,169,35*6F
$GLGSV,3,3,11,71,08,098,,80,09,230,20,81,00,000,29,,,,*5A
$GPGLL,5629
.79868,N,08458.83181,E,101000.000,A*36
$GPRMC,101002.000,A,5629.78989,N,08458.83193,E,16.0,181.2,060815,,,A*55
$GPGGA,101002.000,5629.78989,N,08458.83193,E,1,16,0.6,0116.3,M,-33.9,M,,*40
$GPVTG,181.2,T,,M,16.0,N,29.6,K,A*0D
$GNGSA,A,3,25,02,06,05,12,09
,23,31,17,,,,1.1,0.6,1.0*22
$GNGSA,A,3,74,73,80,66,67,83,68,,,,,,1.1,0.6,1.0*20
$GPGSV,3,1,10,02,84,176,38,05,30,178,44,06,49,075,30,09,18,070,33*7A
$GPGSV,3,2,10,12,49,220,33,17,05,117,30,23,14,033,35,25,47,282,39*74
$GPGSV,3,3,10,29,22,293,,31,14,329
,23,,,,,,,,*75
$GLGSV,3,1,11,74,26,335,29,76,21,345,,66,41,047,25,73,31,276,16*6D
$GLGSV,3,2,11,65,01,012,,83,43,294,29,67,46,127,38,68,08,169,36*6C
$GLGSV,3,3,11,71,08,098,,80,09,230,28,81,00,000,32,,,,*58
$GPGLL,5629.78989,N,08458.83193,E,101002.000,
A*38
$GPRMC,101003.000,A,5629.78541,N,08458.83149,E,15.9,181.4,060815,,,A*57
$GPGGA,101003.000,5629.78541,N,08458.83149,E,1,17,0.6,0116.3,M,-33.9,M,,*4F
$GPVTG,181.4,T,,M,15.9,N,29.5,K,A*02
$GNGSA,A,3,25,02,06,05,12,29,09,23,31,17,,,1.1,0.6,0.9*21
$GN
GSA,A,3,74,73,80,66,67,83,68,,,,,,1.1,0.6,0.9*28
$GPGSV,3,1,10,02,84,176,38,05,30,178,44,06,49,075,30,09,18,070,34*7D
$GPGSV,3,2,10,12,49,220,34,17,05,117,29,23,14,033,35,25,47,282,39*7B
$GPGSV,3,3,10,29,23,293,19,31,14,329,22,,,,,,,,*7D
$GLGSV,3,1,11,
74,26,335,29,76,21,345,,66,41,047,25,73,31,276,15*6E
$GLGSV,3,2,11,65,01,012,,83,43,294,29,67,46,127,38,68,08,169,35*6F
$GLGSV,3,3,11,71,08,098,,80,09,230,28,81,00,000,32,,,,*58
$GPGLL,5629.78541,N,08458.83149,E,101003.000,A*36
$GPRMC,101005.000,A,5629
.77632,N,08458.82953,E,15.7,181.6,060815,,,A*57
$GPGGA,101005.000,5629.77632,N,08458.82953,E,1,16,0.6,0116.4,M,-33.9,M,,*45
$GPVTG,181.6,T,,M,15.7,N,29.2,K,A*09
$GNGSA,A,3,25,02,06,05,12,29,09,23,31,17,,,1.1,0.6,0.9*21
$GNGSA,A,3,74,80,66,67,83,68,,,,,
,,1.1,0.6,0.9*2C
$GPGSV,3,1,10,02,84,176,38,05,30,178,44,06,49,075,31,09,18,070,34*7C
$GPGSV,3,2,10,12,49,220,33,17,05,117,25,23,14,033,33,25,47,282,39*76
$GPGSV,3,3,10,29,23,293,15,31,14,329,20,,,,,,,,*73
$GLGSV,3,1,11,74,26,335,29,76,21,345,,66,41,04
7,25,73,31,276,14*6F
$GLGSV,3,2,11,65,01,012,,83,43,294,29,67,46,127,38,68,08,169,35*6F
$GLGSV,3,3,11,71,08,098,,80,09,230,30,81,00,000,22,,,,*50
$GPGLL,5629.77632,N,08458.82953,E,101005.000,A*3A
$GPRMC,101007.000,A,5629.76741,N,08458.82887,E,15.7,180.
6,060815,,,A*58
$GPGGA,101007.000,5629.76741,N,08458.82887,E,1,16,0.6,0116.2,M,-33.9,M,,*4D
$GPVTG,180.6,T,,M,15.7,N,29.0,K,A*0A
$GNGSA,A,3,25,02,06,05,12,09,23,31,17,,,,1.1,0.6,1.0*22
$GNGSA,A,3,74,73,80,66,67,83,68,,,,,,1.1,0.6,1.0*20
$GPGSV,3,1,10,
02,84,176,38,05,30,178,43,06,49,075,26,09,18,070,33*7A
$GPGSV,3,2,10,12,49,220,32,17,05,117,25,23,14,033,34,25,47,282,38*71
$GPGSV,3,3,10,29,23,293,14,31,14,328,19,,,,,,,,*79
$GLGSV,3,1,11,74,26,335,30,76,21,345,,66,41,047,28,73,31,276,18*66
$GLGSV,3,2
,11,65,01,012,,83,43,294,28,67,46,127,37,68,08,169,35*61
$GLGSV,3,3,11,71,08,098,,80,09,230,27,81,00,000,24,,,,*50
$GPGLL,5629.76741,N,08458.82887,E,101007.000,A*34
$GPRMC,101008.000,A,5629.76333,N,08458.82925,E,15.7,181.0,060815,,,A*58
$GPGGA,101008.0
00,5629.76333,N,08458.82925,E,1,16,0.6,0116.4,M,-33.9,M,,*4C
$GPVTG,181.0,T,,M,15.7,N,29.1,K,A*0C
$GNGSA,A,3,25,02,06,05,12,09,23,31,17,,,,1.1,0.6,1.0*22
$GNGSA,A,3,74,73,80,66,67,83,68,,,,,,1.1,0.6,1.0*20
$GPGSV,3,1,10,02,84,176,39,05,30,178,43,06,49,
075,27,09,18,070,34*7D
$GPGSV,3,2,10,12,49,220,31,17,05,117,25,23,14,033,35,25,47,282,37*7C
$GPGSV,3,3,10,29,23,293,14,31,14,328,19,,,,,,,,*79
$GLGSV,3,1,11,74,26,335,29,76,21,345,,66,41,047,30,73,31,276,19*66
$GLGSV,3,2,11,65,01,012,,83,43,294,28,67,4
6,127,38,68,08,169,34*6F
$GLGSV,3,3,11,71,08,098,,80,09,230,27,81,00,000,26,,,,*52
$GPGLL,5629.76333,N,08458.82925,E,101008.000,A*33
$GPRMC,101009.000,A,5629.75921,N,08458.82897,E,15.8,181.1,060815,,,A*55
$GPGGA,101009.000,5629.75921,N,08458.82897,E,1,
17,0.6,0116.4,M,-33.9,M,,*4E
$GPVTG,181.1,T,,M,15.8,N,29.4,K,A*07
$GNGSA,A,3,25,02,06,05,12,29,09,23,31,17,,,1.1,0.6,0.9*21
$GNGSA,A,3,74,73,80,66,67,83,68,,,,,,1.1,0.6,0.9*28
$GPGSV,3,1,10,02,84,176,39,05,30,178,43,06,49,075,30,09,18,070,33*7C
$GPGSV
,3,2,10,12,49,220,34,17,05,117,26,23,14,033,35,25,47,282,38*75
$GPGSV,3,3,10,29,23,293,30,31,14,328,18,,,,,,,,*7E
$GLGSV,3,1,11,74,26,335,28,76,21,345,,66,41,047,32,73,31,276,22*6D
$GLGSV,3,2,11,65,01,012,,83,43,294,27,67,46,127,38,68,08,169,34*60
$GLG
SV,3,3,11,71,08,098,,80,09,230,28,81,00,000,27,,,,*5C
$GPGLL,5629.75921,N,08458.82897,E,101009.000,A*30
$GPRMC,101011.000,A,5629.75066,N,08458.82953,E,15.4,182.6,060815,,,A*57
$GPGGA,101011.000,5629.75066,N,08458.82953,E,1,17,0.6,0116.1,M,-33.9,M,,*41

$GPVTG,182.6,T,,M,15.4,N,28.5,K,A*0F
$GNGSA,A,3,25,02,06,05,12,29,09,23,31,17,,,1.1,0.6,0.9*21
$GNGSA,A,3,74,73,80,66,67,83,68,,,,,,1.1,0.6,0.9*28
$GPGSV,3,1,10,02,84,176,38,05,30,178,44,06,49,075,32,09,18,070,31*7A
$GPGSV,3,2,10,12,49,220,33,17,05,117
,25,23,14,033,36,25,47,282,37*7D
$GPGSV,3,3,10,29,23,293,35,31,14,328,18,,,,,,,,*7B
$GLGSV,3,1,11,74,26,335,27,76,21,345,,66,41,047,31,73,31,276,29*6A
$GLGSV,3,2,11,65,00,011,,83,43,294,33,67,46,127,38,68,08,169,36*65
$GLGSV,3,3,11,71,08,098,,80,09,230
,32,81,00,000,31,,,,*50
$GPGLL,5629.75066,N,08458.82953,E,101011.000,A*3A
$GPRMC,101013.000,A,5629.74255,N,08458.82854,E,14.8,188.7,060815,,,A*56
$GPGGA,101013.000,5629.74255,N,08458.82854,E,1,16,0.6,0115.5,M,-33.9,M,,*40
$GPVTG,188.7,T,,M,14.8,N,27.4,
K,A*07
$GNGSA,A,3,25,02,06,05,12,29,09,23,31,,,,1.2,0.6,1.0*2C
$GNGSA,A,3,74,73,80,66,67,83,68,,,,,,1.2,0.6,1.0*23
$GPGSV,3,1,10,02,84,172,39,05,30,178,43,06,49,075,32,09,18,070,34*7D
$GPGSV,3,2,10,12,49,220,32,17,05,117,,23,14,033,37,25,47,282,36*7B

$GPGSV,3,3,10,29,23,293,34,31,14,328,17,,,,,,,,*75
$GLGSV,3,1,11,74,26,335,24,76,21,345,,66,41,047,35,73,31,276,30*65
$GLGSV,3,2,11,65,00,011,,83,43,294,33,67,46,127,38,68,08,169,34*67
$GLGSV,3,3,11,71,08,098,,80,09,230,34,81,00,000,27,,,,*51
$GPGLL,56
29.74255,N,08458.82854,E,101013.000,A*3D
$GPRMC,101014.000,A,5629.73870,N,08458.82798,E,13.5,186.3,060815,,,A*54
$GPGGA,101014.000,5629.73870,N,08458.82798,E,1,16,0.6,0115.7,M,-33.9,M,,*40
$GPVTG,186.3,T,,M,13.5,N,25.0,K,A*01
$GNGSA,A,3,25,02,06,05,12,
29,09,23,31,,,,1.2,0.6,1.0*2C
$GNGSA,A,3,74,73,80,66,67,83,68,,,,,,1.2,0.6,1.0*23
$GPGSV,3,1,10,02,84,172,40,05,30,178,43,06,49,075,28,09,18,070,35*79
$GPGSV,3,2,10,12,49,220,37,17,05,117,,23,14,033,32,25,47,282,36*7B
$GPGSV,3,3,10,29,23,293,34,31,14,3
28,17,,,,,,,,*75
$GLGSV,3,1,11,74,26,335,26,76,21,345,,66,41,047,36,73,31,276,30*64
$GLGSV,3,2,11,65,00,011,,83,43,294,34,67,46,127,38,68,08,169,33*67
$GLGSV,3,3,11,71,08,098,,80,09,230,35,81,00,000,28,,,,*5F
$GPGLL,5629.73870,N,08458.82798,E,101014.00
0,A*3F
$GPRMC,101016.000,A,5629.73208,N,08458.82790,E,9.8,181.0,060815,,,A*69
$GPGGA,101016.000,5629.73208,N,08458.82790,E,1,16,0.6,0116.1,M,-33.9,M,,*4A
$GPVTG,181.0,T,,M,9.8,N,18.2,K,A*3F
$GNGSA,A,3,25,02,06,05,12,29,09,23,31,,,,1.2,0.6,1.0*2C
$GNGS
A,A,3,74,73,80,66,67,83,68,,,,,,1.2,0.6,1.0*23
$GPGSV,3,1,10,02,84,172,42,05,30,178,43,06,49,075,29,09,18,070,31*7E
$GPGSV,3,2,10,12,49,220,39,17,05,117,,23,14,033,33,25,47,282,35*77
$GPGSV,3,3,10,29,23,293,32,31,14,328,20,,,,,,,,*77
$GLGSV,3,1,11,74,2
6,335,29,76,21,345,,66,41,047,35,73,31,276,33*6B
$GLGSV,3,2,11,65,00,011,,83,43,294,34,67,46,127,39,68,08,169,34*61
$GLGSV,3,3,11,71,08,098,,80,09,230,36,81,00,000,26,,,,*52
$GPGLL,5629.73208,N,08458.82790,E,101016.000,A*30
$GPRMC,101017.000,A,5629.729
59,N,08458.82796,E,8.1,182.2,060815,,,A*69
$GPGGA,101017.000,5629.72959,N,08458.82796,E,1,16,0.6,0116.1,M,-33.9,M,,*43
$GPVTG,182.2,T,,M,8.1,N,15.0,K,A*39
$GNGSA,A,3,25,02,06,05,12,29,09,23,31,,,,1.2,0.6,1.0*2C
$GNGSA,A,3,74,73,80,66,67,83,68,,,,,,1.2,
0.6,1.0*23
$GPGSV,3,1,10,02,84,172,41,05,30,178,43,06,49,075,30,09,18,070,32*76
$GPGSV,3,2,10,12,49,220,39,17,05,117,,23,14,033,33,25,47,282,36*74
$GPGSV,3,3,10,29,23,293,35,31,14,328,26,,,,,,,,*76
$GLGSV,3,1,11,74,26,335,30,76,21,345,,66,41,047,34,73,
31,276,33*62
$GLGSV,3,2,11,65,00,011,,83,43,294,34,67,46,127,38,68,08,169,36*62
$GLGSV,3,3,11,71,08,098,,80,09,230,36,81,00,000,32,,,,*57
$GPGLL,5629.72959,N,08458.82796,E,101017.000,A*39
$GPRMC,101019.000,A,5629.72728,N,08458.82785,E,1.5,179.9,060815,
,,A*6F
$GPGGA,101019.000,5629.72728,N,08458.82785,E,1,16,0.6,0117.0,M,-33.9,M,,*47
$GPVTG,179.9,T,,M,1.5,N,2.8,K,A*05
$GNGSA,A,3,25,02,06,05,12,29,09,23,31,,,,1.2,0.6,1.0*2C
$GNGSA,A,3,74,73,80,66,67,83,68,,,,,,1.2,0.6,1.0*23
$GPGSV,3,1,10,02,84,172,3
9,05,30,178,42,06,49,075,31,09,18,070,34*7F
$GPGSV,3,2,10,12,49,220,38,17,05,117,,23,14,033,33,25,47,282,37*74
$GPGSV,3,3,10,29,23,293,36,31,14,328,34,,,,,,,,*76
$GLGSV,3,1,11,74,26,335,31,76,21,345,,66,41,047,29,73,31,276,32*6E
$GLGSV,3,2,11,65,00,011
,,83,43,294,34,67,46,127,38,68,08,169,37*63
$GLGSV,3,3,11,71,08,098,,80,09,230,35,81,00,000,33,,,,*55
$GPGLL,5629.72728,N,08458.82785,E,101019.000,A*3D
$GPRMC,101020.000,A,5629.72728,N,08458.82785,E,0.1,0.0,060815,,,A*66
$GPGGA,101020.000,5629.72728,N,
08458.82785,E,1,16,0.6,0117.0,M,-33.9,M,,*4D
$GPVTG,0.0,T,,M,0.1,N,0.2,K,A*0E
$GNGSA,A,3,25,02,06,05,12,29,09,23,31,,,,1.2,0.6,1.0*2C
$GNGSA,A,3,74,73,80,66,67,83,68,,,,,,1.2,0.6,1.0*23
$GPGSV,3,1,10,02,84,172,39,05,30,178,42,06,49,075,31,09,18,070,30*
7B
$GPGSV,3,2,10,12,49,220,37,17,05,117,,23,14,033,31,25,47,282,36*78
$GPGSV,3,3,10,29,23,293,34,31,14,328,34,,,,,,,,*74
$GLGSV,3,1,11,74,26,335,31,76,21,345,,66,41,047,30,73,31,276,31*65
$GLGSV,3,2,11,65,00,011,,83,43,294,34,67,46,127,38,68,08,169,37*
63
$GLGSV,3,3,11,71,08,098,,80,09,230,34,81,00,000,32,,,,*55
$GPGLL,5629.72728,N,08458.82785,E,101020.000,A*37
$GPRMC,101022.000,A,5629.72728,N,08458.82785,E,0.2,0.0,060815,,,A*67
$GPGGA,101022.000,5629.72728,N,08458.82785,E,1,17,0.6,0117.0,M,-33.9,M,,
*4E
$GPVTG,0.0,T,,M,0.2,N,0.3,K,A*0C
$GNGSA,A,3,25,02,06,05,12,29,09,23,31,17,,,1.1,0.6,0.9*21
$GNGSA,A,3,74,73,80,66,67,83,68,,,,,,1.1,0.6,0.9*28
$GPGSV,3,1,10,02,84,172,38,05,30,178,42,06,49,075,31,09,18,070,36*7C
$GPGSV,3,2,10,12,49,220,35,17,05,11
7,26,23,14,033,31,25,47,282,35*7D
$GPGSV,3,3,10,29,23,293,34,31,14,328,34,,,,,,,,*74
$GLGSV,3,1,11,74,26,335,33,76,21,345,,66,41,047,30,73,31,276,30*66
$GLGSV,3,2,11,65,00,011,,83,43,294,33,67,46,127,38,68,08,169,34*67
$GLGSV,3,3,11,71,08,098,,80,09,23
0,34,81,00,000,29,,,,*5F
$GPGLL,5629.72728,N,08458.82785,E,101022.000,A*35
$GPRMC,101023.000,A,5629.72728,N,08458.82785,E,0.1,0.0,060815,,,A*65
$GPGGA,101023.000,5629.72728,N,08458.82785,E,1,17,0.6,0117.0,M,-33.9,M,,*4F
$GPVTG,0.0,T,,M,0.1,N,0.2,K,A*0E

$GNGSA,A,3,25,02,06,05,12,29,09,23,31,17,,,1.1,0.6,0.9*21
$GNGSA,A,3,74,73,80,66,67,83,68,,,,,,1.1,0.6,0.9*28
$GPGSV,3,1,10,02,84,172,38,05,30,178,43,06,49,075,32,09,18,070,37*7F
$GPGSV,3,2,10,12,49,220,36,17,05,117,29,23,14,033,33,25,47,282,36*70
$G
PGSV,3,3,10,29,23,293,33,31,14,328,35,,,,,,,,*72
$GLGSV,3,1,11,74,26,335,33,76,21,345,,66,41,047,31,73,31,276,30*67
$GLGSV,3,2,11,65,00,011,,83,43,294,34,67,46,127,38,68,08,169,34*60
$GLGSV,3,3,11,71,08,098,,80,09,230,34,81,00,000,29,,,,*5F
$GPGLL,5629
.72728,N,08458.82785,E,101023.000,A*34
$GPRMC,101025.000,A,5629.72728,N,08458.82785,E,0.1,0.0,060815,,,A*63
$GPGGA,101025.000,5629.72728,N,08458.82785,E,1,17,0.6,0117.0,M,-33.9,M,,*49
$GPVTG,0.0,T,,M,0.1,N,0.1,K,A*0D
$GNGSA,A,3,25,02,06,05,12,29,09,23,
31,17,,,1.1,0.6,0.9*21
$GNGSA,A,3,74,73,80,66,67,83,68,,,,,,1.1,0.6,0.9*28
$GPGSV,3,1,10,02,84,172,39,05,30,178,43,06,49,075,33,09,18,070,38*70
$GPGSV,3,2,10,12,49,220,34,17,05,117,30,23,14,033,34,25,47,282,37*7C
$GPGSV,3,3,10,29,23,293,33,31,14,328,35
,,,,,,,,*72
$GLGSV,3,1,11,74,26,335,33,76,21,345,,66,41,047,31,73,31,276,29*6F
$GLGSV,3,2,11,65,00,011,,83,43,294,33,67,46,127,38,68,08,169,35*66
$GLGSV,3,3,11,71,07,099,,80,09,230,33,81,00,000,29,,,,*56
$GPGLL,5629.72728,N,08458.82785,E,101025.000,A*3
2
$GPRMC,101026.000,A,5629.72728,N,08458.82785,E,0.1,0.0,060815,,,A*60
$GPGGA,101026.000,5629.72728,N,08458.82785,E,1,17,0.6,0117.0,M,-33.9,M,,*4A
$GPVTG,0.0,T,,M,0.1,N,0.2,K,A*0E
$GNGSA,A,3,25,02,06,05,12,29,09,23,31,17,,,1.1,0.6,0.9*21
$GNGSA,A,3,74
,73,80,66,67,83,68,,,,,,1.1,0.6,0.9*28
$GPGSV,3,1,10,02,84,172,39,05,30,178,44,06,49,075,33,09,18,069,38*7F
$GPGSV,3,2,10,12,49,220,34,17,05,117,31,23,14,033,34,25,47,282,37*7D
$GPGSV,3,3,10,29,23,293,33,31,14,328,35,,,,,,,,*72
$GLGSV,3,1,11,74,26,335,
33,76,21,345,,66,41,047,31,73,31,276,29*6F
$GLGSV,3,2,11,65,00,011,,83,43,294,33,67,46,127,38,68,08,169,35*66
$GLGSV,3,3,11,71,07,099,,80,09,230,33,81,00,000,29,,,,*56
$GPGLL,5629.72728,N,08458.82785,E,101026.000,A*31
$GPRMC,101028.000,A,5629.72728,N,0
8458.82785,E,0.1,0.0,060815,,,A*6E
$GPGGA,101028.000,5629.72728,N,08458.82785,E,1,17,0.6,0117.0,M,-33.9,M,,*44
$GPVTG,0.0,T,,M,0.1,N,0.2,K,A*0E
$GNGSA,A,3,25,02,06,05,12,29,09,23,31,17,,,1.1,0.6,0.9*21
$GNGSA,A,3,74,73,80,66,67,83,68,,,,,,1.1,0.6,0.9*2
8
$GPGSV,3,1,10,02,84,172,40,05,30,178,44,06,49,075,33,09,18,069,38*71
$GPGSV,3,2,10,12,49,220,34,17,05,117,31,23,14,033,35,25,47,282,37*7C
$GPGSV,3,3,10,29,23,293,34,31,14,328,35,,,,,,,,*75
$GLGSV,3,1,11,74,26,335,33,76,21,345,,66,41,047,29,73,31,276,
29*66
$GLGSV,3,2,11,65,00,011,,83,43,294,33,67,46,127,38,68,08,169,35*66
$GLGSV,3,3,11,71,07,099,,80,09,230,33,81,00,000,30,,,,*5E
$GPGLL,5629.72728,N,08458.82785,E,101028.000,A*3F
$GPRMC,101029.000,A,5629.72728,N,08458.82785,E,0.0,0.0,060815,,,A*6E
$
GPGGA,101029.000,5629.72728,N,08458.82785,E,1,17,0.6,0117.0,M,-33.9,M,,*45
$GPVTG,0.0,T,,M,0.0,N,0.1,K,A*0C
$GNGSA,A,3,25,02,06,05,12,29,09,23,31,17,,,1.1,0.6,0.9*21
$GNGSA,A,3,74,73,80,66,67,83,68,,,,,,1.1,0.6,0.9*28
$GPGSV,3,1,10,02,84,172,40,05,30,1
78,44,06,49,075,33,09,18,069,37*7E
$GPGSV,3,2,10,12,49,220,33,17,05,117,30,23,14,033,35,25,47,282,38*75
$GPGSV,3,3,10,29,23,293,34,31,14,328,36,,,,,,,,*76
$GLGSV,3,1,11,74,26,335,33,76,21,345,,66,41,047,28,73,31,276,29*67
$GLGSV,3,2,11,65,00,011,,83,43
,294,33,67,46,127,38,68,08,169,35*66
$GLGSV,3,3,11,71,07,099,,80,09,230,33,81,00,000,30,,,,*5E
$GPGLL,5629.72728,N,08458.82785,E,101029.000,A*3E
$GPRMC,101031.000,A,5629.72728,N,08458.82785,E,0.0,0.0,060815,,,A*67
$GPGGA,101031.000,5629.72728,N,08458.8
2785,E,1,17,0.6,0117.0,M,-33.9,M,,*4C
$GPVTG,0.0,T,,M,0.0,N,0.0,K,A*0D
$GNGSA,A,3,25,02,06,05,12,29,09,23,31,17,,,1.1,0.6,0.9*21
$GNGSA,A,3,74,73,80,66,67,83,68,,,,,,1.1,0.6,0.9*28
$GPGSV,3,1,10,02,84,172,40,05,30,178,45,06,49,075,34,09,18,069,36*79
$
GPGSV,3,2,10,12,49,220,33,17,05,117,29,23,14,033,35,25,47,282,38*7D
$GPGSV,3,3,10,29,23,293,34,31,14,328,36,,,,,,,,*76
$GLGSV,3,1,11,74,26,335,33,76,21,345,,66,41,047,23,73,31,276,29*6C
$GLGSV,3,2,11,65,00,011,,83,43,294,32,67,46,127,38,68,08,169,35*67

$GLGSV,3,3,11,71,07,099,,80,09,230,33,81,00,000,30,,,,*5E
$GPGLL,5629.72728,N,08458.82785,E,101031.000,A*37
$GPRMC,101032.000,A,5629.72728,N,08458.82785,E,0.6,183.8,060815,,,A*60
$GPGGA,101032.000,5629.72728,N,08458.82785,E,1,17,0.6,0117.0,M,-33.9,M,,*
4F
$GPVTG,183.8,T,,M,0.6,N,1.1,K,A*09
$GNGSA,A,3,25,02,06,05,12,29,09,23,31,17,,,1.1,0.6,0.9*21
$GNGSA,A,3,74,73,80,66,67,83,68,,,,,,1.1,0.6,0.9*28
$GPGSV,3,1,10,02,84,172,40,05,30,178,45,06,49,075,34,09,18,069,36*79
$GPGSV,3,2,10,12,48,219,34,17,05,1
17,29,23,14,033,35,25,47,282,38*71
$GPGSV,3,3,10,29,23,293,34,31,14,328,36,,,,,,,,*76
$GLGSV,3,1,11,74,26,335,33,76,21,345,,66,41,047,24,73,31,276,29*6B
$GLGSV,3,2,11,65,00,011,,83,43,294,33,67,46,127,38,68,08,169,35*66
$GLGSV,3,3,11,71,07,099,,80,09,2
30,33,81,00,000,31,,,,*5F
$GPGLL,5629.72728,N,08458.82785,E,101032.000,A*34
$GPRMC,101034.000,A,5629.72627,N,08458.82790,E,3.3,177.7,060815,,,A*6E
$GPGGA,101034.000,5629.72627,N,08458.82790,E,1,17,0.6,0116.4,M,-33.9,M,,*46
$GPVTG,177.7,T,,M,3.3,N,6.1,K
,A*0C
$GNGSA,A,3,25,02,06,05,12,29,09,23,31,17,,,1.1,0.6,0.9*21
$GNGSA,A,3,74,73,80,66,67,83,68,,,,,,1.1,0.6,0.9*28
$GPGSV,3,1,10,02,84,172,39,05,30,178,44,06,49,075,33,09,18,069,36*71
$GPGSV,3,2,10,12,48,219,34,17,05,117,28,23,14,033,36,25,47,282,38*7
3
$GPGSV,3,3,10,29,23,293,34,31,14,328,36,,,,,,,,*76
$GLGSV,3,1,11,74,26,335,33,76,21,345,,66,41,047,28,73,31,276,30*6F
$GLGSV,3,2,11,65,00,011,,83,43,294,33,67,46,127,38,68,08,169,36*65
$GLGSV,3,3,11,71,07,099,,80,08,230,35,81,00,000,32,,,,*5B
$GPGLL
,5629.72627,N,08458.82790,E,101034.000,A*38
$GPRMC,101035.000,A,5629.72493,N,08458.82820,E,5.1,176.1,060815,,,A*65
$GPGGA,101035.000,5629.72493,N,08458.82820,E,1,17,0.6,0116.2,M,-33.9,M,,*48
$GPVTG,176.1,T,,M,5.1,N,9.4,K,A*05
$GNGSA,A,3,25,02,06,05,12,
29,09,23,31,17,,,1.1,0.6,0.9*21
$GNGSA,A,3,74,73,80,66,67,83,68,,,,,,1.1,0.6,0.9*28
$GPGSV,3,1,10,02,84,172,38,05,30,178,43,06,49,075,33,09,18,069,36*77
$GPGSV,3,2,10,12,48,219,34,17,05,117,28,23,14,033,36,25,47,282,38*73
$GPGSV,3,3,10,29,23,293,34,31,
14,328,35,,,,,,,,*75
$GLGSV,3,1,11,74,26,335,32,76,21,345,,66,41,047,28,73,31,276,30*6E
$GLGSV,3,2,11,65,00,011,,83,43,294,33,67,46,127,38,68,08,169,35*66
$GLGSV,3,3,11,71,07,099,,80,08,230,35,81,00,000,32,,,,*5B
$GPGLL,5629.72493,N,08458.82820,E,10103
5.000,A*30
$GPRMC,101037.000,A,5629.72091,N,08458.82935,E,9.1,173.5,060815,,,A*69
$GPGGA,101037.000,5629.72091,N,08458.82935,E,1,17,0.6,0115.8,M,-33.9,M,,*40
$GPVTG,173.5,T,,M,9.1,N,16.9,K,A*3B
$GNGSA,A,3,25,02,06,05,12,29,09,23,31,17,,,1.1,0.6,0.9*21

$GNGSA,A,3,74,73,80,66,67,83,68,,,,,,1.1,0.6,0.9*28
$GPGSV,3,1,10,02,84,172,38,05,30,178,44,06,49,075,34,09,18,069,35*74
$GPGSV,3,2,10,12,48,219,34,17,05,117,25,23,14,033,36,25,47,282,39*7F
$GPGSV,3,3,10,29,23,293,35,31,14,328,33,,,,,,,,*72
$GLGSV,3,1
,11,74,26,335,31,76,21,345,,66,41,047,31,73,31,276,28*6C
$GLGSV,3,2,11,65,00,011,,83,43,294,31,67,46,127,38,68,08,169,30*61
$GLGSV,3,3,11,71,07,099,,80,08,230,27,81,00,000,32,,,,*58
$GPGLL,5629.72091,N,08458.82935,E,101037.000,A*31
$GPRMC,101039.000,A,
5629.71470,N,08458.82993,E,13.0,177.0,060815,,,A*58
$GPGGA,101039.000,5629.71470,N,08458.82993,E,1,17,0.6,0116.0,M,-33.9,M,,*41
$GPVTG,177.0,T,,M,13.0,N,24.0,K,A*08
$GNGSA,A,3,25,02,06,05,12,29,09,23,31,17,,,1.1,0.6,0.9*21
$GNGSA,A,3,74,73,80,66,67,83,
68,,,,,,1.1,0.6,0.9*28
$GPGSV,3,1,10,02,84,172,38,05,30,178,45,06,49,075,34,09,18,069,31*71
$GPGSV,3,2,10,12,48,219,35,17,05,117,25,23,14,033,37,25,47,282,36*70
$GPGSV,3,3,10,29,23,293,32,31,14,328,29,,,,,,,,*7E
$GLGSV,3,1,11,74,26,335,30,76,21,345,,66
,41,047,30,73,31,276,28*6C
$GLGSV,3,2,11,65,00,011,,83,43,294,30,67,46,127,38,68,08,169,28*69
$GLGSV,3,3,11,71,07,099,,80,08,230,29,81,00,000,26,,,,*53
$GPGLL,5629.71470,N,08458.82993,E,101039.000,A*3B
$GPRMC,101040.000,A,5629.71094,N,08458.83032,E,14.
7,178.8,060815,,,A*5C
$GPGGA,101040.000,5629.71094,N,08458.83032,E,1,17,0.6,0116.2,M,-33.9,M,,*40
$GPVTG,178.8,T,,M,14.7,N,27.2,K,A*0E
$GNGSA,A,3,25,02,06,05,12,29,09,23,31,17,,,1.1,0.6,0.9*21
$GNGSA,A,3,74,73,80,66,67,83,68,,,,,,1.1,0.6,0.9*28
$GPGSV
,3,1,10,02,84,172,38,05,30,178,46,06,49,075,34,09,18,069,31*72
$GPGSV,3,2,10,12,48,219,34,17,05,117,24,23,14,033,37,25,47,282,37*71
$GPGSV,3,3,10,29,23,293,33,31,14,328,30,,,,,,,,*77
$GLGSV,3,1,11,74,26,335,30,76,21,345,,66,41,047,30,73,31,276,28*6C
$G
LGSV,3,2,11,65,00,011,,83,43,294,30,67,46,127,38,68,08,169,28*69
$GLGSV,3,3,11,71,07,099,,80,08,230,30,81,00,000,28,,,,*55
$GPGLL,5629.71094,N,08458.83032,E,101040.000,A*38
$GPRMC,101041.000,A,5629.70658,N,08458.83020,E,15.8,181.1,060815,,,A*58
$GPGGA,
101041.000,5629.70658,N,08458.83020,E,1,17,0.6,0116.3,M,-33.9,M,,*44
$GPVTG,181.1,T,,M,15.8,N,29.3,K,A*00
$GNGSA,A,3,25,02,06,05,12,29,09,23,31,17,,,1.1,0.6,0.9*21
$GNGSA,A,3,74,73,80,66,67,83,68,,,,,,1.1,0.6,0.9*28
$GPGSV,3,1,10,02,84,172,38,05,30,178
,45,06,49,075,33,09,18,069,32*75
$GPGSV,3,2,10,12,48,219,33,17,05,117,23,23,14,033,37,25,47,282,37*71
$GPGSV,3,3,10,29,23,293,35,31,14,328,30,,,,,,,,*71
$GLGSV,3,1,11,74,26,335,30,76,21,345,,66,41,047,30,73,31,276,27*63
$GLGSV,3,2,11,65,00,011,,83,43,2
94,29,67,46,127,38,68,08,169,30*68
$GLGSV,3,3,11,71,07,099,,80,08,230,29,81,00,000,29,,,,*5C
$GPGLL,5629.70658,N,08458.83020,E,101041.000,A*3D
$GPRMC,101043.000,A,5629.69750,N,08458.82976,E,16.6,180.7,060815,,,A*5A
$GPGGA,101043.000,5629.69750,N,08458.
82976,E,1,17,0.6,0116.2,M,-33.9,M,,*4D
$GPVTG,180.7,T,,M,16.6,N,30.7,K,A*06
$GNGSA,A,3,25,02,06,05,12,29,09,23,31,17,,,1.1,0.6,0.9*21
$GNGSA,A,3,74,73,80,66,67,83,68,,,,,,1.1,0.6,0.9*28
$GPGSV,3,1,10,02,84,172,39,05,30,178,44,06,49,075,34,09,18,069,31*
71
$GPGSV,3,2,10,12,48,219,35,17,04,117,23,23,14,033,36,25,47,282,38*78
$GPGSV,3,3,10,29,23,293,36,31,14,328,34,,,,,,,,*76
$GLGSV,3,1,11,74,26,335,28,76,21,345,,66,41,047,32,73,31,276,28*67
$GLGSV,3,2,11,65,00,011,,83,43,294,32,67,46,127,38,68,08,169,3
4*66
$GLGSV,3,3,11,71,07,099,,80,08,230,29,81,00,000,31,,,,*55
$GPGLL,5629.69750,N,08458.82976,E,101043.000,A*35
$GPRMC,101045.000,A,5629.68838,N,08458.82919,E,16.4,180.9,060815,,,A*59
$GPGGA,101045.000,5629.68838,N,08458.82919,E,1,17,0.6,0116.1,M,-33.
9,M,,*41
$GPVTG,180.9,T,,M,16.4,N,30.4,K,A*09
$GNGSA,A,3,25,02,06,05,12,29,09,23,31,17,,,1.1,0.6,0.9*21
$GNGSA,A,3,74,73,80,66,67,83,68,,,,,,1.1,0.6,0.9*28
$GPGSV,3,1,10,02,84,172,38,05,30,178,44,06,49,075,34,09,18,069,30*71
$GPGSV,3,2,10,12,48,219,37
,17,04,117,23,23,14,033,33,25,47,282,38*7F
$GPGSV,3,3,10,29,23,293,36,31,14,328,35,,,,,,,,*77
$GLGSV,3,1,11,74,26,335,29,76,21,345,,66,41,047,34,73,31,276,30*69
$GLGSV,3,2,11,65,00,011,,83,43,294,34,67,46,127,38,68,08,169,34*60
$GLGSV,3,3,11,71,07,099,
,80,08,230,29,81,00,000,34,,,,*50
$GPGLL,5629.68838,N,08458.82919,E,101045.000,A*3A
$GPRMC,101046.000,A,5629.68369,N,08458.82910,E,16.4,181.4,060815,,,A*50
$GPGGA,101046.000,5629.68369,N,08458.82910,E,1,17,0.6,0116.1,M,-33.9,M,,*44
$GPVTG,181.4,T,,M,16
.4,N,30.5,K,A*04
$GNGSA,A,3,25,02,06,05,12,29,09,23,31,17,,,1.1,0.6,0.9*21
$GNGSA,A,3,74,73,80,66,67,83,68,,,,,,1.1,0.6,0.9*28
$GPGSV,3,1,10,02,84,172,39,05,30,178,44,06,49,075,35,09,18,069,30*71
$GPGSV,3,2,10,12,48,219,37,17,04,117,22,23,14,033,33,25,
47,282,38*7E
$GPGSV,3,3,10,29,23,293,36,31,14,328,34,,,,,,,,*76
$GLGSV,3,1,11,74,26,335,30,76,21,345,,66,41,047,33,73,31,276,31*67
$GLGSV,3,2,11,65,00,011,,83,43,294,34,67,46,127,38,68,08,169,34*60
$GLGSV,3,3,11,71,07,099,,80,08,230,25,81,00,000,34,,,,
*5C
$GPGLL,5629.68369,N,08458.82910,E,101046.000,A*3F
$GPRMC,101048.000,A,5629.67427,N,08458.82852,E,16.5,181.4,060815,,,A*5A
$GPGGA,101048.000,5629.67427,N,08458.82852,E,1,17,0.6,0115.9,M,-33.9,M,,*44
$GPVTG,181.4,T,,M,16.5,N,30.5,K,A*05
$GNGSA,A,3,2
5,02,06,05,12,29,09,23,31,17,,,1.1,0.6,0.9*21
$GNGSA,A,3,74,73,80,66,67,83,68,,,,,,1.1,0.6,0.9*28
$GPGSV,3,1,10,02,84,172,39,05,30,178,43,06,49,075,35,09,18,069,32*74
$GPGSV,3,2,10,12,48,219,37,17,04,117,20,23,14,033,33,25,47,282,38*7C
$GPGSV,3,3,10,29
,23,293,36,31,14,328,35,,,,,,,,*77
$GLGSV,3,1,11,74,26,335,29,76,21,345,,66,41,047,34,73,31,276,32*6B
$GLGSV,3,2,11,65,00,011,,83,43,294,34,67,46,127,38,68,08,169,34*60
$GLGSV,3,3,11,71,07,099,,80,08,230,26,81,00,000,33,,,,*58
$GPGLL,5629.67427,N,08458
.82852,E,101048.000,A*34
$GPRMC,101049.000,A,5629.66971,N,08458.82806,E,16.4,181.3,060815,,,A*53
$GPGGA,101049.000,5629.66971,N,08458.82806,E,1,17,0.6,0115.7,M,-33.9,M,,*45
$GPVTG,181.3,T,,M,16.4,N,30.5,K,A*03
$GNGSA,A,3,25,02,06,05,12,29,09,23,31,17,,
,1.1,0.6,0.9*21
$GNGSA,A,3,74,73,80,66,67,83,68,,,,,,1.1,0.6,0.9*28
$GPGSV,3,1,10,02,84,172,39,05,30,178,42,06,49,075,34,09,18,069,31*77
$GPGSV,3,2,10,12,48,219,38,17,04,117,20,23,14,033,33,25,47,282,37*7C
$GPGSV,3,3,10,29,23,293,36,31,14,328,35,,,,,,,
,*77
$GLGSV,3,1,11,74,26,335,29,76,21,345,,66,41,047,34,73,31,276,32*6B
$GLGSV,3,2,11,65,00,011,,83,43,294,34,67,46,127,37,68,08,169,34*6F
$GLGSV,3,3,11,71,07,099,,80,08,230,25,81,00,000,32,,,,*5A
$GPGLL,5629.66971,N,08458.82806,E,101049.000,A*3B
$GPR
MC,101051.000,A,5629.66092,N,08458.82801,E,16.4,180.3,060815,,,A*58
$GPGGA,101051.000,5629.66092,N,08458.82801,E,1,17,0.6,0115.9,M,-33.9,M,,*41
$GPVTG,180.3,T,,M,16.4,N,30.4,K,A*03
$GNGSA,A,3,25,02,06,05,12,29,09,23,31,17,,,1.1,0.6,0.9*21
$GNGSA,A,3,74
,73,80,66,67,83,68,,,,,,1.1,0.6,0.9*28
$GPGSV,3,1,10,02,84,172,39,05,30,178,41,06,49,075,34,09,18,069,29*7D
$GPGSV,3,2,10,12,48,219,37,17,04,117,19,23,14,033,32,25,47,282,38*77
$GPGSV,3,3,10,29,23,293,37,31,14,328,35,,,,,,,,*76
$GLGSV,3,1,11,74,26,334,
27,76,21,345,,66,41,047,34,73,31,276,32*64
$GLGSV,3,2,11,65,00,011,,83,43,294,34,67,46,127,37,68,08,169,34*6F
$GLGSV,3,3,11,71,07,099,,80,08,230,28,81,00,000,22,,,,*56
$GPGLL,5629.66092,N,08458.82801,E,101051.000,A*31
$GPRMC,101052.000,A,5629.65615,N,0
8458.82797,E,16.6,180.4,060815,,,A*54
$GPGGA,101052.000,5629.65615,N,08458.82797,E,1,17,0.6,0116.3,M,-33.9,M,,*41
$GPVTG,180.4,T,,M,16.6,N,30.8,K,A*0A
$GNGSA,A,3,25,02,06,05,12,29,09,23,31,17,,,1.1,0.6,0.9*21
$GNGSA,A,3,74,73,80,66,67,83,68,,,,,,1.1,0.
6,0.9*28
$GPGSV,3,1,10,02,84,172,39,05,30,178,41,06,49,075,33,09,18,069,29*7A
$GPGSV,3,2,10,12,48,219,37,17,04,117,19,23,14,033,33,25,47,282,38*76
$GPGSV,3,3,10,29,23,293,37,31,14,328,35,,,,,,,,*76
$GLGSV,3,1,11,74,26,334,27,76,21,345,,66,41,047,34,73,
31,276,32*64
$GLGSV,3,2,11,65,00,011,,83,43,294,34,67,46,127,38,68,08,169,34*60
$GLGSV,3,3,11,71,07,099,,80,08,230,29,81,00,000,21,,,,*54
$GPGLL,5629.65615,N,08458.82797,E,101052.000,A*38
$GPRMC,101054.000,A,5629.64692,N,08458.82743,E,16.4,180.1,060815
,,,A*52
$GPGGA,101054.000,5629.64692,N,08458.82743,E,1,17,0.6,0116.2,M,-33.9,M,,*41
$GPVTG,180.1,T,,M,16.4,N,30.4,K,A*01
$GNGSA,A,3,25,02,06,05,12,29,09,23,31,17,,,1.1,0.6,0.9*21
$GNGSA,A,3,74,73,80,66,67,83,68,,,,,,1.1,0.6,0.9*28
$GPGSV,3,1,10,02,84,
172,40,05,30,178,41,06,49,075,32,09,18,069,29*75
$GPGSV,3,2,10,12,48,219,36,17,04,117,19,23,14,033,32,25,47,282,38*76
$GPGSV,3,3,10,29,23,293,38,31,14,328,36,,,,,,,,*7A
$GLGSV,3,1,11,74,26,334,26,76,22,344,,66,41,047,34,73,31,276,32*67
$GLGSV,3,2,11,65
,00,011,,83,43,294,33,67,46,127,38,68,08,169,34*67
$GLGSV,3,3,11,71,07,099,,80,08,230,27,81,00,000,20,,,,*5B
$GPGLL,5629.64692,N,08458.82743,E,101054.000,A*39
$GPRMC,101055.000,A,5629.64246,N,08458.82717,E,16.2,179.9,060815,,,A*57
$GPGGA,101055.000,562
9.64246,N,08458.82717,E,1,17,0.6,0115.9,M,-33.9,M,,*44
$GPVTG,179.9,T,,M,16.2,N,30.0,K,A*0D
$GNGSA,A,3,25,02,06,05,12,29,09,23,31,17,,,1.1,0.6,0.9*21
$GNGSA,A,3,74,73,80,66,67,83,68,,,,,,1.1,0.6,0.9*28
$GPGSV,3,1,10,02,84,172,39,05,30,178,41,06,49,075,
31,09,18,069,28*79
$GPGSV,3,2,10,12,48,219,35,17,04,117,19,23,14,033,32,25,47,282,38*75
$GPGSV,3,3,10,29,23,293,37,31,14,328,36,,,,,,,,*75
$GLGSV,3,1,11,74,26,334,23,76,22,344,,66,41,047,34,73,31,276,31*61
$GLGSV,3,2,11,65,00,011,,83,43,294,33,67,46,12
7,38,68,08,169,33*60
$GLGSV,3,3,11,71,07,099,,80,08,230,26,81,00,000,20,,,,*5A
$GPGLL,5629.64246,N,08458.82717,E,101055.000,A*34
$GPRMC,101057.000,A,5629.63403,N,08458.82675,E,15.6,179.6,060815,,,A*58
$GPGGA,101057.000,5629.63403,N,08458.82675,E,1,17,0
.6,0115.4,M,-33.9,M,,*4E
$GPVTG,179.6,T,,M,15.6,N,28.9,K,A*05
$GNGSA,A,3,25,02,06,05,12,29,09,23,31,17,,,1.1,0.6,0.9*21
$GNGSA,A,3,74,73,80,66,67,83,68,,,,,,1.1,0.6,0.9*28
$GPGSV,3,1,10,02,84,172,40,05,30,178,41,06,49,075,30,09,18,069,28*76
$GPGSV,3,2
,10,12,48,219,36,17,04,117,19,23,14,033,31,25,47,282,37*7A
$GPGSV,3,3,10,29,23,293,33,31,14,328,36,,,,,,,,*71
$GLGSV,3,1,11,74,26,334,23,76,22,344,,66,40,046,36,73,31,276,30*62
$GLGSV,3,2,11,65,00,011,,83,43,294,34,67,46,127,38,68,08,169,34*60
$GLGSV,3
,3,11,71,07,099,,80,08,230,28,81,00,000,20,,,,*54
$GPGLL,5629.63403,N,08458.82675,E,101057.000,A*33
$GPRMC,101059.000,A,5629.62534,N,08458.82664,E,15.4,178.4,060815,,,A*53
$GPGGA,101059.000,5629.62534,N,08458.82664,E,1,17,0.6,0114.8,M,-33.9,M,,*49
$GPV
TG,178.4,T,,M,15.4,N,28.5,K,A*08
$GNGSA,A,3,25,02,06,05,12,29,09,23,31,17,,,1.1,0.6,0.9*21
$GNGSA,A,3,74,73,80,66,67,83,68,,,,,,1.1,0.6,0.9*28
$GPGSV,3,1,10,02,84,172,40,05,30,178,41,06,49,075,29,09,18,069,29*7F
$GPGSV,3,2,10,12,48,219,38,17,04,117,19,
23,14,033,31,25,47,282,36*75
$GPGSV,3,3,10,29,23,293,33,31,14,328,36,,,,,,,,*71
$GLGSV,3,1,11,74,26,334,23,76,22,344,,66,40,046,37,73,31,276,30*63
$GLGSV,3,2,11,65,00,011,,83,43,294,34,67,46,127,38,68,08,169,35*61
$GLGSV,3,3,11,71,07,099,,80,08,230,28,
81,00,000,20,,,,*54
$GPGLL,5629.62534,N,08458.82664,E,101059.000,A*39
$GPRMC,101100.000,A,5629.62103,N,08458.82697,E,15.3,178.9,060815,,,A*58
$GPGGA,101100.000,5629.62103,N,08458.82697,E,1,17,0.6,0114.9,M,-33.9,M,,*49
$GPVTG,178.9,T,,M,15.3,N,28.3,K,A*
04
$GNGSA,A,3,25,02,06,05,12,29,09,23,31,17,,,1.1,0.6,0.9*21
$GNGSA,A,3,74,73,80,66,67,83,68,,,,,,1.1,0.6,0.9*28
$GPGSV,3,1,10,02,84,172,40,05,30,178,42,06,49,075,29,09,18,069,29*7C
$GPGSV,3,2,10,12,48,219,38,17,04,117,19,23,14,033,31,25,47,282,36*75

$GPGSV,3,3,10,29,23,293,34,31,14,328,35,,,,,,,,*75
$GLGSV,3,1,11,74,26,334,23,76,22,344,,66,40,046,37,73,31,275,31*61
$GLGSV,3,2,11,65,00,011,,83,43,294,34,67,46,127,38,68,08,169,34*60
$GLGSV,3,3,11,71,07,099,,80,08,230,25,81,00,000,21,,,,*58
$GPGLL,56
29.62103,N,08458.82697,E,101100.000,A*38
$GPRMC,101101.000,A,5629.61688,N,08458.82731,E,15.2,179.3,060815,,,A*59
$GPGGA,101101.000,5629.61688,N,08458.82731,E,1,17,0.6,0114.6,M,-33.9,M,,*4D
$GPVTG,179.3,T,,M,15.2,N,28.2,K,A*0F
$GNGSA,A,3,25,02,06,05,12,
29,09,23,31,17,,,1.1,0.6,0.9*21
$GNGSA,A,3,74,73,80,66,67,83,68,,,,,,1.1,0.6,0.9*28
$GPGSV,3,1,10,02,84,172,40,05,30,178,41,06,49,075,29,09,18,069,30*77
$GPGSV,3,2,10,12,48,219,38,17,04,117,19,23,14,033,31,25,47,282,36*75
$GPGSV,3,3,10,29,23,293,35,31,
14,328,34,,,,,,,,*75
$GLGSV,3,1,11,74,26,334,23,76,22,344,,66,40,046,37,73,31,275,30*60
$GLGSV,3,2,11,65,00,011,,83,43,294,33,67,46,127,38,68,08,169,34*67
$GLGSV,3,3,11,71,07,099,,80,08,230,24,81,00,000,23,,,,*5B
$GPGLL,5629.61688,N,08458.82731,E,10110
1.000,A*33
$GPRMC,101103.000,A,5629.60805,N,08458.82765,E,15.3,179.3,060815,,,A*51
$GPGGA,101103.000,5629.60805,N,08458.82765,E,1,17,0.6,0114.2,M,-33.9,M,,*40
$GPVTG,179.3,T,,M,15.3,N,28.4,K,A*08
$GNGSA,A,3,25,02,06,05,12,29,09,23,31,17,,,1.1,0.6,0.9*2
1
$GNGSA,A,3,74,73,80,66,67,83,68,,,,,,1.1,0.6,0.9*28
$GPGSV,3,1,10,02,84,172,39,05,30,178,40,06,49,075,31,09,18,069,32*73
$GPGSV,3,2,10,12,48,219,36,17,04,117,19,23,14,033,33,25,47,282,37*78
$GPGSV,3,3,10,29,23,293,35,31,14,328,35,,,,,,,,*74
$GLGSV,3
,1,11,74,26,334,26,76,22,344,,66,40,046,36,73,31,275,29*6C
$GLGSV,3,2,11,65,00,011,,83,43,294,33,67,46,127,38,68,08,169,34*67
$GLGSV,3,3,11,71,07,099,,80,08,230,23,81,00,000,21,,,,*5E
$GPGLL,5629.60805,N,08458.82765,E,101103.000,A*3A
$GPRMC,101105.000,
A,5629.59870,N,08458.82584,E,15.4,179.7,060815,,,A*51
$GPGGA,101105.000,5629.59870,N,08458.82584,E,1,17,0.6,0113.3,M,-33.9,M,,*45
$GPVTG,179.7,T,,M,15.4,N,28.5,K,A*0A
$GNGSA,A,3,25,02,06,05,12,29,09,23,31,17,,,1.1,0.6,0.9*21
$GNGSA,A,3,74,73,80,66,67,8
3,68,,,,,,1.1,0.6,0.9*28
$GPGSV,3,1,10,02,84,172,38,05,30,178,39,06,49,075,31,09,18,069,38*76
$GPGSV,3,2,10,12,48,219,34,17,04,117,20,23,14,033,34,25,47,282,38*78
$GPGSV,3,3,10,29,23,293,32,31,14,328,35,,,,,,,,*73
$GLGSV,3,1,11,74,26,334,27,76,22,344,,
66,40,046,36,73,31,275,27*63
$GLGSV,3,2,11,65,00,011,,83,43,294,32,67,46,127,38,68,08,169,32*60
$GLGSV,3,3,11,71,07,099,,80,08,230,26,81,00,000,21,,,,*5B
$GPGLL,5629.59870,N,08458.82584,E,101105.000,A*39
$GPRMC,101106.000,A,5629.59429,N,08458.82534,E,1
5.1,179.4,060815,,,A*5F
$GPGGA,101106.000,5629.59429,N,08458.82534,E,1,17,0.6,0112.7,M,-33.9,M,,*48
$GPVTG,179.4,T,,M,15.1,N,28.1,K,A*08
$GNGSA,A,3,25,02,06,05,12,29,09,23,31,17,,,1.1,0.6,0.9*21
$GNGSA,A,3,74,73,80,66,67,83,68,,,,,,1.1,0.6,0.9*28
$GPG
SV,3,1,10,02,84,172,38,05,30,178,39,06,49,075,32,09,18,069,38*75
$GPGSV,3,2,10,12,48,219,33,17,04,117,20,23,14,033,34,25,47,282,39*7E
$GPGSV,3,3,10,29,23,293,28,31,14,328,34,,,,,,,,*79
$GLGSV,3,1,11,74,26,334,27,76,22,344,,66,40,046,36,73,31,275,26*62

$GLGSV,3,2,11,65,00,011,,83,43,294,31,67,46,127,38,68,08,169,31*60
$GLGSV,3,3,11,71,07,099,,80,08,230,26,81,00,000,20,,,,*5A
$GPGLL,5629.59429,N,08458.82534,E,101106.000,A*31
$GPRMC,101108.000,A,5629.58548,N,08458.82696,E,15.1,179.1,060815,,,A*58
$GPGG
A,101108.000,5629.58548,N,08458.82696,E,1,17,0.6,0112.3,M,-33.9,M,,*4E
$GPVTG,179.1,T,,M,15.1,N,28.0,K,A*0C
$GNGSA,A,3,25,02,06,05,12,29,09,23,31,17,,,1.1,0.6,0.9*21
$GNGSA,A,3,74,73,80,66,67,83,68,,,,,,1.1,0.6,0.9*28
$GPGSV,3,1,10,02,84,172,37,05,30,1
78,39,06,49,075,31,09,18,069,31*70
$GPGSV,3,2,10,12,48,219,35,17,04,117,20,23,14,033,35,25,47,282,39*79
$GPGSV,3,3,10,29,23,293,36,31,14,328,22,,,,,,,,*71
$GLGSV,3,1,11,74,26,334,27,76,22,344,,66,40,046,36,73,31,275,28*6C
$GLGSV,3,2,11,65,00,011,,83,43
,294,31,67,46,127,38,68,08,169,31*60
$GLGSV,3,3,11,71,07,099,,80,08,230,27,81,00,000,17,,,,*5F
$GPGLL,5629.58548,N,08458.82696,E,101108.000,A*33
$GPRMC,101109.000,A,5629.58108,N,08458.82779,E,15.4,179.5,060815,,,A*58
$GPGGA,101109.000,5629.58108,N,0845
8.82779,E,1,16,0.6,0112.4,M,-33.9,M,,*49
$GPVTG,179.5,T,,M,15.4,N,28.4,K,A*09
$GNGSA,A,3,25,02,06,05,12,29,09,23,31,,,,1.2,0.6,1.0*2C
$GNGSA,A,3,74,73,80,66,67,83,68,,,,,,1.2,0.6,1.0*23
$GPGSV,3,1,10,02,84,172,37,05,30,178,39,06,49,075,30,09,18,069,31*
71
$GPGSV,3,2,10,12,48,219,35,17,04,117,,23,14,033,34,25,47,282,39*7A
$GPGSV,3,3,10,29,23,293,39,31,14,328,22,,,,,,,,*7E
$GLGSV,3,1,11,74,26,334,27,76,22,344,,66,40,046,36,73,31,275,27*63
$GLGSV,3,2,11,65,00,011,,83,43,294,27,67,46,127,39,68,08,169,32*
65
$GLGSV,3,3,11,71,07,099,,80,08,230,27,81,00,000,17,,,,*5F
$GPGLL,5629.58108,N,08458.82779,E,101109.000,A*32
$GPRMC,101111.000,A,5629.57308,N,08458.82847,E,15.0,180.2,060815,,,A*5B
$GPGGA,101111.000,5629.57308,N,08458.82847,E,1,16,0.6,0112.5,M,-33.9,
M,,*4E
$GPVTG,180.2,T,,M,15.0,N,27.8,K,A*0F
$GNGSA,A,3,25,02,06,05,12,29,09,23,31,,,,1.2,0.6,1.0*2C
$GNGSA,A,3,74,73,80,66,67,83,68,,,,,,1.2,0.6,1.0*23
$GPGSV,3,1,10,02,84,172,38,05,30,178,41,06,49,075,31,09,18,069,30*71
$GPGSV,3,2,10,12,48,219,38,17,
04,117,,23,14,033,35,25,47,282,39*76
$GPGSV,3,3,10,29,23,293,37,31,14,328,28,,,,,,,,*7A
$GLGSV,3,1,11,74,26,334,27,76,22,344,,66,40,046,36,73,31,275,29*6D
$GLGSV,3,2,11,65,00,011,,83,44,295,31,67,46,127,39,68,08,169,32*64
$GLGSV,3,3,11,71,07,099,,80,08
,230,29,81,00,000,17,,,,*51
$GPGLL,5629.57308,N,08458.82847,E,101111.000,A*34
$GPRMC,101112.000,A,5629.56921,N,08458.82912,E,15.1,180.0,060815,,,A*5A
$GPGGA,101112.000,5629.56921,N,08458.82912,E,1,16,0.6,0112.3,M,-33.9,M,,*4A
$GPVTG,180.0,T,,M,15.1,N,2
7.9,K,A*0D
$GNGSA,A,3,25,02,06,05,12,29,09,23,31,,,,1.2,0.6,1.0*2C
$GNGSA,A,3,74,73,80,66,67,83,68,,,,,,1.2,0.6,1.0*23
$GPGSV,3,1,10,02,84,172,39,05,30,178,41,06,49,075,33,09,18,069,28*7B
$GPGSV,3,2,10,12,48,219,39,17,04,117,,23,14,033,36,25,47,282,37*
7A
$GPGSV,3,3,10,29,23,293,37,31,14,328,33,,,,,,,,*70
$GLGSV,3,1,11,74,26,334,27,76,22,344,,66,40,046,37,73,31,275,28*6D
$GLGSV,3,2,11,65,00,011,,83,44,295,32,67,46,127,38,68,08,169,31*65
$GLGSV,3,3,11,71,07,099,,80,08,230,31,81,00,000,17,,,,*58
$GPGL
L,5629.56921,N,08458.82912,E,101112.000,A*36
$GPRMC,101114.000,A,5629.56149,N,08458.83016,E,14.9,180.4,060815,,,A*5B
$GPGGA,101114.000,5629.56149,N,08458.83016,E,1,16,0.6,0111.7,M,-33.9,M,,*41
$GPVTG,180.4,T,,M,14.9,N,27.5,K,A*0C
$GNGSA,A,3,25,02,06,05
,12,29,09,23,31,,,,1.2,0.6,1.0*2C
$GNGSA,A,3,74,73,80,66,67,83,68,,,,,,1.2,0.6,1.0*23
$GPGSV,3,1,10,02,84,172,40,05,30,178,41,06,49,075,33,09,18,069,30*7C
$GPGSV,3,2,10,12,48,219,40,17,04,117,,23,14,033,36,25,47,282,37*74
$GPGSV,3,3,10,29,23,293,38,31,
14,328,34,,,,,,,,*78
$GLGSV,3,1,11,74,26,334,28,76,22,344,,66,40,046,37,73,31,275,29*63
$GLGSV,3,2,11,65,00,011,,83,44,295,33,67,46,126,38,68,08,169,27*62
$GLGSV,3,3,11,71,07,099,,80,08,230,29,81,00,000,18,,,,*5E
$GPGLL,5629.56149,N,08458.83016,E,10111
4.000,A*3A
$GPRMC,101115.000,A,5629.55772,N,08458.82990,E,14.6,180.0,060815,,,A*5A
$GPGGA,101115.000,5629.55772,N,08458.82990,E,1,16,0.6,0111.9,M,-33.9,M,,*45
$GPVTG,180.0,T,,M,14.6,N,27.0,K,A*02
$GNGSA,A,3,25,02,06,05,12,29,09,23,31,,,,1.2,0.6,1.0*2C

$GNGSA,A,3,74,73,80,66,67,83,68,,,,,,1.2,0.6,1.0*23
$GPGSV,3,1,10,02,84,172,40,05,30,178,41,06,49,075,33,09,18,069,30*7C
$GPGSV,3,2,10,12,48,219,40,17,04,117,,23,14,033,35,25,47,282,37*77
$GPGSV,3,3,10,29,23,293,38,31,14,328,34,,,,,,,,*78
$GLGSV,3,1,1
1,74,26,334,27,76,22,344,,66,40,046,36,73,31,275,29*6D
$GLGSV,3,2,11,65,00,011,,83,44,295,33,67,46,126,39,68,08,169,27*63
$GLGSV,3,3,11,71,07,099,,80,08,230,29,81,00,000,18,,,,*5E
$GPGLL,5629.55772,N,08458.82990,E,101115.000,A*30
$GPRMC,101117.000,A,56
29.55016,N,08458.82993,E,14.2,181.0,060815,,,A*5B
$GPGGA,101117.000,5629.55016,N,08458.82993,E,1,16,0.6,0111.2,M,-33.9,M,,*4A
$GPVTG,181.0,T,,M,14.2,N,26.4,K,A*02
$GNGSA,A,3,25,02,06,05,12,29,09,23,31,,,,1.2,0.6,1.0*2C
$GNGSA,A,3,74,73,80,66,67,83,68,,
,,,,1.2,0.6,1.0*23
$GPGSV,3,1,10,02,84,167,40,05,30,178,41,06,49,075,33,09,18,069,31*79
$GPGSV,3,2,10,12,48,219,39,17,04,117,,23,14,033,33,25,47,282,38*70
$GPGSV,3,3,10,29,23,293,38,31,14,328,35,,,,,,,,*79
$GLGSV,3,1,11,74,26,334,27,76,22,344,,66,40,04
6,33,73,31,275,26*67
$GLGSV,3,2,11,65,00,011,,83,44,295,31,67,46,126,39,68,09,169,30*66
$GLGSV,3,3,11,71,07,099,,80,08,230,29,81,00,000,18,,,,*5E
$GPGLL,5629.55016,N,08458.82993,E,101117.000,A*34
$GPRMC,101119.000,A,5629.54260,N,08458.83015,E,13.7,180.
5,060815,,,A*57
$GPGGA,101119.000,5629.54260,N,08458.83015,E,1,16,0.6,0110.4,M,-33.9,M,,*47
$GPVTG,180.5,T,,M,13.7,N,25.5,K,A*06
$GNGSA,A,3,25,02,06,05,12,29,09,23,31,,,,1.2,0.6,1.0*2C
$GNGSA,A,3,74,73,80,66,67,83,68,,,,,,1.2,0.6,1.0*23
$GPGSV,3,1,10,
02,84,167,40,05,30,178,42,06,49,075,32,09,18,069,31*7B
$GPGSV,3,2,10,12,48,219,40,17,04,117,,23,14,033,31,25,47,282,38*7C
$GPGSV,3,3,10,29,23,293,38,31,14,328,34,,,,,,,,*78
$GLGSV,3,1,11,74,26,334,27,76,22,344,,66,40,046,34,73,31,275,28*6E
$GLGSV,3,2,1
1,65,00,011,,83,44,295,33,67,46,126,39,68,09,169,27*62
$GLGSV,3,3,11,71,07,099,,80,08,230,27,81,00,000,23,,,,*58
$GPGLL,5629.54260,N,08458.83015,E,101119.000,A*3E
$GPRMC,101120.000,A,5629.53865,N,08458.83005,E,13.8,180.8,060815,,,A*56
$GPGGA,101120.000
,5629.53865,N,08458.83005,E,1,16,0.6,0110.1,M,-33.9,M,,*41
$GPVTG,180.8,T,,M,13.8,N,25.6,K,A*07
