$GPRMC,103735.00,A,5627.1866,N,08458.6421,E,00.000,000.0,070515,,,A*64
$GPGGA,103735.00,5627.1866,N,08458.6421,E,1,17,0.6,97.0,M,,M,,*40
$GPGSA,A,3,30,11,01,07,13,19,28,15,04,17,,,1.2,0.6,1.1*34
$GPGSA,A,3,67,85,83,74,75,73,66,,,,,,1.2,0.6,1.1*35

$GPRMC,103736.00,A,5627.1866,N,08458.6423,E,00.000,000.0,070515,,,A*65
$GPGGA,103736.00,5627.1866,N,08458.6423,E,1,18,0.6,97.0,M,,M,,*4E
$GPGSA,A,3,30,11,01,07,13,19,28,15,04,17,,,1.1,0.6,1.0*36
$GPGSA,A,3,67,85,83,74,84,75,73,66,,,,,1.1,0.6,1.0*3B

$GPRMC,103737.00,A,5627.1867,N,08458.6425,E,00.000,000.0,070515,,,A*63
$GPGGA,103737.00,5627.1867,N,08458.6425,E,1,18,0.6,96.9,M,,M,,*40
$GPGSA,A,3,30,11,01,07,13,19,28,15,04,17,,,1.1,0.6,1.0*36
$GPGSA,A,3,67,85,83,74,84,75,73,66,,,,,1.1,0.6,1.0*3B
$GP
GSV,6,1,12,01,33,124,27,04,38,090,33,07,26,156,36,11,47,107,37*7D
$GPGSV,6,2,12,13,33,274,32,15,20,311,40,17,24,217,37,18,05,358,17*79
$GPGSV,6,3,12,19,25,054,28,22,06,029,15,28,71,274,32,30,56,176,44*7E
$GPGSV,6,4,9,66,16,318,33,67,14,010,28,73,10,133,
27,74,61,134,31*41
$GPGSV,6,5,9,75,59,311,23,76,06,312,,83,30,038,31,84,74,111,19*4F
$GPGSV,6,6,9,85,36,195,19*7D

$GPRMC,103739.00,A,5627.1868,N,08458.6429,E,00.000,000.0,070515,,,A*6E
$GPGGA,103739.00,5627.1868,N,08458.6429,E,1,18,0.6,96.6,M,,M,,*42
$GPGSA,A,3,30,11,01,07,13,19,28,15,04,17,,,1.1,0.6,1.0*36
$GPGSA,A,3,67,85,83,74,84,75,73,66,,,,,1.1,0.6,1.0*3B

$GPRMC,103740.00,A,5627.1869,N,08458.6429,E,00.000,000.0,070515,,,A*61
$GPGGA,103740.00,5627.1869,N,08458.6429,E,1,18,0.6,96.6,M,,M,,*4D
$GPGSA,A,3,30,11,01,07,13,19,28,15,04,17,,,1.1,0.6,1.0*36
$GPGSA,A,3,67,85,83,74,84,75,73,66,,,,,1.1,0.6,1.0*3B

$GPRMC,103741.00,A,5627.1870,N,08458.6430,E,00.000,000.0,070515,,,A*60
$GPGGA,103741.00,5627.1870,N,08458.6430,E,1,18,0.6,96.7,M,,M,,*4D
$GPGSA,A,3,30,11,01,07,13,19,28,15,04,17,,,1.1,0.6,1.0*36
$GPGSA,A,3,67,85,83,74,84,75,73,66,,,,,1.1,0.6,1.0*3B

$GPRMC,103742.00,A,5627.1871,N,08458.6430,E,00.000,000.0,070515,,,A*62
$GPGGA,103742.00,5627.1871,N,08458.6430,E,1,18,0.6,96.7,M,,M,,*4F
$GPGSA,A,3,30,11,01,07,13,19,28,15,04,17,,,1.1,0.6,1.0*36
$GPGSA,A,3,67,85,83,74,84,75,73,66,,,,,1.1,0.6,1.0*3B
$GP
GSV,6,1,12,01,33,124,17,04,38,089,34,07,26,156,30,11,47,107,34*74
$GPGSV,6,2,12,13,33,274,23,15,20,311,39,17,24,217,39,18,05,358,15*7B
$GPGSV,6,3,12,19,25,054,30,22,06,029,15,28,71,274,30,30,56,176,45*74
$GPGSV,6,4,9,66,16,318,33,67,14,010,20,73,10,133,
22,74,61,134,34*49
$GPGSV,6,5,9,75,59,311,20,76,06,312,,83,30,038,30,84,74,111,21*46
$GPGSV,6,6,9,85,36,195,30*76

$GPRMC,103744.00,A,5627.1873,N,08458.6431,E,00.000,000.0,070515,,,A*67
$GPGGA,103744.00,5627.1873,N,08458.6431,E,1,18,0.6,96.8,M,,M,,*45
$GPGSA,A,3,30,11,01,07,13,19,28,15,04,17,,,1.1,0.6,1.0*36
$GPGSA,A,3,67,85,83,74,84,75,73,66,,,,,1.1,0.6,1.0*3B

$GPRMC,103745.00,A,5627.1874,N,08458.6432,E,00.000,000.0,070515,,,A*62
$GPGGA,103745.00,5627.1874,N,08458.6432,E,1,18,0.6,96.8,M,,M,,*40
$GPGSA,A,3,30,11,01,07,13,19,28,15,04,17,,,1.1,0.6,1.0*36
$GPGSA,A,3,67,85,83,74,84,75,73,66,,,,,1.1,0.6,1.0*3B

$GPRMC,103746.00,A,5627.1875,N,08458.6432,E,00.000,000.0,070515,,,A*60
$GPGGA,103746.00,5627.1875,N,08458.6432,E,1,18,0.6,97.1,M,,M,,*4A
$GPGSA,A,3,30,11,01,07,13,19,28,15,04,17,,,1.1,0.6,1.0*36
$GPGSA,A,3,67,85,83,74,84,75,73,66,,,,,1.1,0.6,1.0*3B

$GPRMC,103747.00,A,5627.1875,N,08458.6431,E,00.000,000.0,070515,,,A*62
$GPGGA,103747.00,5627.1875,N,08458.6431,E,1,18,0.6,97.5,M,,M,,*4C
$GPGSA,A,3,30,11,01,07,13,19,28,15,04,17,,,1.1,0.6,1.0*36
$GPGSA,A,3,67,85,83,74,84,75,73,66,,,,,1.1,0.6,1.0*3B
$GP
GSV,6,1,12,01,33,124,29,04,38,089,34,07,26,156,34,11,47,107,37*7E
$GPGSV,6,2,12,13,33,274,32,15,20,311,32,17,24,217,35,18,05,358,17*7E
$GPGSV,6,3,12,19,25,054,25,22,06,029,14,28,71,274,32,30,56,176,40*76
$GPGSV,6,4,9,66,16,318,33,67,14,010,19,73,10,133,
27,74,61,134,37*45
$GPGSV,6,5,9,75,59,311,24,76,06,312,,83,30,038,24,84,74,111,20*46
$GPGSV,6,6,9,85,36,195,30*76

$GPRMC,103749.00,A,5627.1867,N,08458.6435,E,01.864,161.2,070515,,,A*64
$GPGGA,103749.00,5627.1867,N,08458.6435,E,1,18,0.6,98.1,M,,M,,*4E
$GPGSA,A,3,30,11,01,07,13,19,28,15,04,17,,,1.1,0.6,1.0*36
$GPGSA,A,3,67,85,83,74,84,75,73,66,,,,,1.1,0.6,1.0*3B

$GPRMC,103750.00,A,5627.1860,N,08458.6439,E,02.557,166.9,070515,,,A*65
$GPGGA,103750.00,5627.1860,N,08458.6439,E,1,18,0.6,98.4,M,,M,,*48
$GPGSA,A,3,30,11,01,07,13,19,28,15,04,17,,,1.1,0.6,1.0*36
$GPGSA,A,3,67,85,83,74,84,75,73,66,,,,,1.1,0.6,1.0*3B

$GPRMC,103751.00,A,5627.1852,N,08458.6442,E,02.803,170.6,070515,,,A*6D
$GPGGA,103751.00,5627.1852,N,08458.6442,E,1,18,0.6,98.5,M,,M,,*45
$GPGSA,A,3,30,11,01,07,13,19,28,15,04,17,,,1.1,0.6,1.0*36
$GPGSA,A,3,67,85,83,74,84,75,73,66,,,,,1.1,0.6,1.0*3B

$GPRMC,103752.00,A,5627.1843,N,08458.6443,E,03.181,178.1,070515,,,A*62
$GPGGA,103752.00,5627.1843,N,08458.6443,E,1,18,0.6,98.7,M,,M,,*45
$GPGSA,A,3,30,11,01,07,13,19,28,15,04,17,,,1.1,0.6,1.0*36
$GPGSA,A,3,67,85,83,74,84,75,73,66,,,,,1.1,0.6,1.0*3B
$GP
GSV,6,1,12,01,33,124,39,04,38,089,27,07,26,156,32,11,47,106,37*7A
$GPGSV,6,2,12,13,33,274,33,15,20,311,28,17,24,217,33,18,05,358,26*70
$GPGSV,6,3,12,19,25,054,32,22,06,029,15,28,71,274,32,30,56,176,42*73
$GPGSV,6,4,9,66,16,318,19,67,14,010,18,73,10,133,
33,74,61,134,36*48
$GPGSV,6,5,9,75,59,311,20,76,06,312,,83,30,038,30,84,74,111,20*47
$GPGSV,6,6,9,85,36,195,19*7D

$GPRMC,103754.00,A,5627.1819,N,08458.6439,E,04.321,191.4,070515,,,A*6B
$GPGGA,103754.00,5627.1819,N,08458.6439,E,1,18,0.6,99.0,M,,M,,*47
$GPGSA,A,3,30,11,01,07,13,19,28,15,04,17,,,1.1,0.6,1.0*36
$GPGSA,A,3,67,85,83,74,84,75,73,66,,,,,1.1,0.6,1.0*3B

$GPRMC,103755.00,A,5627.1806,N,08458.6435,E,04.718,192.6,070515,,,A*67
$GPGGA,103755.00,5627.1806,N,08458.6435,E,1,17,0.6,99.1,M,,M,,*4A
$GPGSA,A,3,30,11,01,07,13,19,28,15,04,17,,,1.2,0.6,1.0*35
$GPGSA,A,3,85,83,74,84,75,73,66,,,,,,1.2,0.6,1.0*39

$GPRMC,103756.00,A,5627.1792,N,08458.6428,E,04.896,196.8,070515,,,A*69
$GPGGA,103756.00,5627.1792,N,08458.6428,E,1,17,0.6,99.4,M,,M,,*42
$GPGSA,A,3,30,11,01,07,13,19,28,15,04,17,,,1.2,0.6,1.0*35
$GPGSA,A,3,85,83,74,84,75,73,66,,,,,,1.2,0.6,1.0*39

$GPRMC,103757.00,A,5627.1778,N,08458.6420,E,04.999,197.4,070515,,,A*67
$GPGGA,103757.00,5627.1778,N,08458.6420,E,1,17,0.6,99.6,M,,M,,*4D
$GPGSA,A,3,30,11,01,07,13,19,28,15,04,17,,,1.2,0.6,1.0*35
$GPGSA,A,3,85,83,74,84,75,73,66,,,,,,1.2,0.6,1.0*39
$GPGS
V,6,1,12,01,33,124,34,04,38,089,36,07,26,156,27,11,47,106,27*72
$GPGSV,6,2,12,13,33,274,34,15,20,311,29,17,25,217,27,18,05,358,*76
$GPGSV,6,3,12,19,25,054,28,22,06,029,,28,71,274,29,30,56,176,39*7A
$GPGSV,6,4,9,66,16,318,21,67,14,010,18,73,10,133,26,74,
60,134,30*40
$GPGSV,6,5,9,75,59,311,20,76,06,312,,83,30,038,21,84,74,111,22*45
$GPGSV,6,6,9,85,36,195,35*73

$GPRMC,103759.00,A,5627.1749,N,08458.6402,E,05.152,198.6,070515,,,A*68
$GPGGA,103759.00,5627.1749,N,08458.6402,E,1,18,0.6,99.8,M,,M,,*40
$GPGSA,A,3,30,11,01,07,13,19,28,15,04,17,,,1.1,0.6,1.0*36
$GPGSA,A,3,67,85,83,74,84,75,73,66,,,,,1.1,0.6,1.0*3B

$GPRMC,103800.00,A,5627.1734,N,08458.6393,E,05.375,198.9,070515,,,A*66
$GPGGA,103800.00,5627.1734,N,08458.6393,E,1,18,0.6,99.8,M,,M,,*46
$GPGSA,A,3,30,11,01,07,13,19,28,15,04,17,,,1.1,0.6,1.0*36
$GPGSA,A,3,67,85,83,74,84,75,73,66,,,,,1.1,0.6,1.0*3B

$GPRMC,103801.00,A,5627.1720,N,08458.6386,E,05.237,197.2,070515,,,A*65
$GPGGA,103801.00,5627.1720,N,08458.6386,E,1,17,0.6,100.0,M,,M,,*70
$GPGSA,A,3,30,11,01,07,13,19,28,15,04,17,,,1.2,0.6,1.0*35
$GPGSA,A,3,67,85,74,84,75,73,66,,,,,,1.2,0.6,1.0*33

$GPRMC,103802.00,A,5627.1706,N,08458.6379,E,05.224,196.0,070515,,,A*63
$GPGGA,103802.00,5627.1706,N,08458.6379,E,1,17,0.6,99.9,M,,M,,*4F
$GPGSA,A,3,30,11,01,07,13,19,28,15,04,17,,,1.2,0.6,1.0*35
$GPGSA,A,3,67,85,74,84,75,73,66,,,,,,1.2,0.6,1.0*33
$GPGS
V,6,1,12,01,34,124,32,04,38,089,32,07,26,156,36,11,47,106,30*71
$GPGSV,6,2,12,13,33,274,30,15,20,311,35,17,25,217,19,18,05,358,*72
$GPGSV,6,3,12,19,25,054,30,22,06,029,,28,71,274,32,30,56,176,41*76
$GPGSV,6,4,9,66,16,318,19,67,14,010,19,73,10,133,20,74,
60,134,27*4A
$GPGSV,6,5,9,75,59,311,19,76,06,312,,83,29,038,14,84,74,110,20*42
$GPGSV,6,6,9,85,37,195,33*74

$GPRMC,103804.00,A,5627.1670,N,08458.6368,E,05.960,189.8,070515,,,A*68
$GPGGA,103804.00,5627.1670,N,08458.6368,E,1,18,0.6,100.0,M,,M,,*7E
$GPGSA,A,3,30,11,01,07,13,19,28,15,04,17,,,1.1,0.6,1.0*36
$GPGSA,A,3,67,85,83,74,84,75,73,66,,,,,1.1,0.6,1.0*3B

$GPRMC,103805.00,A,5627.1656,N,08458.6371,E,04.921,178.2,070515,,,A*65
$GPGGA,103805.00,5627.1656,N,08458.6371,E,1,18,0.6,100.1,M,,M,,*72
$GPGSA,A,3,30,11,01,07,13,19,28,15,04,17,,,1.1,0.6,1.0*36
$GPGSA,A,3,67,85,83,74,84,75,73,66,,,,,1.1,0.6,1.0*3B

$GPRMC,103806.00,A,5627.1638,N,08458.6373,E,05.502,175.8,070515,,,A*67
$GPGGA,103806.00,5627.1638,N,08458.6373,E,1,18,0.6,100.0,M,,M,,*7A
$GPGSA,A,3,30,11,01,07,13,19,28,15,04,17,,,1.1,0.6,1.0*36
$GPGSA,A,3,67,85,83,74,84,75,73,66,,,,,1.1,0.6,1.0*3B

$GPRMC,103807.00,A,5627.1623,N,08458.6376,E,05.247,172.6,070515,,,A*66
$GPGGA,103807.00,5627.1623,N,08458.6376,E,1,18,0.6,99.9,M,,M,,*4C
$GPGSA,A,3,30,11,01,07,13,19,28,15,04,17,,,1.1,0.6,1.0*36
$GPGSA,A,3,67,85,83,74,84,75,73,66,,,,,1.1,0.6,1.0*3B
$GP
GSV,6,1,12,01,34,124,37,04,38,089,31,07,26,156,34,11,47,106,25*71
$GPGSV,6,2,12,13,33,274,31,15,20,311,31,17,25,217,18,18,05,358,*76
$GPGSV,6,3,12,19,25,054,31,22,06,029,,28,71,274,31,30,56,176,38*7A
$GPGSV,6,4,9,66,16,318,32,67,14,010,19,73,10,133,29,7
4,60,134,38*44
$GPGSV,6,5,9,75,59,311,26,76,06,312,,83,29,038,15,84,74,110,27*48
$GPGSV,6,6,9,85,37,195,31*76

$GPRMC,103809.00,A,5627.1594,N,08458.6392,E,04.591,160.2,070515,,,A*67
$GPGGA,103809.00,5627.1594,N,08458.6392,E,1,17,0.6,99.7,M,,M,,*46
$GPGSA,A,3,30,11,01,07,13,19,28,15,04,17,,,1.2,0.6,1.0*35
$GPGSA,A,3,67,85,74,84,75,73,66,,,,,,1.2,0.6,1.0*33

$GPRMC,103810.00,A,5627.1582,N,08458.6398,E,03.914,161.7,070515,,,A*60
$GPGGA,103810.00,5627.1582,N,08458.6398,E,1,16,0.7,99.5,M,,M,,*41
$GPGSA,A,3,30,11,01,07,13,19,28,15,04,,,,1.2,0.7,1.0*32
$GPGSA,A,3,67,85,74,84,75,73,66,,,,,,1.2,0.7,1.0*32

$GPRMC,103811.00,A,5627.1572,N,08458.6405,E,03.102,157.6,070515,,,A*66
$GPGGA,103811.00,5627.1572,N,08458.6405,E,1,16,0.7,99.1,M,,M,,*48
$GPGSA,A,3,30,11,01,07,13,19,28,15,04,,,,1.2,0.7,1.0*32
$GPGSA,A,3,67,85,74,84,75,73,66,,,,,,1.2,0.7,1.0*32

$GPRMC,103812.00,A,5627.1559,N,08458.6412,E,03.559,161.4,070515,,,A*67
$GPGGA,103812.00,5627.1559,N,08458.6412,E,1,17,0.6,98.7,M,,M,,*43
$GPGSA,A,3,30,11,01,07,13,19,28,15,04,,,,1.2,0.6,1.0*33
$GPGSA,A,3,67,85,83,74,84,75,73,66,,,,,1.2,0.6,1.0*38
$GPGS
V,6,1,12,01,34,124,35,04,38,089,31,07,26,156,33,11,47,106,38*78
$GPGSV,6,2,12,13,33,274,37,15,20,311,30,17,25,217,14,18,05,358,*7D
$GPGSV,6,3,12,19,25,054,34,22,06,029,,28,71,274,26,30,56,176,39*78
$GPGSV,6,4,9,66,16,318,27,67,14,010,18,73,10,133,34,74,
60,134,37*42
$GPGSV,6,5,9,75,60,311,27,76,06,312,,83,29,038,23,84,74,110,27*46
$GPGSV,6,6,9,85,37,195,31*76

$GPRMC,103814.00,A,5627.1533,N,08458.6428,E,04.013,157.9,070515,,,A*60
$GPGGA,103814.00,5627.1533,N,08458.6428,E,1,17,0.6,97.8,M,,M,,*40
$GPGSA,A,3,30,11,01,07,13,19,28,15,04,,,,1.2,0.6,1.0*33
$GPGSA,A,3,67,85,83,74,84,75,73,66,,,,,1.2,0.6,1.0*38

$GPRMC,103815.00,A,5627.1522,N,08458.6435,E,04.113,159.9,070515,,,A*62
$GPGGA,103815.00,5627.1522,N,08458.6435,E,1,17,0.6,97.3,M,,M,,*46
$GPGSA,A,3,30,11,01,07,13,19,28,15,04,,,,1.2,0.6,1.0*33
$GPGSA,A,3,67,85,83,74,84,75,73,66,,,,,1.2,0.6,1.0*38

$GPRMC,103816.00,A,5627.1510,N,08458.6443,E,04.376,156.4,070515,,,A*62
$GPGGA,103816.00,5627.1510,N,08458.6443,E,1,17,0.6,97.0,M,,M,,*46
$GPGSA,A,3,30,11,01,07,13,19,28,15,04,,,,1.2,0.6,1.0*33
$GPGSA,A,3,67,85,83,74,84,75,73,66,,,,,1.2,0.6,1.0*38

$GPRMC,103817.00,A,5627.1499,N,08458.6453,E,04.435,154.8,070515,,,A*6C
$GPGGA,103817.00,5627.1499,N,08458.6453,E,1,17,0.6,96.8,M,,M,,*4F
$GPGSA,A,3,30,11,01,07,13,19,28,15,04,,,,1.2,0.6,1.0*33
$GPGSA,A,3,67,85,83,74,84,75,73,66,,,,,1.2,0.6,1.0*38
$GPGS
V,6,1,12,01,34,124,32,04,38,089,33,07,26,156,35,11,47,106,39*7A
$GPGSV,6,2,12,13,33,274,27,15,20,311,28,17,25,217,12,18,05,358,*73
$GPGSV,6,3,12,19,24,054,31,22,06,028,,28,71,274,31,30,55,176,40*76
$GPGSV,6,4,9,66,16,318,27,67,14,010,25,73,10,133,24,74,
60,134,37*4D
$GPGSV,6,5,9,75,60,311,27,76,06,312,,83,29,038,25,84,74,110,26*41
$GPGSV,6,6,9,85,37,195,34*73

$GPRMC,103819.00,A,5627.1474,N,08458.6482,E,04.999,146.3,070515,,,A*6E
$GPGGA,103819.00,5627.1474,N,08458.6482,E,1,17,0.6,96.5,M,,M,,*43
$GPGSA,A,3,30,11,01,07,13,19,28,15,04,,,,1.2,0.6,1.0*33
$GPGSA,A,3,67,85,83,74,84,75,73,66,,,,,1.2,0.6,1.0*38

$GPRMC,103820.00,A,5627.1460,N,08458.6503,E,05.513,142.0,070515,,,A*61
$GPGGA,103820.00,5627.1460,N,08458.6503,E,1,17,0.6,97.1,M,,M,,*41
$GPGSA,A,3,30,11,01,07,13,19,28,15,04,,,,1.2,0.6,1.0*33
$GPGSA,A,3,67,85,83,74,84,75,73,66,,,,,1.2,0.6,1.0*38

$GPRMC,103821.00,A,5627.1449,N,08458.6522,E,05.290,139.0,070515,,,A*68
$GPGGA,103821.00,5627.1449,N,08458.6522,E,1,17,0.6,97.3,M,,M,,*4A
$GPGSA,A,3,30,11,01,07,13,19,28,15,04,,,,1.2,0.6,1.0*33
$GPGSA,A,3,67,85,83,74,84,75,73,66,,,,,1.2,0.6,1.0*38

$GPRMC,103822.00,A,5627.1439,N,08458.6540,E,05.188,138.6,070515,,,A*65
$GPGGA,103822.00,5627.1439,N,08458.6540,E,1,17,0.6,97.3,M,,M,,*4A
$GPGSA,A,3,30,11,01,07,13,19,28,15,04,,,,1.2,0.6,1.0*33
$GPGSA,A,3,67,85,83,74,84,75,73,66,,,,,1.2,0.6,1.0*38
$GPGS
V,6,1,12,01,34,124,28,04,38,089,34,07,26,156,30,11,47,106,43*7E
$GPGSV,6,2,12,13,33,274,30,15,20,311,28,17,25,217,11,18,05,358,*76
$GPGSV,6,3,12,19,24,054,36,22,06,028,,28,71,274,25,30,55,176,36*75
$GPGSV,6,4,9,66,16,318,25,67,14,010,18,73,09,133,18,74,
60,134,37*46
$GPGSV,6,5,9,75,60,311,20,76,06,312,,83,29,038,25,84,74,109,21*49
$GPGSV,6,6,9,85,37,195,24*72

$GPRMC,103824.00,A,5627.1421,N,08458.6574,E,04.576,136.4,070515,,,A*65
$GPGGA,103824.00,5627.1421,N,08458.6574,E,1,17,0.6,97.5,M,,M,,*44
$GPGSA,A,3,30,11,01,07,13,19,28,15,04,,,,1.2,0.6,1.0*33
$GPGSA,A,3,67,85,83,74,84,75,73,66,,,,,1.2,0.6,1.0*38

$GPRMC,103825.00,A,5627.1414,N,08458.6591,E,04.168,133.5,070515,,,A*66
$GPGGA,103825.00,5627.1414,N,08458.6591,E,1,17,0.6,97.8,M,,M,,*45
$GPGSA,A,3,30,11,01,07,13,19,28,15,04,,,,1.2,0.6,1.0*33
$GPGSA,A,3,67,85,83,74,84,75,73,66,,,,,1.2,0.6,1.0*38

$GPRMC,103826.00,A,5627.1408,N,08458.6606,E,03.819,132.5,070515,,,A*6C
$GPGGA,103826.00,5627.1408,N,08458.6606,E,1,17,0.6,97.9,M,,M,,*47
$GPGSA,A,3,30,11,01,07,13,19,28,15,04,,,,1.2,0.6,1.0*33
$GPGSA,A,3,67,85,83,74,84,75,73,66,,,,,1.2,0.6,1.0*38

$GPRMC,103827.00,A,5627.1403,N,08458.6619,E,03.374,131.9,070515,,,A*67
$GPGGA,103827.00,5627.1403,N,08458.6619,E,1,17,0.6,98.1,M,,M,,*44
$GPGSA,A,3,30,11,01,07,13,19,28,15,04,,,,1.2,0.6,1.0*33
$GPGSA,A,3,67,85,83,74,84,75,73,66,,,,,1.2,0.6,1.0*38
$GPGS
V,6,1,12,01,34,124,38,04,38,089,39,07,26,156,37,11,47,106,40*76
$GPGSV,6,2,12,13,33,274,31,15,20,311,27,17,25,217,12,18,05,358,*7B
$GPGSV,6,3,12,19,24,054,39,22,06,028,,28,71,274,27,30,55,176,34*7A
$GPGSV,6,4,9,66,16,318,24,67,14,010,19,73,09,133,18,74,
60,134,37*46
$GPGSV,6,5,9,75,60,311,26,76,06,312,,83,29,038,29,84,74,109,29*4B
$GPGSV,6,6,9,85,37,195,28*7E

$GPRMC,103829.00,A,5627.1398,N,08458.6641,E,00.000,000.0,070515,,,A*68
$GPGGA,103829.00,5627.1398,N,08458.6641,E,1,17,0.6,99.0,M,,M,,*42
$GPGSA,A,3,30,11,01,07,13,19,28,15,04,,,,1.2,0.6,1.0*33
$GPGSA,A,3,67,85,83,74,84,75,73,66,,,,,1.2,0.6,1.0*38

$GPRMC,103830.00,A,5627.1398,N,08458.6644,E,00.000,000.0,070515,,,A*65
$GPGGA,103830.00,5627.1398,N,08458.6644,E,1,17,0.6,99.2,M,,M,,*4D
$GPGSA,A,3,30,11,01,07,13,19,28,15,04,,,,1.2,0.6,1.0*33
$GPGSA,A,3,67,85,83,74,84,75,73,66,,,,,1.2,0.6,1.0*38

$GPRMC,103831.00,A,5627.1398,N,08458.6649,E,00.000,000.0,070515,,,A*69
$GPGGA,103831.00,5627.1398,N,08458.6649,E,1,17,0.6,99.3,M,,M,,*40
$GPGSA,A,3,30,11,01,07,13,19,28,15,04,,,,1.2,0.6,1.0*33
$GPGSA,A,3,67,85,83,74,84,75,73,66,,,,,1.2,0.6,1.0*38

$GPRMC,103832.00,A,5627.1398,N,08458.6652,E,00.000,000.0,070515,,,A*60
$GPGGA,103832.00,5627.1398,N,08458.6652,E,1,17,0.6,99.2,M,,M,,*48
$GPGSA,A,3,30,11,01,07,13,19,28,15,04,,,,1.2,0.6,1.0*33
$GPGSA,A,3,67,85,83,74,84,75,73,66,,,,,1.2,0.6,1.0*38
$GPGS
V,6,1,12,01,34,124,39,04,38,089,36,07,26,156,31,11,47,106,37*7E
$GPGSV,6,2,12,13,33,274,19,15,20,311,26,17,25,217,13,18,05,358,*71
$GPGSV,6,3,12,19,24,054,34,22,06,028,,28,71,274,28,30,55,176,33*7F
$GPGSV,6,4,9,66,16,318,17,67,14,010,22,73,09,133,20,74,
60,134,36*44
$GPGSV,6,5,9,75,60,311,18,76,06,312,,83,29,038,27,84,74,109,26*47
$GPGSV,6,6,9,85,37,196,16*70

$GPRMC,103834.00,A,5627.1396,N,08458.6657,E,00.000,000.0,070515,,,A*6D
$GPGGA,103834.00,5627.1396,N,08458.6657,E,1,17,0.6,98.8,M,,M,,*4E
$GPGSA,A,3,30,11,01,07,13,19,28,15,04,,,,1.2,0.6,1.0*33
$GPGSA,A,3,67,85,83,74,84,75,73,66,,,,,1.2,0.6,1.0*38

$GPRMC,103835.00,A,5627.1395,N,08458.6659,E,00.000,000.0,070515,,,A*61
$GPGGA,103835.00,5627.1395,N,08458.6659,E,1,17,0.6,98.5,M,,M,,*4F
$GPGSA,A,3,30,11,01,07,13,19,28,15,04,,,,1.2,0.6,1.0*33
$GPGSA,A,3,67,85,83,74,84,75,73,66,,,,,1.2,0.6,1.0*38

$GPRMC,103836.00,A,5627.1393,N,08458.6663,E,00.000,000.0,070515,,,A*6D
$GPGGA,103836.00,5627.1393,N,08458.6663,E,1,17,0.6,98.2,M,,M,,*44
$GPGSA,A,3,30,11,01,07,13,19,28,15,04,,,,1.2,0.6,1.0*33
$GPGSA,A,3,67,85,83,74,84,75,73,66,,,,,1.2,0.6,1.0*38

$GPRMC,103837.00,A,5627.1392,N,08458.6665,E,00.000,000.0,070515,,,A*6B
$GPGGA,103837.00,5627.1392,N,08458.6665,E,1,17,0.6,98.0,M,,M,,*40
$GPGSA,A,3,30,11,01,07,13,19,28,15,04,,,,1.2,0.6,1.0*33
$GPGSA,A,3,67,85,83,74,84,75,73,66,,,,,1.2,0.6,1.0*38
$GPGS
V,6,1,12,01,34,124,39,04,38,089,35,07,26,156,34,11,47,106,38*77
$GPGSV,6,2,12,13,33,274,25,15,20,311,30,17,25,217,14,18,05,358,*7E
$GPGSV,6,3,12,19,24,054,34,22,06,028,17,28,71,274,27,30,55,176,35*70
$GPGSV,6,4,9,66,16,318,17,67,14,010,21,73,09,133,27,7
4,60,134,36*40
$GPGSV,6,5,9,75,60,311,28,76,06,312,,83,29,038,32,84,74,109,28*4E
$GPGSV,6,6,9,85,37,196,18*7E

$GPRMC,103839.00,A,5627.1389,N,08458.6674,E,00.000,000.0,070515,,,A*6F
$GPGGA,103839.00,5627.1389,N,08458.6674,E,1,17,0.6,97.3,M,,M,,*48
$GPGSA,A,3,30,11,01,07,13,19,28,15,04,,,,1.2,0.6,1.0*33
$GPGSA,A,3,67,85,83,74,84,75,73,66,,,,,1.2,0.6,1.0*38

$GPRMC,103840.00,A,5627.1387,N,08458.6679,E,00.000,000.0,070515,,,A*62
$GPGGA,103840.00,5627.1387,N,08458.6679,E,1,17,0.6,97.1,M,,M,,*47
$GPGSA,A,3,30,11,01,07,13,19,28,15,04,,,,1.2,0.6,1.0*33
$GPGSA,A,3,67,85,83,74,84,75,73,66,,,,,1.2,0.6,1.0*38

$GPRMC,103841.00,A,5627.1386,N,08458.6682,E,00.000,000.0,070515,,,A*66
$GPGGA,103841.00,5627.1386,N,08458.6682,E,1,17,0.6,97.1,M,,M,,*43
$GPGSA,A,3,30,11,01,07,13,19,28,15,04,,,,1.2,0.6,1.0*33
$GPGSA,A,3,67,85,83,74,84,75,73,66,,,,,1.2,0.6,1.0*38

$GPRMC,103842.00,A,5627.1386,N,08458.6685,E,00.000,000.0,070515,,,A*62
$GPGGA,103842.00,5627.1386,N,08458.6685,E,1,17,0.6,97.4,M,,M,,*42
$GPGSA,A,3,30,11,01,07,13,19,28,15,04,,,,1.2,0.6,1.0*33
$GPGSA,A,3,67,85,83,74,84,75,73,66,,,,,1.2,0.6,1.0*38
$GPGS
V,6,1,12,01,34,124,41,04,38,089,39,07,26,156,34,11,47,106,41*7A
$GPGSV,6,2,12,13,33,274,20,15,20,311,30,17,25,217,,18,05,358,*7E
$GPGSV,6,3,12,19,24,054,34,22,06,028,,28,71,274,28,30,55,176,34*78
$GPGSV,6,4,9,66,15,318,18,67,14,010,20,73,09,133,28,74,60
,134,36*42
$GPGSV,6,5,9,75,60,311,28,76,06,312,,83,29,038,29,84,74,109,27*4B
$GPGSV,6,6,9,85,37,196,17*71

$GPRMC,103844.00,A,5627.1386,N,08458.6690,E,00.000,000.0,070515,,,A*60
$GPGGA,103844.00,5627.1386,N,08458.6690,E,1,17,0.6,97.7,M,,M,,*43
$GPGSA,A,3,30,11,01,07,13,19,28,15,04,,,,1.2,0.6,1.0*33
$GPGSA,A,3,67,85,83,74,84,75,73,66,,,,,1.2,0.6,1.0*38

$GPRMC,103845.00,A,5627.1387,N,08458.6690,E,00.000,000.0,070515,,,A*60
$GPGGA,103845.00,5627.1387,N,08458.6690,E,1,17,0.6,97.4,M,,M,,*40
$GPGSA,A,3,30,11,01,07,13,19,28,15,04,,,,1.2,0.6,1.0*33
$GPGSA,A,3,67,85,83,74,84,75,73,66,,,,,1.2,0.6,1.0*38

$GPRMC,103846.00,A,5627.1387,N,08458.6691,E,00.000,000.0,070515,,,A*62
$GPGGA,103846.00,5627.1387,N,08458.6691,E,1,17,0.6,97.2,M,,M,,*44
$GPGSA,A,3,30,11,01,07,13,19,28,15,04,,,,1.2,0.6,1.0*33
$GPGSA,A,3,67,85,83,74,84,75,73,66,,,,,1.2,0.6,1.0*38

$GPRMC,103847.00,A,5627.1388,N,08458.6692,E,00.000,000.0,070515,,,A*6F
$GPGGA,103847.00,5627.1388,N,08458.6692,E,1,17,0.6,96.8,M,,M,,*42
$GPGSA,A,3,30,11,01,07,13,19,28,15,04,,,,1.2,0.6,1.0*33
$GPGSA,A,3,67,85,83,74,84,75,73,66,,,,,1.2,0.6,1.0*38
$GPGS
V,6,1,12,01,34,124,38,04,38,089,38,07,26,156,29,11,47,106,39*76
$GPGSV,6,2,12,13,33,274,18,15,20,311,27,17,25,217,,18,05,358,*73
$GPGSV,6,3,12,19,24,054,31,22,06,028,,28,71,274,28,30,55,176,34*7D
$GPGSV,6,4,9,66,15,318,18,67,14,010,20,73,09,133,26,74,60
,134,36*4C
$GPGSV,6,5,9,75,60,311,29,76,06,312,,83,29,038,28,84,74,108,27*4A
$GPGSV,6,6,9,85,37,196,15*73

$GPRMC,103849.00,A,5627.1388,N,08458.6695,E,00.000,000.0,070515,,,A*66
$GPGGA,103849.00,5627.1388,N,08458.6695,E,1,17,0.6,96.0,M,,M,,*43
$GPGSA,A,3,30,11,01,07,13,19,28,15,04,,,,1.2,0.6,1.0*33
$GPGSA,A,3,67,85,83,74,84,75,73,66,,,,,1.2,0.6,1.0*38

$GPRMC,103850.00,A,5627.1388,N,08458.6697,E,00.000,000.0,070515,,,A*6C
$GPGGA,103850.00,5627.1388,N,08458.6697,E,1,17,0.6,95.9,M,,M,,*43
$GPGSA,A,3,30,11,01,07,13,19,28,15,04,,,,1.2,0.6,1.0*33
$GPGSA,A,3,67,85,83,74,84,75,73,66,,,,,1.2,0.6,1.0*38

$GPRMC,103851.00,A,5627.1388,N,08458.6699,E,00.000,000.0,070515,,,A*63
$GPGGA,103851.00,5627.1388,N,08458.6699,E,1,17,0.6,95.6,M,,M,,*43
$GPGSA,A,3,30,11,01,07,13,19,28,15,04,,,,1.2,0.6,1.0*33
$GPGSA,A,3,67,85,83,74,84,75,73,66,,,,,1.2,0.6,1.0*38

$GPRMC,103852.00,A,5627.1388,N,08458.6699,E,00.000,000.0,070515,,,A*60
$GPGGA,103852.00,5627.1388,N,08458.6699,E,1,17,0.6,95.1,M,,M,,*47
$GPGSA,A,3,30,11,01,07,13,19,28,15,04,,,,1.2,0.6,1.0*33
$GPGSA,A,3,67,85,83,74,84,75,73,66,,,,,1.2,0.6,1.0*38
$GPGS
V,6,1,12,01,34,124,39,04,38,089,36,07,26,156,32,11,48,106,40*72
$GPGSV,6,2,12,13,33,274,17,15,20,311,27,17,25,217,,18,05,358,16*7B
$GPGSV,6,3,12,19,24,054,33,22,06,028,,28,71,274,29,30,55,176,30*7A
$GPGSV,6,4,9,66,15,318,17,67,14,010,21,73,09,133,24,74,
60,134,36*40
$GPGSV,6,5,9,75,60,311,28,76,06,312,,83,29,038,26,84,74,108,28*4A
$GPGSV,6,6,9,85,37,196,17*71

$GPRMC,103854.00,A,5627.1389,N,08458.6699,E,00.000,000.0,070515,,,A*67
$GPGGA,103854.00,5627.1389,N,08458.6699,E,1,17,0.6,94.2,M,,M,,*42
$GPGSA,A,3,30,11,01,07,13,19,28,15,04,,,,1.2,0.6,1.0*33
$GPGSA,A,3,67,85,83,74,84,75,73,66,,,,,1.2,0.6,1.0*38

$GPRMC,103855.00,A,5627.1390,N,08458.6699,E,00.000,000.0,070515,,,A*6E
$GPGGA,103855.00,5627.1390,N,08458.6699,E,1,17,0.6,94.1,M,,M,,*48
$GPGSA,A,3,30,11,01,07,13,19,28,15,04,,,,1.2,0.6,1.0*33
$GPGSA,A,3,67,85,83,74,84,75,73,66,,,,,1.2,0.6,1.0*38

$GPRMC,103856.00,A,5627.1390,N,08458.6701,E,00.000,000.0,070515,,,A*6D
$GPGGA,103856.00,5627.1390,N,08458.6701,E,1,16,0.7,94.2,M,,M,,*48
$GPGSA,A,3,30,11,01,07,19,28,15,04,,,,,1.2,0.7,1.0*30
$GPGSA,A,3,67,85,83,74,84,75,73,66,,,,,1.2,0.7,1.0*39

$GPRMC,103857.00,A,5627.1390,N,08458.6703,E,00.000,000.0,070515,,,A*6E
$GPGGA,103857.00,5627.1390,N,08458.6703,E,1,15,0.7,94.3,M,,M,,*49
$GPGSA,A,3,30,11,01,07,19,28,15,04,,,,,1.3,0.7,1.1*30
$GPGSA,A,3,67,85,83,74,84,75,73,,,,,,1.3,0.7,1.1*39
$GPGSV,6,
1,12,01,34,124,38,04,38,089,35,07,26,156,32,11,48,106,38*7F
$GPGSV,6,2,12,13,33,274,14,15,20,311,29,17,25,217,,18,05,358,*71
$GPGSV,6,3,12,19,24,054,35,22,06,028,,28,71,274,28,30,55,176,34*79
$GPGSV,6,4,9,66,15,318,14,67,14,010,22,73,09,133,29,74,60,134
,36*4D
$GPGSV,6,5,9,75,60,311,28,76,06,312,,83,29,038,29,84,74,108,27*4A
$GPGSV,6,6,9,85,37,196,17*71

$GPRMC,103859.00,A,5627.1391,N,08458.6703,E,00.000,000.0,070515,,,A*61
$GPGGA,103859.00,5627.1391,N,08458.6703,E,1,14,0.8,94.8,M,,M,,*43
$GPGSA,A,3,30,11,01,07,19,28,15,04,,,,,1.4,0.8,1.1*38
$GPGSA,A,3,67,83,74,84,75,73,,,,,,,1.4,0.8,1.1*3C

$GPRMC,103900.00,A,5627.1392,N,08458.6701,E,00.000,000.0,070515,,,A*6D
$GPGGA,103900.00,5627.1392,N,08458.6701,E,1,15,0.7,94.9,M,,M,,*40
$GPGSA,A,3,30,11,01,07,13,19,28,15,04,,,,1.3,0.7,1.1*32
$GPGSA,A,3,67,83,74,84,75,73,,,,,,,1.3,0.7,1.1*34

$GPRMC,103901.00,A,5627.1392,N,08458.6701,E,00.000,000.0,070515,,,A*6C
$GPGGA,103901.00,5627.1392,N,08458.6701,E,1,15,0.7,95.2,M,,M,,*4B
$GPGSA,A,3,30,11,01,07,13,19,28,15,04,,,,1.3,0.7,1.1*32
$GPGSA,A,3,67,83,74,84,75,73,,,,,,,1.3,0.7,1.1*34

$GPRMC,103902.00,A,5627.1392,N,08458.6700,E,00.000,000.0,070515,,,A*6E
$GPGGA,103902.00,5627.1392,N,08458.6700,E,1,15,0.7,95.4,M,,M,,*4F
$GPGSA,A,3,30,11,01,07,13,19,28,15,04,,,,1.3,0.7,1.1*32
$GPGSA,A,3,67,83,74,84,75,73,,,,,,,1.3,0.7,1.1*34
$GPGSV,6,
1,12,01,34,124,40,04,38,089,36,07,26,156,36,11,48,106,38*77
$GPGSV,6,2,12,13,32,273,20,15,20,311,26,17,25,217,,18,05,358,*7F
$GPGSV,6,3,12,19,24,054,36,22,06,028,22,28,72,274,27,30,55,176,37*75
$GPGSV,6,4,9,66,15,318,13,67,14,010,21,73,09,133,26,74,60,1
34,38*48
$GPGSV,6,5,9,75,60,311,29,76,06,312,,83,29,038,27,84,74,108,27*45
$GPGSV,6,6,9,85,37,196,14*72

$GPRMC,103904.00,A,5627.1392,N,08458.6701,E,00.000,000.0,070515,,,A*69
$GPGGA,103904.00,5627.1392,N,08458.6701,E,1,15,0.7,95.5,M,,M,,*49
$GPGSA,A,3,30,11,01,07,13,19,28,15,04,,,,1.3,0.7,1.1*32
$GPGSA,A,3,67,83,74,84,75,73,,,,,,,1.3,0.7,1.1*34

$GPRMC,103905.00,A,5627.1391,N,08458.6704,E,00.000,000.0,070515,,,A*6E
$GPGGA,103905.00,5627.1391,N,08458.6704,E,1,15,0.7,96.2,M,,M,,*4A
$GPGSA,A,3,30,11,01,07,13,19,28,15,04,,,,1.3,0.7,1.1*32
$GPGSA,A,3,67,83,74,84,75,73,,,,,,,1.3,0.7,1.1*34

$GPRMC,103906.00,A,5627.1390,N,08458.6708,E,00.000,000.0,070515,,,A*60
$GPGGA,103906.00,5627.1390,N,08458.6708,E,1,15,0.7,97.0,M,,M,,*47
$GPGSA,A,3,30,11,01,07,13,19,28,15,04,,,,1.3,0.7,1.1*32
$GPGSA,A,3,67,83,74,84,75,73,,,,,,,1.3,0.7,1.1*34

$GPRMC,103907.00,A,5627.1389,N,08458.6713,E,00.000,000.0,070515,,,A*63
$GPGGA,103907.00,5627.1389,N,08458.6713,E,1,16,0.7,98.0,M,,M,,*48
$GPGSA,A,3,30,11,01,07,13,19,28,15,04,,,,1.3,0.7,1.0*33
$GPGSA,A,3,67,85,83,74,84,75,73,,,,,,1.3,0.7,1.0*38
$GPGSV,
6,1,12,01,34,124,39,04,38,089,37,07,26,156,35,11,48,106,37*74
$GPGSV,6,2,12,13,32,273,19,15,20,311,27,17,25,217,,18,05,358,*74
$GPGSV,6,3,12,19,24,054,36,22,06,028,,28,72,274,30,30,55,176,35*71
$GPGSV,6,4,9,66,15,318,15,67,14,010,26,73,09,133,26,74,60,1
34,38*49
$GPGSV,6,5,9,75,60,310,29,76,06,312,,83,29,038,27,84,74,108,26*45
$GPGSV,6,6,9,85,37,196,19*7F

$GPRMC,103909.00,A,5627.1386,N,08458.6723,E,00.000,000.0,070515,,,A*61
$GPGGA,103909.00,5627.1386,N,08458.6723,E,1,16,0.7,99.6,M,,M,,*4D
$GPGSA,A,3,30,11,01,07,13,19,28,15,04,,,,1.3,0.7,1.0*33
$GPGSA,A,3,67,85,83,74,84,75,73,,,,,,1.3,0.7,1.0*38

$GPRMC,103910.00,A,5627.1386,N,08458.6724,E,00.000,000.0,070515,,,A*6E
$GPGGA,103910.00,5627.1386,N,08458.6724,E,1,16,0.7,99.8,M,,M,,*4C
$GPGSA,A,3,30,11,01,07,13,19,28,15,04,,,,1.3,0.7,1.0*33
$GPGSA,A,3,67,85,83,74,84,75,73,,,,,,1.3,0.7,1.0*38

$GPRMC,103911.00,A,5627.1385,N,08458.6726,E,00.000,000.0,070515,,,A*6E
$GPGGA,103911.00,5627.1385,N,08458.6726,E,1,16,0.7,100.0,M,,M,,*75
$GPGSA,A,3,30,11,01,07,13,19,28,15,04,,,,1.3,0.7,1.0*33
$GPGSA,A,3,67,85,83,74,84,75,73,,,,,,1.3,0.7,1.0*38

$GPRMC,103912.00,A,5627.1385,N,08458.6727,E,00.000,000.0,070515,,,A*6C
$GPGGA,103912.00,5627.1385,N,08458.6727,E,1,16,0.7,100.6,M,,M,,*71
$GPGSA,A,3,30,11,01,07,13,19,28,15,04,,,,1.3,0.7,1.0*33
$GPGSA,A,3,67,85,83,74,84,75,73,,,,,,1.3,0.7,1.0*38
$GPGSV
,6,1,12,01,34,123,38,04,38,089,39,07,26,156,34,11,48,106,35*7F
$GPGSV,6,2,12,13,32,273,18,15,20,311,25,17,25,217,,18,05,358,*77
$GPGSV,6,3,12,19,24,054,35,22,06,028,,28,72,274,29,30,55,176,33*7C
$GPGSV,6,4,9,66,15,318,16,67,14,010,19,73,09,133,26,74,60,
134,36*48
$GPGSV,6,5,9,75,60,310,28,76,06,312,,83,29,038,29,84,74,108,27*4B
$GPGSV,6,6,9,85,37,196,27*72

$GPRMC,103914.00,A,5627.1384,N,08458.6728,E,00.000,000.0,070515,,,A*64
$GPGGA,103914.00,5627.1384,N,08458.6728,E,1,16,0.7,101.9,M,,M,,*77
$GPGSA,A,3,30,11,01,07,13,19,28,15,04,,,,1.3,0.7,1.0*33
$GPGSA,A,3,67,85,83,74,84,75,73,,,,,,1.3,0.7,1.0*38

$GPRMC,103915.00,A,5627.1384,N,08458.6728,E,00.000,000.0,070515,,,A*65
$GPGGA,103915.00,5627.1384,N,08458.6728,E,1,16,0.7,102.5,M,,M,,*79
$GPGSA,A,3,30,11,01,07,13,19,28,15,04,,,,1.3,0.7,1.0*33
$GPGSA,A,3,67,85,83,74,84,75,73,,,,,,1.3,0.7,1.0*38

$GPRMC,103916.00,A,5627.1384,N,08458.6727,E,00.000,000.0,070515,,,A*69
$GPGGA,103916.00,5627.1384,N,08458.6727,E,1,16,0.7,103.1,M,,M,,*70
$GPGSA,A,3,30,11,01,07,13,19,28,15,04,,,,1.3,0.7,1.0*33
$GPGSA,A,3,67,85,83,74,84,75,73,,,,,,1.3,0.7,1.0*38

$GPRMC,103917.00,A,5627.1384,N,08458.6727,E,00.000,000.0,070515,,,A*68
$GPGGA,103917.00,5627.1384,N,08458.6727,E,1,16,0.7,103.7,M,,M,,*77
$GPGSA,A,3,30,11,01,07,13,19,28,15,04,,,,1.3,0.7,1.0*33
$GPGSA,A,3,67,85,83,74,84,75,73,,,,,,1.3,0.7,1.0*38
$GPGSV
,6,1,12,01,34,123,40,04,38,089,40,07,26,156,35,11,48,106,37*7D
$GPGSV,6,2,12,13,32,273,17,15,20,311,21,17,25,217,,18,05,358,*7C
$GPGSV,6,3,12,19,24,054,32,22,06,028,,28,72,274,25,30,55,176,31*75
$GPGSV,6,4,9,66,15,317,17,67,14,009,20,73,09,133,21,74,60,
134,36*43
$GPGSV,6,5,9,75,60,310,27,76,06,312,,83,29,038,29,84,74,107,28*44
$GPGSV,6,6,9,85,37,196,21*74

$GPRMC,103919.00,A,5627.1384,N,08458.6726,E,00.000,000.0,070515,,,A*67
$GPGGA,103919.00,5627.1384,N,08458.6726,E,1,16,0.7,104.5,M,,M,,*7D
$GPGSA,A,3,30,11,01,07,13,19,28,15,04,,,,1.3,0.7,1.0*33
$GPGSA,A,3,67,85,83,74,84,75,73,,,,,,1.3,0.7,1.0*38

$GPRMC,103920.00,A,5627.1384,N,08458.6725,E,00.000,000.0,070515,,,A*6E
$GPGGA,103920.00,5627.1384,N,08458.6725,E,1,16,0.7,104.8,M,,M,,*79
$GPGSA,A,3,30,11,01,07,13,19,28,15,04,,,,1.3,0.7,1.0*33
$GPGSA,A,3,67,85,83,74,84,75,73,,,,,,1.3,0.7,1.0*38

$GPRMC,103921.00,A,5627.1384,N,08458.6724,E,00.000,000.0,070515,,,A*6E
$GPGGA,103921.00,5627.1384,N,08458.6724,E,1,16,0.7,104.9,M,,M,,*78
$GPGSA,A,3,30,11,01,07,13,19,28,15,04,,,,1.3,0.7,1.0*33
$GPGSA,A,3,67,85,83,74,84,75,73,,,,,,1.3,0.7,1.0*38

$GPRMC,103922.00,A,5627.1385,N,08458.6722,E,00.000,000.0,070515,,,A*6A
$GPGGA,103922.00,5627.1385,N,08458.6722,E,1,16,0.7,104.7,M,,M,,*72
$GPGSA,A,3,30,11,01,07,13,19,28,15,04,,,,1.3,0.7,1.0*33
$GPGSA,A,3,67,85,83,74,84,75,73,,,,,,1.3,0.7,1.0*38
$GPGSV
,6,1,12,01,34,123,39,04,38,089,39,07,26,156,32,11,48,105,38*76
$GPGSV,6,2,12,13,32,273,20,15,20,311,21,17,25,217,,18,05,358,*78
$GPGSV,6,3,12,19,24,054,31,22,06,028,,28,72,274,26,30,55,176,34*70
$GPGSV,6,4,9,66,15,317,15,67,14,009,17,73,09,133,21,74,60,
134,35*46
$GPGSV,6,5,9,75,60,310,28,76,06,312,,83,29,038,27,84,74,107,28*45
$GPGSV,6,6,9,85,37,196,20*75

$GPRMC,103924.00,A,5627.1387,N,08458.6719,E,00.000,000.0,070515,,,A*66
$GPGGA,103924.00,5627.1387,N,08458.6719,E,1,16,0.7,103.9,M,,M,,*77
$GPGSA,A,3,30,11,01,07,13,19,28,15,04,,,,1.3,0.7,1.0*33
$GPGSA,A,3,67,85,83,74,84,75,73,,,,,,1.3,0.7,1.0*38

$GPRMC,103925.00,A,5627.1388,N,08458.6718,E,00.000,000.0,070515,,,A*69
$GPGGA,103925.00,5627.1388,N,08458.6718,E,1,16,0.7,103.5,M,,M,,*74
$GPGSA,A,3,30,11,01,07,13,19,28,15,04,,,,1.3,0.7,1.0*33
$GPGSA,A,3,67,85,83,74,84,75,73,,,,,,1.3,0.7,1.0*38

$GPRMC,103926.00,A,5627.1389,N,08458.6717,E,00.000,000.0,070515,,,A*64
$GPGGA,103926.00,5627.1389,N,08458.6717,E,1,16,0.7,102.9,M,,M,,*74
$GPGSA,A,3,30,11,01,07,13,19,28,15,04,,,,1.3,0.7,1.0*33
$GPGSA,A,3,67,85,83,74,84,75,73,,,,,,1.3,0.7,1.0*38

$GPRMC,103927.00,A,5627.1390,N,08458.6719,E,00.000,000.0,070515,,,A*63
$GPGGA,103927.00,5627.1390,N,08458.6719,E,1,17,0.6,102.4,M,,M,,*7E
$GPGSA,A,3,30,11,01,07,13,19,28,15,04,,,,1.2,0.6,1.0*33
$GPGSA,A,3,67,85,83,74,84,75,73,66,,,,,1.2,0.6,1.0*38
$GPG
SV,6,1,12,01,34,123,38,04,38,089,39,07,26,156,32,11,48,105,39*76
$GPGSV,6,2,12,13,32,273,18,15,20,311,29,17,25,217,,18,05,357,*74
$GPGSV,6,3,12,19,24,054,30,22,06,028,,28,72,274,21,30,55,176,31*73
$GPGSV,6,4,9,66,15,317,19,67,14,009,20,73,09,133,25,74,6
0,134,36*49
$GPGSV,6,5,9,75,60,310,24,76,06,312,,83,29,038,21,84,74,107,28*4F
$GPGSV,6,6,9,85,37,196,15*73

$GPRMC,103929.00,A,5627.1393,N,08458.6722,E,00.000,000.0,070515,,,A*66
$GPGGA,103929.00,5627.1393,N,08458.6722,E,1,16,0.7,101.2,M,,M,,*7E
$GPGSA,A,3,30,11,01,07,13,19,28,15,04,,,,1.2,0.7,1.0*32
$GPGSA,A,3,67,83,74,84,75,73,66,,,,,,1.2,0.7,1.0*34

$GPRMC,103930.00,A,5627.1395,N,08458.6725,E,00.000,000.0,070515,,,A*6F
$GPGGA,103930.00,5627.1395,N,08458.6725,E,1,15,0.7,100.6,M,,M,,*71
$GPGSA,A,3,30,11,01,07,13,19,28,15,04,,,,1.3,0.7,1.1*32
$GPGSA,A,3,67,83,74,84,75,73,,,,,,,1.3,0.7,1.1*34

$GPRMC,103931.00,A,5627.1396,N,08458.6728,E,00.000,000.0,070515,,,A*60
$GPGGA,103931.00,5627.1396,N,08458.6728,E,1,15,0.7,100.1,M,,M,,*79
$GPGSA,A,3,30,11,01,07,13,19,28,15,04,,,,1.3,0.7,1.1*32
$GPGSA,A,3,67,83,74,84,75,73,,,,,,,1.3,0.7,1.1*34

$GPRMC,103932.00,A,5627.1397,N,08458.6731,E,00.000,000.0,070515,,,A*6A
$GPGGA,103932.00,5627.1397,N,08458.6731,E,1,15,0.7,99.7,M,,M,,*44
$GPGSA,A,3,30,11,01,07,13,19,28,15,04,,,,1.3,0.7,1.1*32
$GPGSA,A,3,67,83,74,84,75,73,,,,,,,1.3,0.7,1.1*34
$GPGSV,6,
1,12,01,34,123,37,04,38,089,39,07,26,156,36,11,48,105,39*7D
$GPGSV,6,2,12,13,32,273,28,15,20,311,29,17,25,217,,18,05,357,20*75
$GPGSV,6,3,12,19,24,054,32,22,06,028,,28,72,274,27,30,55,176,32*74
$GPGSV,6,4,9,66,15,317,14,67,14,009,19,73,09,133,24,74,60,1
34,33*4A
$GPGSV,6,5,9,75,60,310,26,76,06,312,,83,29,038,17,84,74,107,28*48
$GPGSV,6,6,9,85,37,196,14*72

$GPRMC,103934.00,A,5627.1398,N,08458.6739,E,00.000,000.0,070515,,,A*6B
$GPGGA,103934.00,5627.1398,N,08458.6739,E,1,14,0.8,99.2,M,,M,,*4E
$GPGSA,A,3,30,11,01,07,13,19,28,15,04,,,,1.3,0.8,1.1*3D
$GPGSA,A,3,67,74,84,75,73,,,,,,,,1.3,0.8,1.1*30

$GPRMC,103935.00,A,5627.1397,N,08458.6744,E,00.000,000.0,070515,,,A*6F
$GPGGA,103935.00,5627.1397,N,08458.6744,E,1,15,0.7,99.3,M,,M,,*45
$GPGSA,A,3,30,11,01,07,13,19,28,15,04,,,,1.3,0.7,1.0*33
$GPGSA,A,3,67,85,74,84,75,73,,,,,,,1.3,0.7,1.0*33

$GPRMC,103936.00,A,5627.1397,N,08458.6747,E,00.000,000.0,070515,,,A*6F
$GPGGA,103936.00,5627.1397,N,08458.6747,E,1,15,0.7,99.2,M,,M,,*44
$GPGSA,A,3,30,11,01,07,13,19,28,15,04,,,,1.3,0.7,1.0*33
$GPGSA,A,3,67,85,74,84,75,73,,,,,,,1.3,0.7,1.0*33

$GPRMC,103937.00,A,5627.1396,N,08458.6750,E,00.000,000.0,070515,,,A*69
$GPGGA,103937.00,5627.1396,N,08458.6750,E,1,15,0.7,99.2,M,,M,,*42
$GPGSA,A,3,30,11,01,07,13,19,28,15,04,,,,1.3,0.7,1.0*33
$GPGSA,A,3,67,85,74,84,75,73,,,,,,,1.3,0.7,1.0*33
$GPGSV,6,
1,12,01,34,123,37,04,38,088,38,07,26,156,36,11,48,105,38*7C
$GPGSV,6,2,12,13,32,273,26,15,20,310,27,17,25,217,,18,05,357,*76
$GPGSV,6,3,12,19,24,054,35,22,06,028,,28,72,274,27,30,55,176,35*74
$GPGSV,6,4,9,66,15,317,15,67,14,009,21,73,09,133,21,74,60,134
,35*43
$GPGSV,6,5,9,75,60,310,27,76,06,312,,83,29,038,18,84,74,107,24*4A
$GPGSV,6,6,9,85,37,196,18*7E

$GPRMC,103939.00,A,5627.1395,N,08458.6754,E,00.000,000.0,070515,,,A*60
$GPGGA,103939.00,5627.1395,N,08458.6754,E,1,16,0.7,99.5,M,,M,,*4F
$GPGSA,A,3,30,11,01,07,13,19,28,15,04,,,,1.3,0.7,1.0*33
$GPGSA,A,3,67,85,83,74,84,75,73,,,,,,1.3,0.7,1.0*38

$GPRMC,103940.00,A,5627.1394,N,08458.6757,E,00.000,000.0,070515,,,A*6C
$GPGGA,103940.00,5627.1394,N,08458.6757,E,1,16,0.7,99.7,M,,M,,*41
$GPGSA,A,3,30,11,01,07,13,19,28,15,04,,,,1.3,0.7,1.0*33
$GPGSA,A,3,67,85,83,74,84,75,73,,,,,,1.3,0.7,1.0*38

$GPRMC,103941.00,A,5627.1393,N,08458.6760,E,00.000,000.0,070515,,,A*6E
$GPGGA,103941.00,5627.1393,N,08458.6760,E,1,16,0.7,100.0,M,,M,,*75
$GPGSA,A,3,30,11,01,07,13,19,28,15,04,,,,1.3,0.7,1.0*33
$GPGSA,A,3,67,85,83,74,84,75,73,,,,,,1.3,0.7,1.0*38

$GPRMC,103942.00,A,5627.1392,N,08458.6763,E,00.000,000.0,070515,,,A*6F
$GPGGA,103942.00,5627.1392,N,08458.6763,E,1,16,0.7,100.3,M,,M,,*77
$GPGSA,A,3,30,11,01,07,13,19,28,15,04,,,,1.3,0.7,1.0*33
$GPGSA,A,3,67,85,83,74,84,75,73,,,,,,1.3,0.7,1.0*38
$GPGSV
,6,1,12,01,34,123,36,04,38,088,40,07,26,156,34,11,48,105,38*70
$GPGSV,6,2,12,13,32,273,28,15,20,310,29,17,25,217,,18,05,357,*76
$GPGSV,6,3,12,19,24,054,34,22,06,028,,28,72,274,27,30,55,176,36*76
$GPGSV,6,4,9,66,15,317,16,67,14,009,18,73,09,133,21,74,59,
134,34*41
$GPGSV,6,5,9,75,60,310,28,76,07,312,,83,29,038,20,84,72,104,25*4B
$GPGSV,6,6,9,85,37,196,19*7F

$GPRMC,103944.00,A,5627.1389,N,08458.6770,E,00.000,000.0,070515,,,A*61
$GPGGA,103944.00,5627.1389,N,08458.6770,E,1,17,0.6,101.3,M,,M,,*78
$GPGSA,A,3,30,11,01,07,13,19,28,15,04,,,,1.2,0.6,1.0*33
$GPGSA,A,3,67,85,83,74,84,75,73,66,,,,,1.2,0.6,1.0*38

$GPRMC,103945.00,A,5627.1387,N,08458.6772,E,00.000,000.0,070515,,,A*6C
$GPGGA,103945.00,5627.1387,N,08458.6772,E,1,17,0.6,101.4,M,,M,,*72
$GPGSA,A,3,30,11,01,07,13,19,28,15,04,,,,1.2,0.6,1.0*33
$GPGSA,A,3,67,85,83,74,84,75,73,66,,,,,1.2,0.6,1.0*38

$GPRMC,103946.00,A,5627.1386,N,08458.6775,E,00.000,000.0,070515,,,A*69
$GPGGA,103946.00,5627.1386,N,08458.6775,E,1,17,0.6,101.6,M,,M,,*75
$GPGSA,A,3,30,11,01,07,13,19,28,15,04,,,,1.2,0.6,1.0*33
$GPGSA,A,3,67,85,83,74,84,75,73,66,,,,,1.2,0.6,1.0*38

$GPRMC,103947.00,A,5627.1385,N,08458.6777,E,00.000,000.0,070515,,,A*69
$GPGGA,103947.00,5627.1385,N,08458.6777,E,1,17,0.6,101.7,M,,M,,*74
$GPGSA,A,3,30,11,01,07,13,19,28,15,04,,,,1.2,0.6,1.0*33
$GPGSA,A,3,67,85,83,74,84,75,73,66,,,,,1.2,0.6,1.0*38
$GPG
SV,6,1,12,01,34,123,35,04,38,088,39,07,25,156,32,11,48,105,37*77
$GPGSV,6,2,12,13,32,273,26,15,20,310,29,17,25,217,,18,05,357,*78
$GPGSV,6,3,12,19,24,054,32,22,06,028,,28,72,274,25,30,55,176,36*72
$GPGSV,6,4,9,66,15,317,20,67,14,009,19,73,09,133,21,74,5
9,134,36*47
$GPGSV,6,5,9,75,60,310,27,76,07,312,,83,29,038,20,84,72,104,25*44
$GPGSV,6,6,9,85,37,196,20*75

$GPRMC,103949.00,A,5627.1382,N,08458.6780,E,00.000,000.0,070515,,,A*68
$GPGGA,103949.00,5627.1382,N,08458.6780,E,1,17,0.6,101.6,M,,M,,*74
$GPGSA,A,3,30,11,01,07,13,19,28,15,04,,,,1.2,0.6,1.0*33
$GPGSA,A,3,67,85,83,74,84,75,73,66,,,,,1.2,0.6,1.0*38

$GPRMC,103950.00,A,5627.1381,N,08458.6781,E,00.000,000.0,070515,,,A*62
$GPGGA,103950.00,5627.1381,N,08458.6781,E,1,17,0.6,101.5,M,,M,,*7D
$GPGSA,A,3,30,11,01,07,13,19,28,15,04,,,,1.2,0.6,1.0*33
$GPGSA,A,3,67,85,83,74,84,75,73,66,,,,,1.2,0.6,1.0*38

$GPRMC,103951.00,A,5627.1380,N,08458.6781,E,00.000,000.0,070515,,,A*62
$GPGGA,103951.00,5627.1380,N,08458.6781,E,1,16,0.7,101.3,M,,M,,*7B
$GPGSA,A,3,30,11,01,07,13,19,28,15,04,,,,1.2,0.7,1.0*32
$GPGSA,A,3,85,83,74,84,75,73,66,,,,,,1.2,0.7,1.0*38

$GPRMC,103952.00,A,5627.1379,N,08458.6781,E,00.000,000.0,070515,,,A*67
$GPGGA,103952.00,5627.1379,N,08458.6781,E,1,16,0.7,101.4,M,,M,,*79
$GPGSA,A,3,30,11,01,07,13,19,28,15,04,,,,1.2,0.7,1.0*32
$GPGSA,A,3,85,83,74,84,75,73,66,,,,,,1.2,0.7,1.0*38
$GPGSV
,6,1,12,01,34,123,37,04,38,088,40,07,25,156,33,11,48,105,37*7A
$GPGSV,6,2,12,13,32,273,26,15,20,310,27,17,25,217,,18,05,357,*76
$GPGSV,6,3,12,19,24,054,33,22,06,028,,28,72,274,27,30,55,176,37*70
$GPGSV,6,4,9,66,15,317,18,67,14,009,15,73,09,133,16,74,59,
134,35*47
$GPGSV,6,5,9,75,60,310,25,76,07,312,,83,28,038,21,84,72,104,25*46
$GPGSV,6,6,9,85,38,196,19*70

$GPRMC,103954.00,A,5627.1377,N,08458.6782,E,00.000,000.0,070515,,,A*6C
$GPGGA,103954.00,5627.1377,N,08458.6782,E,1,16,0.7,101.5,M,,M,,*73
$GPGSA,A,3,30,11,01,07,13,19,28,15,04,,,,1.2,0.7,1.0*32
$GPGSA,A,3,85,83,74,84,75,73,66,,,,,,1.2,0.7,1.0*38

$GPRMC,103955.00,A,5627.1375,N,08458.6784,E,00.000,000.0,070515,,,A*69
$GPGGA,103955.00,5627.1375,N,08458.6784,E,1,15,0.7,101.7,M,,M,,*77
$GPGSA,A,3,30,11,01,07,13,19,28,15,04,,,,1.3,0.7,1.1*32
$GPGSA,A,3,85,83,74,84,75,73,,,,,,,1.3,0.7,1.1*38

$GPRMC,103956.00,A,5627.1373,N,08458.6786,E,00.000,000.0,070515,,,A*6E
$GPGGA,103956.00,5627.1373,N,08458.6786,E,1,15,0.7,101.9,M,,M,,*7E
$GPGSA,A,3,30,11,01,07,13,19,28,15,04,,,,1.3,0.7,1.1*32
$GPGSA,A,3,85,83,74,84,75,73,,,,,,,1.3,0.7,1.1*38

$GPRMC,103957.00,A,5627.1371,N,08458.6789,E,00.000,000.0,070515,,,A*62
$GPGGA,103957.00,5627.1371,N,08458.6789,E,1,15,0.7,101.9,M,,M,,*72
$GPGSA,A,3,30,11,01,07,13,19,28,15,04,,,,1.3,0.7,1.1*32
$GPGSA,A,3,85,83,74,84,75,73,,,,,,,1.3,0.7,1.1*38
$GPGSV,6
,1,12,01,34,123,37,04,38,088,39,07,25,156,33,11,48,105,35*76
$GPGSV,6,2,12,13,32,273,21,15,20,310,27,17,25,217,,18,05,357,*71
$GPGSV,6,3,12,19,24,054,32,22,06,028,,28,72,274,26,30,55,176,35*72
$GPGSV,6,4,9,66,15,317,15,67,14,009,14,73,09,133,18,74,59,13
4,36*46
$GPGSV,6,5,9,75,60,310,21,76,07,312,,83,28,038,21,84,72,104,26*41
$GPGSV,6,6,9,85,38,196,20*7A

$GPRMC,103959.00,A,5627.1369,N,08458.6792,E,00.000,000.0,070515,,,A*6F
$GPGGA,103959.00,5627.1369,N,08458.6792,E,1,15,0.7,102.0,M,,M,,*75
$GPGSA,A,3,30,11,01,07,13,19,28,15,04,,,,1.3,0.7,1.1*32
$GPGSA,A,3,85,83,74,84,75,73,,,,,,,1.3,0.7,1.1*38

$GPRMC,104000.00,A,5627.1368,N,08458.6793,E,00.000,000.0,070515,,,A*6D
$GPGGA,104000.00,5627.1368,N,08458.6793,E,1,15,0.7,102.1,M,,M,,*76
$GPGSA,A,3,30,11,01,07,13,19,28,15,04,,,,1.3,0.7,1.1*32
$GPGSA,A,3,85,83,74,84,75,73,,,,,,,1.3,0.7,1.1*38

$GPRMC,104001.00,A,5627.1368,N,08458.6793,E,00.000,000.0,070515,,,A*6C
$GPGGA,104001.00,5627.1368,N,08458.6793,E,1,15,0.7,102.2,M,,M,,*74
$GPGSA,A,3,30,11,01,07,13,19,28,15,04,,,,1.3,0.7,1.1*32
$GPGSA,A,3,85,83,74,84,75,73,,,,,,,1.3,0.7,1.1*38

$GPRMC,104002.00,A,5627.1367,N,08458.6793,E,00.000,000.0,070515,,,A*60
$GPGGA,104002.00,5627.1367,N,08458.6793,E,1,15,0.7,102.3,M,,M,,*79
$GPGSA,A,3,30,11,01,07,13,19,28,15,04,,,,1.3,0.7,1.1*32
$GPGSA,A,3,85,83,74,84,75,73,,,,,,,1.3,0.7,1.1*38
$GPGSV,6
,1,12,01,34,123,37,04,38,088,38,07,25,156,34,11,48,105,35*70
$GPGSV,6,2,12,13,32,273,16,15,20,310,28,17,25,217,,18,05,357,*7A
$GPGSV,6,3,12,19,24,054,31,22,06,028,,28,72,274,20,30,55,176,37*75
$GPGSV,6,4,9,66,15,317,14,67,14,009,11,73,09,133,15,74,59,13
5,36*4E
$GPGSV,6,5,9,75,61,310,20,76,07,312,,83,28,038,22,84,72,103,28*4B
$GPGSV,6,6,9,85,38,196,15*7C

$GPRMC,104004.00,A,5627.1366,N,08458.6792,E,00.000,000.0,070515,,,A*66
$GPGGA,104004.00,5627.1366,N,08458.6792,E,1,13,0.9,102.7,M,,M,,*73
$GPGSA,A,3,30,11,01,07,13,19,28,15,04,,,,1.9,0.9,1.6*31
$GPGSA,A,3,83,74,84,75,,,,,,,,,1.9,0.9,1.6*32

$GPRMC,104005.00,A,5627.1366,N,08458.6791,E,00.000,000.0,070515,,,A*64
$GPGGA,104005.00,5627.1366,N,08458.6791,E,1,13,0.9,102.8,M,,M,,*7E
$GPGSA,A,3,30,11,01,07,13,19,28,15,04,,,,1.9,0.9,1.6*31
$GPGSA,A,3,83,74,84,75,,,,,,,,,1.9,0.9,1.6*32

$GPRMC,104006.00,A,5627.1366,N,08458.6789,E,00.000,000.0,070515,,,A*6E
$GPGGA,104006.00,5627.1366,N,08458.6789,E,1,12,0.9,103.1,M,,M,,*7D
$GPGSA,A,3,30,11,01,07,13,19,28,15,04,,,,2.0,0.9,1.8*35
$GPGSA,A,3,74,84,75,,,,,,,,,,2.0,0.9,1.8*3D

$GPRMC,104007.00,A,5627.1366,N,08458.6787,E,00.000,000.0,070515,,,A*61
$GPGGA,104007.00,5627.1366,N,08458.6787,E,1,13,0.9,103.0,M,,M,,*72
$GPGSA,A,3,30,11,01,07,13,19,28,15,04,,,,1.7,0.9,1.5*3C
$GPGSA,A,3,67,74,84,75,,,,,,,,,1.7,0.9,1.5*35
$GPGSV,6,1,1
2,01,34,123,37,04,38,088,38,07,25,156,37,11,48,105,35*73
$GPGSV,6,2,12,13,32,273,17,15,20,310,26,17,25,217,,18,05,357,*75
$GPGSV,6,3,12,19,24,054,30,22,06,028,,28,72,274,18,30,55,176,34*7C
$GPGSV,6,4,9,66,15,317,13,67,14,009,20,73,09,133,16,74,59,135,36
*48
$GPGSV,6,5,9,75,61,310,26,76,07,312,,83,28,038,17,84,72,103,28*4B
$GPGSV,6,6,9,85,38,196,16*7F

$GPRMC,104009.00,A,5627.1368,N,08458.6782,E,00.000,000.0,070515,,,A*64
$GPGGA,104009.00,5627.1368,N,08458.6782,E,1,15,0.7,103.4,M,,M,,*7B
$GPGSA,A,3,30,11,01,07,13,19,28,15,04,,,,1.3,0.7,1.0*33
$GPGSA,A,3,67,83,74,84,75,73,,,,,,,1.3,0.7,1.0*35

$GPRMC,104010.00,A,5627.1369,N,08458.6779,E,00.000,000.0,070515,,,A*69
$GPGGA,104010.00,5627.1369,N,08458.6779,E,1,15,0.7,103.3,M,,M,,*71
$GPGSA,A,3,30,11,01,07,13,19,28,15,04,,,,1.3,0.7,1.0*33
$GPGSA,A,3,67,83,74,84,75,73,,,,,,,1.3,0.7,1.0*35

$GPRMC,104011.00,A,5627.1369,N,08458.6777,E,00.000,000.0,070515,,,A*66
$GPGGA,104011.00,5627.1369,N,08458.6777,E,1,15,0.7,103.3,M,,M,,*7E
$GPGSA,A,3,30,11,01,07,13,19,28,15,04,,,,1.3,0.7,1.0*33
$GPGSA,A,3,67,83,74,84,75,73,,,,,,,1.3,0.7,1.0*35

$GPRMC,104012.00,A,5627.1370,N,08458.6775,E,00.000,000.0,070515,,,A*6F
$GPGGA,104012.00,5627.1370,N,08458.6775,E,1,15,0.7,103.4,M,,M,,*70
$GPGSA,A,3,30,11,01,07,13,19,28,15,04,,,,1.3,0.7,1.0*33
$GPGSA,A,3,67,83,74,84,75,73,,,,,,,1.3,0.7,1.0*35
$GPGSV,6
,1,12,01,34,123,36,04,38,088,36,07,25,156,38,11,48,105,35*73
$GPGSV,6,2,12,13,32,273,17,15,21,310,25,17,26,217,,18,05,357,*74
$GPGSV,6,3,12,19,24,054,32,22,06,028,,28,72,274,18,30,55,176,36*7C
$GPGSV,6,4,9,66,15,317,17,67,14,009,17,73,09,134,17,74,59,13
5,34*4C
$GPGSV,6,5,9,75,61,310,20,76,07,312,,83,28,038,20,84,72,103,28*49
$GPGSV,6,6,9,85,38,196,16*7F

$GPRMC,104014.00,A,5627.1371,N,08458.6772,E,00.000,000.0,070515,,,A*6F
$GPGGA,104014.00,5627.1371,N,08458.6772,E,1,15,0.7,103.7,M,,M,,*73
$GPGSA,A,3,30,11,01,07,13,19,28,15,04,,,,1.3,0.7,1.0*33
$GPGSA,A,3,67,83,74,84,75,73,,,,,,,1.3,0.7,1.0*35

$GPRMC,104015.00,A,5627.1370,N,08458.6776,E,00.000,000.0,070515,,,A*6B
$GPGGA,104015.00,5627.1370,N,08458.6776,E,1,16,0.7,104.6,M,,M,,*72
$GPGSA,A,3,30,11,01,07,13,19,28,15,04,,,,1.2,0.7,1.0*32
$GPGSA,A,3,67,83,74,84,75,73,66,,,,,,1.2,0.7,1.0*34

$GPRMC,104016.00,A,5627.1370,N,08458.6776,E,00.000,000.0,070515,,,A*68
$GPGGA,104016.00,5627.1370,N,08458.6776,E,1,16,0.7,104.9,M,,M,,*7E
$GPGSA,A,3,30,11,01,07,13,19,28,15,04,,,,1.2,0.7,1.0*32
$GPGSA,A,3,67,83,74,84,75,73,66,,,,,,1.2,0.7,1.0*34

$GPRMC,104017.00,A,5627.1371,N,08458.6776,E,00.000,000.0,070515,,,A*68
$GPGGA,104017.00,5627.1371,N,08458.6776,E,1,17,0.6,105.1,M,,M,,*77
$GPGSA,A,3,30,11,01,07,13,19,28,15,04,,,,1.2,0.6,1.0*33
$GPGSA,A,3,67,85,83,74,84,75,73,66,,,,,1.2,0.6,1.0*38
$GPG
SV,6,1,12,01,34,123,37,04,38,088,36,07,25,156,38,11,48,105,39*7E
$GPGSV,6,2,12,13,32,273,19,15,21,310,16,17,26,217,,18,05,357,*7A
$GPGSV,6,3,12,19,24,054,33,22,06,028,,28,72,274,20,30,55,176,36*76
$GPGSV,6,4,9,66,15,317,19,67,14,009,19,73,09,134,19,74,5
9,135,34*42
$GPGSV,6,5,9,75,61,310,25,76,07,312,,83,28,038,19,84,72,103,26*48
$GPGSV,6,6,9,85,38,196,18*71

$GPRMC,104019.00,A,5627.1371,N,08458.6776,E,00.000,000.0,070515,,,A*66
$GPGGA,104019.00,5627.1371,N,08458.6776,E,1,16,0.7,105.7,M,,M,,*7F
$GPGSA,A,3,30,11,01,07,13,19,28,04,,,,,1.2,0.7,1.0*36
$GPGSA,A,3,67,85,83,74,84,75,73,66,,,,,1.2,0.7,1.0*39

$GPRMC,104020.00,A,5627.1372,N,08458.6777,E,00.000,000.0,070515,,,A*6E
$GPGGA,104020.00,5627.1372,N,08458.6777,E,1,14,0.8,106.0,M,,M,,*7E
$GPGSA,A,3,30,11,01,07,13,19,28,04,,,,,1.3,0.8,1.0*38
$GPGSA,A,3,67,74,84,75,73,66,,,,,,,1.3,0.8,1.0*31

$GPRMC,104021.00,A,5627.1372,N,08458.6778,E,00.000,000.0,070515,,,A*60
$GPGGA,104021.00,5627.1372,N,08458.6778,E,1,14,0.8,106.3,M,,M,,*73
$GPGSA,A,3,30,11,01,07,13,19,28,04,,,,,1.3,0.8,1.0*38
$GPGSA,A,3,67,74,84,75,73,66,,,,,,,1.3,0.8,1.0*31

$GPRMC,104021.99,A,5627.1372,N,08458.6779,E,00.000,000.0,070515,,,A*61
$GPGGA,104021.99,5627.1372,N,08458.6779,E,1,14,0.8,106.5,M,,M,,*74
$GPGSA,A,3,30,11,01,07,13,19,28,04,,,,,1.3,0.8,1.0*38
$GPGSA,A,3,67,74,84,75,73,66,,,,,,,1.3,0.8,1.0*31
$GPGSV,6,1
,12,01,34,123,36,04,38,088,36,07,25,156,37,11,48,105,40*7E
$GPGSV,6,2,12,13,32,273,19,15,21,310,16,17,26,217,,18,05,357,19*72
$GPGSV,6,3,12,19,24,054,32,22,06,028,,28,72,274,22,30,54,176,36*74
$GPGSV,6,4,9,66,15,317,17,67,14,009,19,73,09,134,19,74,59,13
5,35*4D
$GPGSV,6,5,9,75,61,310,20,76,07,312,,83,28,038,13,84,72,103,27*46
$GPGSV,6,6,9,85,38,196,15*7C

$GPRMC,104024.00,A,5627.1373,N,08458.6781,E,00.000,000.0,070515,,,A*62
$GPGGA,104024.00,5627.1373,N,08458.6781,E,1,14,0.8,107.0,M,,M,,*73
$GPGSA,A,3,30,11,01,07,13,19,28,04,,,,,1.3,0.8,1.0*38
$GPGSA,A,3,67,74,84,75,73,66,,,,,,,1.3,0.8,1.0*31

$GPRMC,104025.00,A,5627.1373,N,08458.6783,E,00.000,000.0,070515,,,A*61
$GPGGA,104025.00,5627.1373,N,08458.6783,E,1,13,0.9,107.3,M,,M,,*75
$GPGSA,A,3,30,11,01,07,13,19,28,04,,,,,1.4,0.9,1.1*3F
$GPGSA,A,3,74,84,75,73,66,,,,,,,,1.4,0.9,1.1*37

$GPRMC,104026.00,A,5627.1373,N,08458.6789,E,00.000,000.0,070515,,,A*68
$GPGGA,104026.00,5627.1373,N,08458.6789,E,1,15,0.7,108.1,M,,M,,*79
$GPGSA,A,3,30,11,01,07,13,19,28,15,04,,,,1.3,0.7,1.0*33
$GPGSA,A,3,85,74,84,75,73,66,,,,,,,1.3,0.7,1.0*32

$GPRMC,104027.00,A,5627.1373,N,08458.6791,E,00.000,000.0,070515,,,A*60
$GPGGA,104027.00,5627.1373,N,08458.6791,E,1,15,0.7,108.4,M,,M,,*74
$GPGSA,A,3,30,11,01,07,13,19,28,15,04,,,,1.3,0.7,1.0*33
$GPGSA,A,3,85,74,84,75,73,66,,,,,,,1.3,0.7,1.0*32
$GPGSV,6
,1,12,01,34,123,37,04,38,088,37,07,25,156,37,11,48,105,41*7F
$GPGSV,6,2,12,13,32,273,16,15,21,310,21,17,26,217,,18,05,357,*71
$GPGSV,6,3,12,19,24,054,32,22,06,028,,28,72,274,21,30,54,176,36*77
$GPGSV,6,4,9,66,15,317,17,67,14,009,15,73,09,134,18,74,59,13
5,34*41
$GPGSV,6,5,9,75,61,310,18,76,07,312,,83,28,038,11,84,72,103,26*4E
$GPGSV,6,6,9,85,38,196,18*71

$GPRMC,104029.00,A,5627.1373,N,08458.6794,E,00.000,000.0,070515,,,A*6B
$GPGGA,104029.00,5627.1373,N,08458.6794,E,1,15,0.7,108.8,M,,M,,*73
$GPGSA,A,3,30,11,01,07,13,19,28,15,04,,,,1.3,0.7,1.0*33
$GPGSA,A,3,85,74,84,75,73,66,,,,,,,1.3,0.7,1.0*32

$GPRMC,104030.00,A,5627.1374,N,08458.6794,E,00.000,000.0,070515,,,A*64
$GPGGA,104030.00,5627.1374,N,08458.6794,E,1,14,0.8,108.8,M,,M,,*72
$GPGSA,A,3,30,11,01,07,13,19,28,15,04,,,,1.4,0.8,1.1*3A
$GPGSA,A,3,85,74,84,75,73,,,,,,,,1.4,0.8,1.1*3B

$GPRMC,104031.00,A,5627.1374,N,08458.6795,E,00.000,000.0,070515,,,A*64
$GPGGA,104031.00,5627.1374,N,08458.6795,E,1,13,0.9,109.0,M,,M,,*7D
$GPGSA,A,3,30,11,01,07,13,19,28,15,04,,,,1.4,0.9,1.1*3B
$GPGSA,A,3,74,84,75,73,,,,,,,,,1.4,0.9,1.1*37

$GPRMC,104032.00,A,5627.1375,N,08458.6794,E,00.000,000.0,070515,,,A*67
$GPGGA,104032.00,5627.1375,N,08458.6794,E,1,13,0.9,109.0,M,,M,,*7E
$GPGSA,A,3,30,11,01,07,13,19,28,15,04,,,,1.4,0.9,1.1*3B
$GPGSA,A,3,74,84,75,73,,,,,,,,,1.4,0.9,1.1*37
$GPGSV,6,1,1
2,01,34,123,37,04,38,088,36,07,25,156,36,11,48,105,40*7E
$GPGSV,6,2,12,13,32,273,17,15,21,310,21,17,26,217,,18,05,357,*70
$GPGSV,6,3,12,19,24,054,31,22,06,028,,28,72,274,21,30,54,176,33*71
$GPGSV,6,4,9,66,15,317,15,67,14,009,12,73,09,134,18,74,59,135,34
*44
$GPGSV,6,5,9,75,61,310,24,76,07,312,,83,28,038,12,84,72,103,26*42
$GPGSV,6,6,9,85,38,196,14*7D

$GPRMC,104034.00,A,5627.1378,N,08458.6791,E,00.000,000.0,070515,,,A*69
$GPGGA,104034.00,5627.1378,N,08458.6791,E,1,12,1.0,108.9,M,,M,,*71
$GPGSA,A,3,30,11,01,07,19,28,15,04,,,,,1.5,1.0,1.2*33
$GPGSA,A,3,74,84,75,73,,,,,,,,,1.5,1.0,1.2*3D

$GPRMC,104035.00,A,5627.1380,N,08458.6787,E,00.000,000.0,070515,,,A*68
$GPGGA,104035.00,5627.1380,N,08458.6787,E,1,12,0.9,108.7,M,,M,,*76
$GPGSA,A,3,30,11,01,07,19,28,15,04,,,,,1.5,0.9,1.2*3B
$GPGSA,A,3,74,84,75,73,,,,,,,,,1.5,0.9,1.2*35

$GPRMC,104036.00,A,5627.1382,N,08458.6783,E,00.000,000.0,070515,,,A*6D
$GPGGA,104036.00,5627.1382,N,08458.6783,E,1,11,1.0,108.4,M,,M,,*7B
$GPGSA,A,3,30,11,01,07,19,28,15,04,,,,,2.1,1.0,1.8*3E
$GPGSA,A,3,74,84,75,,,,,,,,,,2.1,1.0,1.8*34

$GPRMC,104037.00,A,5627.1384,N,08458.6783,E,00.000,000.0,070515,,,A*6A
$GPGGA,104037.00,5627.1384,N,08458.6783,E,1,14,0.8,108.4,M,,M,,*70
$GPGSA,A,3,30,11,01,07,19,28,15,04,,,,,1.3,0.8,1.1*3F
$GPGSA,A,3,67,85,74,84,75,73,,,,,,,1.3,0.8,1.1*3D
$GPGSV,6,1
,12,01,34,123,37,04,38,088,35,07,25,156,38,11,48,105,41*72
$GPGSV,6,2,12,13,32,273,16,15,21,310,20,17,26,217,,18,05,357,*70
$GPGSV,6,3,12,19,24,054,29,22,06,028,,28,72,274,25,30,54,176,35*7A
$GPGSV,6,4,9,66,15,317,15,67,15,009,18,73,08,134,17,74,59,135,
34*41
$GPGSV,6,5,9,75,61,310,20,76,07,312,,83,28,038,12,84,72,102,26*47
$GPGSV,6,6,9,85,38,196,18*71

$GPRMC,104039.00,A,5627.1389,N,08458.6775,E,00.000,000.0,070515,,,A*60
$GPGGA,104039.00,5627.1389,N,08458.6775,E,1,14,0.8,107.6,M,,M,,*77
$GPGSA,A,3,30,11,01,07,19,28,15,04,,,,,1.3,0.8,1.1*3F
$GPGSA,A,3,67,85,74,84,75,73,,,,,,,1.3,0.8,1.1*3D

$GPRMC,104040.00,A,5627.1391,N,08458.6770,E,00.000,000.0,070515,,,A*62
$GPGGA,104040.00,5627.1391,N,08458.6770,E,1,14,0.8,107.1,M,,M,,*72
$GPGSA,A,3,30,11,01,07,19,28,15,04,,,,,1.3,0.8,1.1*3F
$GPGSA,A,3,67,85,74,84,75,73,,,,,,,1.3,0.8,1.1*3D

$GPRMC,104041.00,A,5627.1394,N,08458.6765,E,00.000,000.0,070515,,,A*62
$GPGGA,104041.00,5627.1394,N,08458.6765,E,1,15,0.7,106.6,M,,M,,*7A
$GPGSA,A,3,30,11,01,07,13,19,28,15,04,,,,1.3,0.7,1.0*33
$GPGSA,A,3,67,85,74,84,75,73,,,,,,,1.3,0.7,1.0*33

$GPRMC,104042.00,A,5627.1396,N,08458.6761,E,00.000,000.0,070515,,,A*67
$GPGGA,104042.00,5627.1396,N,08458.6761,E,1,15,0.7,106.2,M,,M,,*7B
$GPGSA,A,3,30,11,01,07,13,19,28,15,04,,,,1.3,0.7,1.0*33
$GPGSA,A,3,67,85,74,84,75,73,,,,,,,1.3,0.7,1.0*33
$GPGSV,6
,1,12,01,34,123,40,04,38,088,36,07,25,156,40,11,48,105,41*7E
$GPGSV,6,2,12,13,32,273,19,15,21,310,20,17,26,217,,18,05,357,19*77
$GPGSV,6,3,12,19,23,054,29,22,06,028,,28,72,274,18,30,54,176,34*72
$GPGSV,6,4,9,66,15,317,16,67,15,009,20,73,08,134,20,74,59,
135,34*4D
$GPGSV,6,5,9,75,61,310,21,76,07,312,,83,28,038,12,84,72,102,27*47
$GPGSV,6,6,9,85,38,196,20*7A

$GPRMC,104044.00,A,5627.1402,N,08458.6750,E,00.000,000.0,070515,,,A*69
$GPGGA,104044.00,5627.1402,N,08458.6750,E,1,15,0.7,105.0,M,,M,,*74
$GPGSA,A,3,30,11,01,07,13,19,28,15,04,,,,1.3,0.7,1.0*33
$GPGSA,A,3,67,85,74,84,75,73,,,,,,,1.3,0.7,1.0*33

$GPRMC,104045.00,A,5627.1405,N,08458.6744,E,00.000,000.0,070515,,,A*6A
$GPGGA,104045.00,5627.1405,N,08458.6744,E,1,15,0.7,104.3,M,,M,,*75
$GPGSA,A,3,30,11,01,07,13,19,28,15,04,,,,1.3,0.7,1.0*33
$GPGSA,A,3,67,85,74,84,75,73,,,,,,,1.3,0.7,1.0*33

$GPRMC,104046.00,A,5627.1409,N,08458.6737,E,00.000,000.0,070515,,,A*61
$GPGGA,104046.00,5627.1409,N,08458.6737,E,1,15,0.7,103.4,M,,M,,*7E
$GPGSA,A,3,30,11,01,07,13,19,28,15,04,,,,1.3,0.7,1.0*33
$GPGSA,A,3,67,85,74,84,75,73,,,,,,,1.3,0.7,1.0*33

$GPRMC,104047.00,A,5627.1413,N,08458.6731,E,00.000,000.0,070515,,,A*6D
$GPGGA,104047.00,5627.1413,N,08458.6731,E,1,15,0.7,102.7,M,,M,,*70
$GPGSA,A,3,30,11,01,07,13,19,28,15,04,,,,1.3,0.7,1.0*33
$GPGSA,A,3,67,85,74,84,75,73,,,,,,,1.3,0.7,1.0*33
$GPGSV,6
,1,12,01,34,123,38,04,38,088,34,07,25,156,39,11,48,105,39*72
$GPGSV,6,2,12,13,32,273,18,15,21,310,20,17,26,217,,18,05,357,*7E
$GPGSV,6,3,12,19,23,054,29,22,06,028,,28,72,274,19,30,54,175,34*70
$GPGSV,6,4,9,66,15,317,15,67,15,009,19,73,08,134,19,74,59,13
5,32*48
$GPGSV,6,5,9,75,61,310,18,76,07,312,,83,28,038,14,84,72,102,27*4B
$GPGSV,6,6,9,85,38,196,21*7B

$GPRMC,104049.00,A,5627.1419,N,08458.6720,E,00.000,000.0,070515,,,A*69
$GPGGA,104049.00,5627.1419,N,08458.6720,E,1,15,0.7,101.5,M,,M,,*75
$GPGSA,A,3,30,11,01,07,13,19,28,15,04,,,,1.3,0.7,1.0*33
$GPGSA,A,3,67,85,74,84,75,73,,,,,,,1.3,0.7,1.0*33

$GPRMC,104050.00,A,5627.1420,N,08458.6720,E,00.000,000.0,070515,,,A*6B
$GPGGA,104050.00,5627.1420,N,08458.6720,E,1,15,0.7,101.0,M,,M,,*72
$GPGSA,A,3,30,11,01,07,13,19,28,15,04,,,,1.3,0.7,1.0*33
$GPGSA,A,3,67,85,74,84,75,73,,,,,,,1.3,0.7,1.0*33

$GPRMC,104051.00,A,5627.1422,N,08458.6716,E,00.000,000.0,070515,,,A*6D
$GPGGA,104051.00,5627.1422,N,08458.6716,E,1,15,0.7,100.6,M,,M,,*73
$GPGSA,A,3,30,11,01,07,13,19,28,15,04,,,,1.3,0.7,1.0*33
$GPGSA,A,3,67,85,74,84,75,73,,,,,,,1.3,0.7,1.0*33

$GPRMC,104052.00,A,5627.1425,N,08458.6711,E,00.000,000.0,070515,,,A*6E
$GPGGA,104052.00,5627.1425,N,08458.6711,E,1,15,0.7,100.2,M,,M,,*74
$GPGSA,A,3,30,11,01,07,13,19,28,15,04,,,,1.3,0.7,1.0*33
$GPGSA,A,3,67,85,74,84,75,73,,,,,,,1.3,0.7,1.0*33
$GPGSV,6
,1,12,01,35,123,37,04,38,088,33,07,25,156,38,11,48,104,38*7A
$GPGSV,6,2,12,13,32,273,17,15,21,310,18,17,26,217,,18,05,357,*7A
$GPGSV,6,3,12,19,23,054,31,22,06,028,,28,72,274,19,30,54,175,34*79
$GPGSV,6,4,9,66,15,317,16,67,15,009,20,73,08,134,16,74,59,13
5,33*4F
$GPGSV,6,5,9,75,61,310,20,76,07,312,,83,28,038,,84,72,102,27*45
$GPGSV,6,6,9,85,38,196,18*71

$GPRMC,104054.00,A,5627.1429,N,08458.6704,E,00.000,000.0,070515,,,A*60
$GPGGA,104054.00,5627.1429,N,08458.6704,E,1,14,0.8,99.7,M,,M,,*40
$GPGSA,A,3,30,11,01,07,13,19,28,15,04,,,,1.3,0.8,1.0*3C
$GPGSA,A,3,67,74,84,75,73,,,,,,,,1.3,0.8,1.0*31

$GPRMC,104055.00,A,5627.1430,N,08458.6702,E,00.000,000.0,070515,,,A*6F
$GPGGA,104055.00,5627.1430,N,08458.6702,E,1,14,0.8,99.6,M,,M,,*4E
$GPGSA,A,3,30,11,01,07,13,19,28,15,04,,,,1.3,0.8,1.0*3C
$GPGSA,A,3,67,74,84,75,73,,,,,,,,1.3,0.8,1.0*31

$GPRMC,104056.00,A,5627.1431,N,08458.6698,E,00.000,000.0,070515,,,A*6F
$GPGGA,104056.00,5627.1431,N,08458.6698,E,1,13,0.8,99.6,M,,M,,*49
$GPGSA,A,3,30,11,01,07,13,19,28,04,,,,,1.4,0.8,1.1*3E
$GPGSA,A,3,67,74,84,75,73,,,,,,,,1.4,0.8,1.1*37

$GPRMC,104057.00,A,5627.1433,N,08458.6696,E,00.000,000.0,070515,,,A*62
$GPGGA,104057.00,5627.1433,N,08458.6696,E,1,13,0.8,99.6,M,,M,,*44
$GPGSA,A,3,30,11,01,07,13,19,28,04,,,,,1.4,0.8,1.1*3E
$GPGSA,A,3,67,74,84,75,73,,,,,,,,1.4,0.8,1.1*37
$GPGSV,6,1,12
,01,35,123,37,04,38,088,35,07,25,156,40,11,48,104,38*73
$GPGSV,6,2,12,13,32,273,17,15,21,310,17,17,26,217,,18,05,357,*75
$GPGSV,6,3,12,19,23,054,31,22,06,028,,28,72,274,20,30,54,175,35*72
$GPGSV,6,4,9,66,15,317,15,67,15,009,20,73,08,134,20,74,59,135,34*
4E
$GPGSV,6,5,9,75,61,310,24,76,07,312,,83,28,038,,84,72,102,25*43
$GPGSV,6,6,9,85,38,196,13*7A

$GPRMC,104059.00,A,5627.1430,N,08458.6707,E,00.000,000.0,070515,,,A*66
$GPGGA,104059.00,5627.1430,N,08458.6707,E,1,14,0.8,100.7,M,,M,,*77
$GPGSA,A,3,30,11,01,07,13,19,28,15,04,,,,1.3,0.8,1.0*3C
$GPGSA,A,3,67,74,84,75,73,,,,,,,,1.3,0.8,1.0*31

$GPRMC,104100.00,A,5627.1430,N,08458.6707,E,00.000,000.0,070515,,,A*6B
$GPGGA,104100.00,5627.1430,N,08458.6707,E,1,14,0.8,100.9,M,,M,,*74
$GPGSA,A,3,30,11,01,07,13,19,28,15,04,,,,1.3,0.8,1.0*3C
$GPGSA,A,3,67,74,84,75,73,,,,,,,,1.3,0.8,1.0*31

$GPRMC,104101.00,A,5627.1429,N,08458.6709,E,00.000,000.0,070515,,,A*6C
$GPGGA,104101.00,5627.1429,N,08458.6709,E,1,14,0.8,101.2,M,,M,,*79
$GPGSA,A,3,30,11,01,07,13,19,28,15,04,,,,1.3,0.8,1.0*3C
$GPGSA,A,3,67,74,84,75,73,,,,,,,,1.3,0.8,1.0*31

$GPRMC,104102.00,A,5627.1428,N,08458.6712,E,00.000,000.0,070515,,,A*64
$GPGGA,104102.00,5627.1428,N,08458.6712,E,1,14,0.8,101.6,M,,M,,*75
$GPGSA,A,3,30,11,01,07,13,19,28,15,04,,,,1.3,0.8,1.0*3C
$GPGSA,A,3,67,74,84,75,73,,,,,,,,1.3,0.8,1.0*31
$GPGSV,6,1
,12,01,35,123,36,04,38,088,36,07,25,156,40,11,48,104,38*71
$GPGSV,6,2,12,13,32,273,29,15,21,310,21,17,26,217,,18,05,357,*7D
$GPGSV,6,3,12,19,23,054,34,22,06,028,19,28,72,274,18,30,54,175,35*74
$GPGSV,6,4,9,66,15,317,,67,15,009,23,73,08,134,20,74,59,135,
32*4F
$GPGSV,6,5,9,75,61,310,20,76,07,312,,83,28,038,,84,72,102,25*47
$GPGSV,6,6,9,85,38,196,14*7D

$GPRMC,104104.00,A,5627.1416,N,08458.6752,E,00.000,000.0,070515,,,A*6B
$GPGGA,104104.00,5627.1416,N,08458.6752,E,1,14,0.8,104.7,M,,M,,*7E
$GPGSA,A,3,30,11,01,07,13,19,28,15,04,,,,1.3,0.8,1.0*3C
$GPGSA,A,3,67,74,84,75,73,,,,,,,,1.3,0.8,1.0*31

$GPRMC,104105.00,A,5627.1409,N,08458.6777,E,00.000,000.0,070515,,,A*63
$GPGGA,104105.00,5627.1409,N,08458.6777,E,1,14,0.8,106.4,M,,M,,*77
$GPGSA,A,3,30,11,01,07,13,19,28,15,04,,,,1.3,0.8,1.0*3C
$GPGSA,A,3,67,74,84,75,73,,,,,,,,1.3,0.8,1.0*31

$GPRMC,104106.00,A,5627.1404,N,08458.6793,E,00.000,000.0,070515,,,A*67
$GPGGA,104106.00,5627.1404,N,08458.6793,E,1,14,0.8,107.7,M,,M,,*71
$GPGSA,A,3,30,11,01,07,13,19,28,15,04,,,,1.3,0.8,1.0*3C
$GPGSA,A,3,67,74,84,75,73,,,,,,,,1.3,0.8,1.0*31

$GPRMC,104107.00,A,5627.1399,N,08458.6807,E,00.000,000.0,070515,,,A*67
$GPGGA,104107.00,5627.1399,N,08458.6807,E,1,14,0.8,108.8,M,,M,,*71
$GPGSA,A,3,30,11,01,07,13,19,28,15,04,,,,1.3,0.8,1.0*3C
$GPGSA,A,3,67,74,84,75,73,,,,,,,,1.3,0.8,1.0*31
$GPGSV,6,1
,12,01,35,123,36,04,38,088,38,07,25,157,40,11,48,104,39*7F
$GPGSV,6,2,12,13,32,272,26,15,21,310,18,17,26,218,19,18,05,357,*7E
$GPGSV,6,3,12,19,23,054,34,22,06,027,19,28,72,274,18,30,54,175,38*76
$GPGSV,6,4,9,66,15,317,,67,15,009,25,73,08,134,19,74,59,13
5,34*45
$GPGSV,6,5,9,75,61,310,20,76,07,312,,83,28,038,,84,72,102,21*43
$GPGSV,6,6,9,85,38,196,13*7A

$GPRMC,104109.00,A,5627.1397,N,08458.6807,E,00.000,000.0,070515,,,A*67
$GPGGA,104109.00,5627.1397,N,08458.6807,E,1,14,0.8,110.0,M,,M,,*70
$GPGSA,A,3,30,11,01,07,13,19,28,15,04,,,,1.3,0.8,1.0*3C
$GPGSA,A,3,67,74,84,75,73,,,,,,,,1.3,0.8,1.0*31

$GPRMC,104110.00,A,5627.1397,N,08458.6806,E,00.000,000.0,070515,,,A*6E
$GPGGA,104110.00,5627.1397,N,08458.6806,E,1,14,0.8,110.5,M,,M,,*7C
$GPGSA,A,3,30,11,01,07,13,19,28,15,04,,,,1.3,0.8,1.0*3C
$GPGSA,A,3,67,74,84,75,73,,,,,,,,1.3,0.8,1.0*31

$GPRMC,104111.00,A,5627.1396,N,08458.6805,E,00.000,000.0,070515,,,A*6D
$GPGGA,104111.00,5627.1396,N,08458.6805,E,1,14,0.8,111.1,M,,M,,*7A
$GPGSA,A,3,30,11,01,07,13,19,28,15,04,,,,1.3,0.8,1.0*3C
$GPGSA,A,3,67,74,84,75,73,,,,,,,,1.3,0.8,1.0*31

$GPRMC,104112.00,A,5627.1395,N,08458.6803,E,00.000,000.0,070515,,,A*6B
$GPGGA,104112.00,5627.1395,N,08458.6803,E,1,14,0.8,111.8,M,,M,,*75
$GPGSA,A,3,30,11,01,07,13,19,28,04,,,,,1.4,0.8,1.1*3E
$GPGSA,A,3,67,85,74,84,75,73,,,,,,,1.4,0.8,1.1*3A
$GPGSV,6,1
,12,01,35,123,35,04,38,088,38,07,25,157,38,11,48,104,37*7D
$GPGSV,6,2,12,13,32,272,25,15,21,310,15,17,26,218,,18,05,357,*78
